time(millisecond),datetime(utc),latitude,longitude,height_above_takeoff(feet),height_above_ground_at_drone_location(feet),ground_elevation_at_drone_location(feet),altitude_above_seaLevel(feet),height_sonar(feet),speed(mph),distance(feet),mileage(feet),satellites,gpslevel,voltage(v),max_altitude(feet),max_ascent(feet),max_speed(mph),max_distance(feet), xSpeed(mph), ySpeed(mph), zSpeed(mph), compass_heading(degrees), pitch(degrees), roll(degrees),isPhoto,isVideo,rc_elevator,rc_aileron,rc_throttle,rc_rudder,rc_elevator(percent),rc_aileron(percent),rc_throttle(percent),rc_rudder(percent),gimbal_heading(degrees),gimbal_pitch(degrees),gimbal_roll(degrees),battery_percent,voltageCell1,voltageCell2,voltageCell3,voltageCell4,voltageCell5,voltageCell6,current(A),battery_temperature(f),altitude(feet),ascent(feet),flycStateRaw,flycState,message
0,2023-10-08 19:09:34,38.4982359408283,-112.064399742169,0,Available with any HD 360 subscription,Available with any HD 360 subscription,9821.3763638247,0.656168,0,0,0,19,5,0,9821.3763638247,0,0,0,0,0,0,157.9, -6.6, -5.9,0,0,364,364,364,1684,-100,-100,-100,100,0,0,0,98,,,,,,,0,32,9821.3763638247,0,41,Motors_Started,
100,2023-10-08 19:09:34,38.4982359356905,-112.064399737388,0,,,9821.3763638247,0.656168,0,0.00231896989048,0.00231896989048,19,5,0,9821.3763638247,0,0,0.00231896989048,0,0,0,157.9, -6.6, -5.9,0,0,364,364,364,1684,-100,-100,-100,100,0,0,0,98,,,,,,,0,32,9821.3763638247,0,41,Motors_Started,
200,2023-10-08 19:09:34,38.4982359349863,-112.064399742582,0,,,9821.3763638247,0.656168,0,0.0021347277586,0.003824147104,19,5,0,9821.3763638247,0,0,0.00231896989048,0,0,0,157.9, -6.6, -5.9,0,0,364,364,364,1684,-100,-100,-100,100,0,0,0,98,,,,,,,0,32,9821.3763638247,0,41,Motors_Started,
300,2023-10-08 19:09:34,38.4982359284221,-112.064399737738,0,,,9821.3763638247,0.656168,0,0.0046999345336,0.0065898296072,19,5,0,9821.3763638247,0,0,0.0046999345336,0,0,0,157.9, -6.6, -5.9,0,0,364,364,364,1684,-100,-100,-100,100,0,0,0,98,,,,,,,0,32,9821.3763638247,0,41,Motors_Started,
400,2023-10-08 19:09:35,38.4982359350426,-112.064399741502,0,,,9821.3763638247,0.656168,0,0.00211949809932,0.0092336289044,19,5,0,9821.3763638247,0,0,0.0046999345336,0,0,0,157.9, -6.6, -5.9,0,0,364,364,364,1684,-100,-100,-100,100,0,0,0,98,,,,,,,0,32,9821.3763638247,0,41,Motors_Started,
500,2023-10-08 19:09:35,38.4982359285293,-112.064399735858,0,,,9821.3763638247,0.656168,0,0.004835630076,0.0121049216472,19,5,0,9821.3763638247,0,0,0.004835630076,0,0,0,157.9, -6.6, -5.9,0,0,364,364,364,1684,-100,-100,-100,100,0,0,0,98,,,,,,,0,32,9821.3763638247,0,41,Motors_Started,
600,2023-10-08 19:09:35,38.4982360863289,-112.064399739941,0,,,9821.3763638247,0.656168,0,0.053089568628,0.069689634776,19,5,0,9821.3763638247,0,0,0.053089568628,0,0,0,157.9, -6.6, -5.9,0,0,366,364,391,1611,-100,-100,-96,89,0,0,0,98,,,,,,,0,32,9821.3763638247,0,41,Motors_Started,
700,2023-10-08 19:09:35,38.498236094241,-112.06439973297,0,,,9821.3763638247,0.656168,0,0.056034122528,0.073196524652,19,5,0,9821.3763638247,0,0,0.056034122528,0,0,0,157.9, -6.6, -5.9,0,0,1008,1024,865,1024,-2,0,-24,0,0,0,0,98,,,,,,,0,32,9821.3763638247,0,41,Motors_Started,
800,2023-10-08 19:09:35,38.4982360769718,-112.064399890282,0,,,9821.3763638247,0.656168,0,0.065237534896,0.118555449988,19,5,0,9821.3763638247,0,0,0.065237534896,0,0,0,158, -6.6, -5.9,0,0,1024,1024,1024,1024,0,0,0,0,0,0,0,98,,,,,,,0,32,9821.3763638247,0,41,Motors_Started,"Setting new Return-To-Home altitude to 61m (200 ft). Data Recorder File Index is 28. Setting new Maximum Flight Altitude to 500m (1640 ft)"
900,2023-10-08 19:09:35,38.4982360824705,-112.064399896675,0,,,9821.3763638247,0.656168,0,0.067948492988,0.121267720416,19,5,0,9821.3763638247,0,0,0.067948492988,0,0,0,158, -6.6, -5.9,0,0,1024,1024,1024,1024,0,0,0,0,0,0,0,98,,,,,,,0,32,9821.3763638247,0,41,Motors_Started,
1000,2023-10-08 19:09:35,38.4982360689831,-112.064399726239,0,,,9821.3763638247,0.656168,0,0.046978019876,0.170182420144,19,5,0,9821.3763638247,0,0,0.067948492988,0,0,0,158, -6.6, -5.9,0,0,1024,1024,1024,1024,0,0,0,0,0,0,0,98,,,,,,,0,32,9821.3763638247,0,41,Motors_Started,
1100,2023-10-08 19:09:35,38.4982360715381,-112.064399715422,0,,,9821.3763638247,0.656168,0,0.048296917556,0.1734087982,19,5,0,9821.3763638247,0,0,0.067948492988,0,0,0,158, -6.6, -5.9,0,0,1024,1024,1024,1024,0,0,0,0,0,0,0,98,,,,,,,0,32,9821.3763638247,0,41,Motors_Started,
1200,2023-10-08 19:09:35,38.4982362096618,-112.064399727587,0,,,9821.3763638247,0.656168,0,0.098171919152,0.223922579344,19,5,0,9821.3763638247,0,0,0.098171919152,0,0,0,158, -6.6, -5.9,0,0,1024,1024,1024,1024,0,0,0,0,0,0,0,98,,,,,,,0,32,9821.3763638247,0,41,Motors_Started,
1300,2023-10-08 19:09:35,38.498236223451,-112.064399716519,0,,,9821.3763638247,0.656168,0,0.10337434714,0.2298638525,19,5,0,9821.3763638247,0,0,0.10337434714,0,0,0,158, -6.7, -5.9,0,0,1024,1024,1024,1024,0,0,0,0,0,0,0,98,,,,,,,0,32,9821.3763638247,0,41,Motors_Started,
1400,2023-10-08 19:09:35,38.4982361903752,-112.064399883072,0,,,9821.3763638247,0.656168,0,0.0995406856,0.2789288147,19,5,0,9821.3763638247,0,0,0.10337434714,0,0,0,158, -6.6, -5.9,0,0,1024,1024,1024,1024,0,0,0,0,0,0,0,98,,,,,,,0,32,9821.3763638247,0,41,Motors_Started,
1500,2023-10-08 19:09:36,38.4982362019507,-112.064399886267,0,,,9821.3763638247,0.656168,0,0.103775921956,0.283249352896,19,5,0,9821.3763638247,0,0,0.103775921956,0,0,0,158, -6.6, -5.9,0,0,1024,1024,1024,1024,0,0,0,0,0,0,0,98,,,,,,,0,32,9821.3763638247,0,41,Motors_Started,
1600,2023-10-08 19:09:36,38.4982361844634,-112.064399872497,0,,,9821.3763638247,0.656168,0,0.096365816732,0.290743775708,19,5,0,9821.3763638247,0,0,0.103775921956,0,0,0,158, -6.6, -5.9,0,0,1024,1024,1024,1024,0,0,0,0,0,0,0,98,,,,,,,0,32,9821.3763638247,0,41,Motors_Started,
1700,2023-10-08 19:09:36,38.4982361930395,-112.064399873006,0,,,9821.3763638247,0.656168,0,0.099313979556,0.29387632174,19,5,0,9821.3763638247,0,0,0.103775921956,0,0,0,158, -6.6, -5.9,0,0,1024,1024,1024,1024,0,0,0,0,0,0,0,98,,,,,,,0,32,9821.3763638247,0,41,Motors_Started,
1800,2023-10-08 19:09:36,38.4982361793121,-112.064399861678,0,,,9821.3763638247,0.656168,0,0.093463257584,0.299838592272,19,5,0,9821.3763638247,0,0,0.103775921956,0,0,0,158, -6.7, -5.9,0,0,1024,1024,1024,1024,0,0,0,0,0,0,0,98,,,,,,,0,32,9821.3763638247,0,41,Motors_Started,
1900,2023-10-08 19:09:36,38.4982361878451,-112.064399860163,0,,,9821.3763638247,0.656168,0,0.096215882344,0.302981636992,19,5,0,9821.3763638247,0,0,0.103775921956,0,0,0,158, -6.6, -5.9,0,0,1024,1024,1024,1024,0,0,0,0,0,0,0,98,,,,,,,0,32,9821.3763638247,0,41,Motors_Started,
2000,2023-10-08 19:09:36,38.4982363231633,-112.064399856375,0,,,9821.3763638247,0.656168,0,0.143255910096,0.35236549684,19,5,0,9821.3763638247,0,0,0.143255910096,0,0,0,158, -6.6, -5.9,0,0,1024,1024,1024,1024,0,0,0,0,0,0,0,98,,,,,,,0,32,9821.3763638247,0,10,Assisted_Takeoff,
2100,2023-10-08 19:09:36,38.4982363435646,-112.064399852071,0,,,9821.3763638247,0.656168,0,0.150251973312,0.359908148,19,5,0,9821.3763638247,0,0,0.150251973312,0,0,0,158, -6.6, -5.9,0,0,1024,1024,1024,1024,0,0,0,0,0,0,0,98,,,,,,,0,32,9821.3763638247,0,10,Assisted_Takeoff,
2200,2023-10-08 19:09:36,38.4982363120146,-112.064399850562,0,,,9821.3763638247,0.656168,0,0.1389189677,0.37142717724,19,5,0,9821.3763638247,0,0,0.150251973312,0,0,0,158, -6.6, -5.9,0,0,1024,1024,1024,1024,0,0,0,0,0,0,0,98,,,,,,,0,32,9821.3763638247,0,10,Assisted_Takeoff,
2300,2023-10-08 19:09:36,38.4982363283847,-112.064399844467,0,,,9821.3763638247,0.656168,0,0.144385175224,0.37764764988,19,5,0,9821.3763638247,0,0,0.150251973312,0,0,0,158, -6.6, -5.9,0,0,1024,1024,1024,1024,0,0,0,0,0,0,0,98,,,,,,,0,32,9821.3763638247,0,10,Assisted_Takeoff,
2400,2023-10-08 19:09:36,38.498236291817,-112.064399844456,0,,,9821.3763638247,0.656168,0,0.131346460896,0.39099082616,19,5,0,9821.3763638247,0,0,0.150251973312,0,0,0,158, -6.6, -5.9,0,0,1024,1024,1024,1024,0,0,0,0,0,0,0,98,,,,,,,0,32,9821.3763638247,0,10,Assisted_Takeoff,
2500,2023-10-08 19:09:37,38.4982363041437,-112.064399835675,0,,,9821.3763638247,0.656168,0,0.135217524012,0.39613846412,19,5,0,9821.3763638247,0,0,0.150251973312,0,0,0,158, -6.6, -5.9,0,0,1024,1024,1024,1024,0,0,0,0,0,0,0,98,,,,,,,0,32,9821.3763638247,0,10,Assisted_Takeoff,
2600,2023-10-08 19:09:37,38.4982364343314,-112.064399838867,0,,,9821.3763638247,0.656168,0,0.182159126564,0.44364830816,19,5,0,9821.3763638247,0,0,0.182159126564,0,0,0,158, -6.6, -5.9,0,0,1024,1024,1024,1024,0,0,0,0,0,0,0,98,,,,,,,0,32,9821.3763638247,0,10,Assisted_Takeoff,
2700,2023-10-08 19:09:37,38.4982364581126,-112.064399828458,0,,,9821.3763638247,0.656168,0,0.190332355172,0.45281825596,19,5,0,9821.3763638247,0,0,0.190332355172,0,0,0,158, -6.6, -5.9,0,0,1024,1024,1024,1024,0,0,0,0,0,0,0,98,,,,,,,0,32,9821.3763638247,0,10,Assisted_Takeoff,
2800,2023-10-08 19:09:37,38.4982364166415,-112.064399985607,0,,,9821.3763638247,0.656168,0,0.1869996779,0.50017390052,19,5,0,9821.3763638247,0,0,0.190332355172,0,0,0,158, -6.6, -5.9,0,0,1024,1024,1024,1024,0,0,0,0,0,0,0,98,,,,,,,0,32,9821.3763638247,0,10,Assisted_Takeoff,
2900,2023-10-08 19:09:37,38.4982364356021,-112.064399988511,0,,,9821.3763638247,0.656168,0,0.19373852326,0.50713912384,19,5,0,9821.3763638247,0,0,0.19373852326,0,0,0,158, -6.6, -5.9,0,0,1024,1024,1024,1024,0,0,0,0,0,0,0,98,,,,,,,0,32,9821.3763638247,0,10,Assisted_Takeoff,
3000,2023-10-08 19:09:37,38.4982364025024,-112.064399974291,0,,,9821.3763638247,0.656168,0,0.181012801068,0.5198819064,19,5,0,9821.3763638247,0,0,0.19373852326,0,0,0,158, -6.6, -5.9,0,0,1024,1024,1024,1024,0,0,0,0,0,0,0,98,,,,,,,0,32,9821.3763638247,0,10,Assisted_Takeoff,
3100,2023-10-08 19:09:37,38.4982364168904,-112.064399975277,0,,,9821.3763638247,0.656168,0,0.186008208052,0.52513781208,19,5,0,9821.3763638247,0,0,0.19373852326,0,0,0,158, -6.6, -5.9,0,0,1024,1024,1024,1024,0,0,0,0,0,0,0,98,,,,,,,0,32,9821.3763638247,0,10,Assisted_Takeoff,
3200,2023-10-08 19:09:37,38.4982365413143,-112.064399969716,0,,,9821.3763638247,0.656168,0,0.228518380016,0.57056104188,19,5,0,9821.3763638247,0,0,0.228518380016,0,0,0,158, -6.6, -5.9,0,0,1024,1024,1024,1024,0,0,0,0,0,0,0,98,,,,,,,0,32,9821.3763638247,0,10,Assisted_Takeoff,
3300,2023-10-08 19:09:37,38.4982365662338,-112.064399968392,0,,,9821.3763638247,0.656168,0,0.237146004964,0.57966209204,19,5,0,9821.3763638247,0,0,0.237146004964,0,0,0,158, -6.6, -5.9,0,0,1024,1024,1024,1024,0,0,0,0,0,0,0,98,,,,,,,0,32,9821.3763638247,0,10,Assisted_Takeoff,
3400,2023-10-08 19:09:37,38.4982365208821,-112.064399962082,0,,,9821.3763638247,0.656168,0,0.220751647484,0.59630579336,19,5,0,9821.3763638247,0,0,0.237146004964,0,0,0,158, -6.6, -5.9,0,0,1024,1024,1024,1024,0,0,0,0,0,0,0,98,,,,,,,0,32,9821.3763638247,0,10,Assisted_Takeoff,
3500,2023-10-08 19:09:38,38.4982365411073,-112.064399958089,0,,,9821.3763638247,0.656168,0,0.227524285496,0.6037729852,19,5,0,9821.3763638247,0,0,0.237146004964,0,0,0,158, -6.6, -5.9,0,0,1024,1024,1024,1024,0,0,0,0,0,0,0,98,,,,,,,0,32,9821.3763638247,0,10,Assisted_Takeoff,
3600,2023-10-08 19:09:38,38.4982365069422,-112.064399954238,0,,,9821.3763638247,0.656168,0,0.215239836284,0.61628610896,19,5,0,9821.3763638247,0,0,0.237146004964,0,0,0,158, -6.6, -5.9,0,0,1024,1024,1038,1024,0,0,2,0,0,0,0,98,,,,,,,0,32,9821.3763638247,0,10,Assisted_Takeoff,
3700,2023-10-08 19:09:38,38.4982365239406,-112.064399947295,0,,,9821.3763638247,0.656168,0,0.220663720972,0.62279857636,19,5,0,9821.3763638247,0,0,0.237146004964,0,0,0,158, -6.6, -5.9,0,0,1024,1024,1120,1024,0,0,15,0,0,0,0,98,,,,,,,0,32,9821.3763638247,0,10,Assisted_Takeoff,
3800,2023-10-08 19:09:38,38.4982366460291,-112.064399944932,0,,,9821.3763638247,0.656168,0,0.263725730224,0.66734582188,19,5,0,9821.3763638247,0,0,0.263725730224,0,0,0,158, -6.6, -5.9,0,0,1024,1024,1247,1024,0,0,34,0,0,0,0,98,,,,,,,0,32,9821.3763638247,0,10,Assisted_Takeoff,
3900,2023-10-08 19:09:38,38.4982366738087,-112.064399936302,0,,,9821.3763638247,0.656168,0,0.273112213464,0.67777561224,19,5,0,9821.3763638247,0,0,0.273112213464,0,0,0,158, -6.6, -5.9,0,0,1024,1024,1363,1024,0,0,51,0,0,0,0,98,,,,,,,0,32,9821.3763638247,0,10,Assisted_Takeoff,
4000,2023-10-08 19:09:38,38.4982366286286,-112.064399940517,0,,,9821.3763638247,0.656168,0,0.257255257576,0.69430448416,19,5,0,9821.3763638247,0,0,0.273112213464,0,0,0,158, -6.5, -5.9,0,0,1024,1024,1403,1024,0,0,57,0,0,0,0,98,,,,,,,0,32,9821.3763638247,0,10,Assisted_Takeoff,
4100,2023-10-08 19:09:38,38.4982366538501,-112.064399930229,0,,,9821.3763638247,0.656168,0,0.26562992976,0.70396327712,19,5,0,9821.3763638247,0,0,0.273112213464,0,0,0,158, -6.4, -5.9,0,0,1024,1024,1414,1024,0,0,59,0,0,0,0,98,,,,,,,0,32,9821.3763638247,0,10,Assisted_Takeoff,
4200,2023-10-08 19:09:38,38.4982366143744,-112.06439993627,0,,,9821.3763638247,0.656168,0,0.251915362392,0.7184711516,19,5,0,9821.3763638247,0,0,0.273112213464,0,0,0,157.9, -6.4, -5.9,0,0,1024,1024,1444,1024,0,0,64,0,0,0,0,98,,,,,,,0,32,9821.3763638247,0,10,Assisted_Takeoff,
4300,2023-10-08 19:09:38,38.4982366323669,-112.064399924191,0,,,9821.3763638247,0.656168,0,0.25760499512,0.72588585,19,5,0,9821.3763638247,0,0,0.273112213464,0,0,0,157.9, -6.4, -5.9,0,0,1024,1024,1461,1024,0,0,66,0,0,0,0,98,,,,,,,0,32,9821.3763638247,0,10,Assisted_Takeoff,
4400,2023-10-08 19:09:38,38.4982367506842,-112.064399930418,0,,,9821.3763638247,0.656168,0,0.300325140844,0.76909123196,19,5,0,9821.3763638247,0,0,0.300325140844,0,0,0,157.9, -6.3, -6,0,0,1024,1024,1464,1024,0,0,67,0,0,0,0,98,,,,,,,0,32,9821.3763638247,0,10,Assisted_Takeoff,
4500,2023-10-08 19:09:39,38.4982367792653,-112.064399916534,0,,,9821.3763638247,0.656168,0,0.309928487608,0.78024608796,19,5,0,9821.3763638247,0,0,0.309928487608,0,0,0,157.9, -6.2, -6,0,0,1024,1024,1467,1024,0,0,67,0,0,0,0,98,,,,,,,0,32,9821.3763638247,0,10,Assisted_Takeoff,
4600,2023-10-08 19:09:39,38.4982367327507,-112.064399919339,0,,,9821.3763638247,0.656168,0,0.293327765292,0.79723755832,19,5,0,9821.3763638247,0,0,0.309928487608,0,0,0,157.7, -5.8, -6,0,0,1024,1024,1466,1024,0,0,67,0,0,0,0,98,,,,,,,0,32,9821.3763638247,0,10,Assisted_Takeoff,
4700,2023-10-08 19:09:39,38.4982367639086,-112.064399885222,0,,,9821.3763638247,0.656168,0,0.303065626496,0.81220803124,19,5,0,9821.3763638247,0,0,0.309928487608,0,0,0,157.2, -5.1, -5.9,0,0,1024,1024,1462,1024,0,0,66,0,0,0,0,98,,,,,,,0,32,9821.3763638247,0,10,Assisted_Takeoff,
4800,2023-10-08 19:09:39,38.4982368952506,-112.064399857189,0,,,9821.3763638247,0.656168,0,0.34976707156,0.86079070996,19,5,0,9821.3763638247,0,0,0.34976707156,0,0,0,156.7, -3.2, -5.9,0,0,1024,1024,1461,1024,0,0,66,0,0,0,0,98,,,,,,,0,32,9821.3763638247,0,10,Assisted_Takeoff,
4900,2023-10-08 19:09:39,38.4982369470941,-112.064399719747,0,,,9821.3763638247,0.656168,0.223694,0.3671916128,0.90435698432,19,5,0,9821.3763638247,0,0.223694,0.3671916128,0,0.223694,-0.223694,155.5, 0.9, -4.6,0,0,1024,1024,1451,1024,0,0,65,0,0,0,0,98,,,,,,,0,32,9821.3763638247,0,10,Assisted_Takeoff,"Home Point recorded. Return-to-Home Altitude:200.1 ft"
5000,2023-10-08 19:09:39,38.4982369645509,-112.0643995411,0,,,9821.3763638247,0.984252,0.223694,0.37789043204,0.95576446628,19,5,0,9821.3763638247,0,0.223694,0.37789043204,0,0.223694,-0.671082,154.6, 4.2, -2.3,0,0,1024,1024,1422,1024,0,0,60,0,0,0,0,98,,,,,,,0,32,9821.3763638247,0,6,P-GPS,
5100,2023-10-08 19:09:39,38.4982371171605,-112.064399337184,0,,,9821.3763638247,0.984252,0.3131716,0.44449148404,1.03632877332,19,5,0,9821.3763638247,0,0.3131716,0.44449148404,0.223694,0.223694,-1.11847,154, 5.3, 0,0,0,1024,1024,1419,1024,0,0,60,0,0,0,0,98,,,,,,,0,32,9821.3763638247,0,6,P-GPS,
5200,2023-10-08 19:09:39,38.4982372850363,-112.064399289474,0.328084,,,9821.7044478247,1.312336,0.4921268,0.50718177476,1.09907483832,19,5,0,9821.7044478247,0.328084,0.4921268,0.50718177476,0.447388,0.223694,-1.342164,153.8, 5.4, 1.4,0,0,1024,1024,1419,1024,0,0,60,0,0,0,0,98,,,,,,,0,32,9821.7044478247,0.328084,6,P-GPS,
5300,2023-10-08 19:09:39,38.4982375494139,-112.064399252143,0.656168,,,9822.0325318247,1.312336,0.447388,0.60333991432,1.19611880468,19,5,0,9822.0325318247,0.656168,0.4921268,0.60333991432,0.447388,0,-1.789552,153.7, 3.5, 2.7,0,0,1024,1024,1424,1024,0,0,61,0,0,0,0,98,,,,,,,0,32,9822.0325318247,0.656168,6,P-GPS,
5400,2023-10-08 19:09:40,38.4982378398004,-112.064399471538,0.984252,,,9822.3606158247,1.64042,0.447388,0.69713584908,1.31920279812,19,5,0,9822.3606158247,0.984252,0.4921268,0.69713584908,0.447388,0,-2.23694,153.6, 1.1, 2.8,0,0,1024,1024,1420,1024,0,0,60,0,0,0,0,98,,,,,,,0,32,9822.3606158247,0.984252,6,P-GPS,
5500,2023-10-08 19:09:40,38.4982381066699,-112.064399648875,1.312336,,,9822.6886998247,2.296588,0.4921268,0.79065619328,1.42895017696,19,5,0,9822.6886998247,1.312336,0.4921268,0.79065619328,0.447388,-0.223694,-2.684328,153.7, -0.5, 1.9,0,0,1024,1024,1406,1024,0,0,58,0,0,0,0,98,,,,,,,0,32,9822.6886998247,1.312336,6,P-GPS,
5600,2023-10-08 19:09:40,38.4982381158716,-112.064399967913,1.64042,,,9823.0167838247,2.624672,0.4921268,0.796177847,1.52010831636,19,5,0,9823.0167838247,1.64042,0.4921268,0.796177847,0.447388,-0.223694,-3.131716,153.9, -1.7, 0.4,0,0,1024,1024,1405,1024,0,0,58,0,0,0,0,98,,,,,,,0,32,9823.0167838247,1.64042,6,P-GPS,
5700,2023-10-08 19:09:40,38.4982382783689,-112.064400216652,2.296588,,,9823.6729518247,3.28084,0.3131716,0.86354333472,1.61262800436,19,5,0,9823.6729518247,2.296588,0.4921268,0.86354333472,0.223694,-0.223694,-3.579104,154.1, -2.6, -0.8,0,0,1024,1024,1401,1024,0,0,57,0,0,0,0,98,,,,,,,0,32,9823.6729518247,2.296588,6,P-GPS,
5800,2023-10-08 19:09:40,38.4982384718242,-112.064400340918,2.952756,,,9824.3291198247,3.608924,0.3131716,0.93912732664,1.69162735072,19,5,0,9824.3291198247,2.952756,0.4921268,0.93912732664,0.223694,-0.223694,-4.026492,154.3, -2.9, -1.4,0,0,1024,1024,1398,1024,0,0,57,0,0,0,0,98,,,,,,,0,32,9824.3291198247,2.952756,6,P-GPS,
5900,2023-10-08 19:09:40,38.4982385437494,-112.064400493733,3.28084,,,9824.6572038247,4.265092,0.223694,0.97361879756,1.74254598752,19,5,0,9824.6572038247,3.28084,0.4921268,0.97361879756,0,-0.223694,-4.47388,154.4, -2.7, -1.3,0,0,1024,1024,1393,1024,0,0,56,0,0,0,0,98,,,,,,,0,32,9824.6572038247,3.28084,6,P-GPS,
6000,2023-10-08 19:09:40,38.4982387632537,-112.064400521059,4.265092,,,9825.6414558247,4.92126,0,1.05350397072,1.82300858852,19,5,0,9825.6414558247,4.265092,0.4921268,1.05350397072,0,0,-4.697574,154.3, -2.2, -0.9,0,0,1024,1024,1393,1024,0,0,56,0,0,0,0,98,,,,,,,0,32,9825.6414558247,4.265092,6,P-GPS,
6100,2023-10-08 19:09:40,38.4982387611112,-112.06440059009,4.92126,,,9826.2976238247,5.577428,0,1.05708008632,1.84273627944,19,5,0,9826.2976238247,4.92126,0.4921268,1.05708008632,0,0,-4.921268,154.4, -1.6, -0.6,0,0,1024,1024,1393,1024,0,0,56,0,0,0,0,98,,,,,,,0,32,9826.2976238247,4.92126,6,P-GPS,
6200,2023-10-08 19:09:40,38.4982387196746,-112.064400639121,5.577428,,,9826.9537918247,6.56168,0,1.04570869488,1.86333995464,19,5,0,9826.9537918247,5.577428,0.4921268,1.05708008632,0,0,-5.144962,154.5, -1.3, -0.6,0,0,1024,1024,1393,1024,0,0,56,0,0,0,0,98,,,,,,,0,32,9826.9537918247,5.577428,6,P-GPS,
6300,2023-10-08 19:09:40,38.4982386549167,-112.064400665695,6.56168,,,9827.9380438247,7.217848,0,1.02474412728,1.8881562284,19,5,0,9827.9380438247,6.56168,0.4921268,1.05708008632,0,0,-5.368656,154.7, -1.1, -0.8,0,0,1024,1024,1392,1024,0,0,56,0,0,0,0,98,,,,,,,0,32,9827.9380438247,6.56168,6,P-GPS,
6400,2023-10-08 19:09:40,38.4982388595503,-112.064400941395,7.217848,,,9828.5942118247,7.874016,0,1.11859583632,1.9966536072,19,5,0,9828.5942118247,7.217848,0.4921268,1.11859583632,-0.223694,0,-5.368656,154.9, -0.9, -0.9,0,0,1024,1024,1392,1024,0,0,56,0,0,0,0,98,,,,,,,0,32,9828.5942118247,7.217848,6,P-GPS,
6500,2023-10-08 19:09:41,38.4982387813076,-112.064400943225,7.874016,,,9829.2503798247,8.530184,0.223694,1.091617489,2.02520675772,19,5,0,9829.2503798247,7.874016,0.4921268,1.11859583632,-0.223694,0,-5.368656,155, -0.7, -1,0,0,1024,1024,1392,1024,0,0,56,0,0,0,0,98,,,,,,,0,32,9829.2503798247,7.874016,6,P-GPS,
6600,2023-10-08 19:09:41,38.4982385402253,-112.064400869956,8.858268,,,9830.2346318247,9.186352,0.223694,1.00157155436,2.1156168656,19,5,0,9830.2346318247,8.858268,0.4921268,1.11859583632,-0.223694,0,-5.368656,155.1, -0.5, -1,0,0,1024,1024,1392,1024,0,0,56,0,0,0,0,98,,,,,,,0,32,9830.2346318247,8.858268,6,P-GPS,
6700,2023-10-08 19:09:41,38.4982384289128,-112.064400824562,9.514436,,,9830.8907998247,9.84252,0.223694,0.95894688108,2.15824810056,19,5,0,9830.8907998247,9.514436,0.4921268,1.11859583632,-0.223694,0,-5.144962,155.2, -0.2, -1,0,0,1047,1024,1392,1024,3,0,56,0,0,0,0,98,,,,,,,0,32,9830.8907998247,9.514436,6,P-GPS,
6800,2023-10-08 19:09:41,38.4982383434569,-112.06440069581,10.498688,,,9831.8750518247,10.826772,0.223694,0.91791669604,2.20645348268,19,5,0,9831.8750518247,10.498688,0.4921268,1.11859583632,-0.223694,0,-5.144962,155.3, 0, -0.9,0,0,1052,1024,1392,1024,4,0,56,0,0,0,0,98,,,,,,,0,32,9831.8750518247,10.498688,6,P-GPS,
6900,2023-10-08 19:09:41,38.4982382320197,-112.064400611437,11.154856,,,9832.5312198247,11.48294,0.223694,0.87201118276,2.25371398288,19,5,0,9832.5312198247,11.154856,0.4921268,1.11859583632,-0.223694,0,-5.144962,155.3, 0.2, -0.8,0,0,1102,1024,1393,1024,12,0,56,0,0,0,0,98,,,,,,,0,32,9832.5312198247,11.154856,6,P-GPS,
7000,2023-10-08 19:09:41,38.4982380939818,-112.06440075627,11.811024,,,9833.1873878247,11.811024,0.223694,0.83724412128,2.3188813078,19,5,0,9833.1873878247,11.811024,0.4921268,1.11859583632,-0.223694,0,-4.921268,155.3, 0.3, -0.5,0,0,1160,1024,1398,1024,21,0,57,0,0,0,0,98,,,,,,,0,32,9833.1873878247,11.811024,6,P-GPS,
7100,2023-10-08 19:09:41,38.4982379828597,-112.064400681481,12.795276,,,9834.1716398247,12.467192,0.223694,0.79184057652,2.36470480008,19,5,0,9834.1716398247,12.795276,0.4921268,1.11859583632,-0.223694,0,-4.921268,155.4, 0.3, -0.3,0,0,1208,1024,1399,1024,28,0,57,0,0,0,0,98,,,,,,,0,32,9834.1716398247,12.795276,6,P-GPS,
7200,2023-10-08 19:09:41,38.4982375957912,-112.064400604155,13.451444,,,9834.8278078247,13.12336,0.223694,0.6520505458,2.50764115636,19,5,0,9834.8278078247,13.451444,0.4921268,1.11859583632,-0.223694,0,-4.921268,155.4, 0, -0.3,0,0,1256,1024,1397,1024,35,0,57,0,0,0,0,98,,,,,,,0,32,9834.8278078247,13.451444,6,P-GPS,
7300,2023-10-08 19:09:41,38.4982374578546,-112.06440053014,14.107612,,,9835.4839758247,13.779528,0.223694,0.59747049156,2.56222449144,19,5,0,9835.4839758247,14.107612,0.4921268,1.11859583632,-0.223694,0,-4.921268,155.4, -1.1, -0.3,0,0,1290,1024,1398,1024,40,0,57,0,0,0,0,98,,,,,,,0,32,9835.4839758247,14.107612,6,P-GPS,
7400,2023-10-08 19:09:41,38.4982374013093,-112.064400363171,14.76378,,,9836.1401438247,14.435696,0.223694,0.56158466364,2.614173312,19,5,0,9836.1401438247,14.76378,0.4921268,1.11859583632,-0.223694,0,-4.697574,155.4, -3.2, -0.4,0,0,1337,1024,1396,1024,47,0,56,0,0,0,0,98,,,,,,,0,32,9836.1401438247,14.76378,6,P-GPS,
7500,2023-10-08 19:09:42,38.4982372115814,-112.064400243606,15.748032,,,9837.1243958247,15.091864,0.4921268,0.48523951684,2.691355073,19,5,0,9837.1243958247,15.748032,0.4921268,1.11859583632,-0.447388,0.223694,-4.697574,155.4, -5.7, -0.5,0,0,1355,1024,1393,1024,50,0,56,0,0,0,0,98,,,,,,,0,32,9837.1243958247,15.748032,6,P-GPS,
7600,2023-10-08 19:09:42,38.4982370199216,-112.064400168541,16.4042,,,9837.7805638247,15.748032,0.7158208,0.41209975072,2.76449483912,19,5,0,9837.7805638247,16.4042,0.7158208,1.11859583632,-0.671082,0.223694,-4.697574,155.3, -7.8, -0.5,0,0,1375,1024,1393,1024,53,0,56,0,0,0,0,98,,,,,,,0,32,9837.7805638247,16.4042,6,P-GPS,
7700,2023-10-08 19:09:42,38.4982366507867,-112.064399939874,17.060368,,,9838.4367318247,16.076116,1.006623,0.2651082762,2.91416675992,19,5,0,9838.4367318247,17.060368,1.006623,1.11859583632,-0.894776,0.447388,-4.697574,155.3, -8.8, -0.4,0,0,1411,1024,1390,1024,59,0,55,0,0,0,0,98,,,,,,,0,32,9838.4367318247,17.060368,6,P-GPS,
7800,2023-10-08 19:09:42,38.4982359694208,-112.064399578471,17.716536,,,9839.0928998247,16.4042,1.2079476,0.047892389984,3.18333015436,19,5,0,9839.0928998247,17.716536,1.2079476,1.11859583632,-1.11847,0.447388,-4.697574,155.2, -8.9, -0.2,0,0,1449,1024,1390,1024,64,0,55,0,0,0,0,98,,,,,,,0,32,9839.0928998247,17.716536,6,P-GPS,
7900,2023-10-08 19:09:42,38.498235337558,-112.064399199205,18.700788,,,9840.0771518247,17.060368,1.7000744,0.269225074232,3.4380250444,19,5,0,9840.0771518247,18.700788,1.7000744,1.11859583632,-1.565858,0.671082,-4.697574,155.3, -8.5, 0,0,0,1487,1024,1394,1024,70,0,56,0,0,0,0,98,,,,,,,0,32,9840.0771518247,18.700788,6,P-GPS,
8000,2023-10-08 19:09:42,38.4982345018107,-112.064398785451,19.356956,,,9840.7333198247,17.388452,1.901399,0.59184385096,3.7650591756,19,5,0,9840.7333198247,19.356956,1.901399,1.11859583632,-1.789552,0.671082,-4.697574,155.3, -8, 0.1,0,0,1524,1024,1395,1024,76,0,56,0,0,0,0,98,,,,,,,0,32,9840.7333198247,19.356956,6,P-GPS,
8100,2023-10-08 19:09:42,38.4982336247548,-112.064398287011,20.013124,,,9841.3894878247,18.04462,2.1922012,0.94164701176,4.1152560372,19,5,0,9841.3894878247,20.013124,2.1922012,1.11859583632,-2.013246,0.894776,-4.697574,155.4, -7.7, 0.1,0,0,1582,1024,1388,1024,85,0,55,0,0,0,0,98,,,,,,,0,32,9841.3894878247,20.013124,6,P-GPS,
8200,2023-10-08 19:09:42,38.498232775172,-112.064397704443,20.669292,,,9842.0456558247,18.700788,2.6172198,1.29327103876,4.4670605104,19,5,0,9842.0456558247,20.669292,2.6172198,1.29327103876,-2.460634,0.894776,-4.697574,155.4, -7.6, 0,0,0,1611,1024,1387,1024,89,0,55,0,0,0,0,98,,,,,,,0,32,9842.0456558247,20.669292,6,P-GPS,
8300,2023-10-08 19:09:42,38.4982316884101,-112.064397091819,21.32546,,,9842.7018238247,19.356956,2.908022,1.72622380852,4.900426666,19,5,0,9842.7018238247,21.32546,2.908022,1.72622380852,-2.684328,1.11847,-4.697574,155.5, -7.7, -0.2,0,0,1643,1024,1387,1024,94,0,55,0,0,0,0,98,,,,,,,0,32,9842.7018238247,21.32546,6,P-GPS,
8400,2023-10-08 19:09:43,38.4982304181429,-112.064396521633,21.981628,,,9843.3579918247,20.013124,3.1093466,2.21487539896,5.3916340308,19,5,0,9843.3579918247,21.981628,3.1093466,2.21487539896,-2.908022,1.11847,-4.697574,155.5, -7.9, -0.4,0,0,1654,1024,1385,1024,95,0,55,0,0,0,0,98,,,,,,,0,32,9843.3579918247,21.981628,6,P-GPS,
8500,2023-10-08 19:09:43,38.4982291130302,-112.064395793779,22.637796,,,9844.0141598247,20.997376,3.4001488,2.7343668854,5.9111878532,19,5,0,9844.0141598247,22.637796,3.4001488,2.7343668854,-3.131716,1.342164,-4.697574,155.6, -8.1, -0.4,0,0,1671,1024,1384,1024,98,0,55,0,0,0,0,98,,,,,,,0,32,9844.0141598247,22.637796,6,P-GPS,
8600,2023-10-08 19:09:43,38.498227584825,-112.064394819973,23.622048,,,9844.9984118247,21.981628,3.914645,3.3570539132,6.5342521776,19,5,0,9844.9984118247,23.622048,3.914645,3.3570539132,-3.579104,1.565858,-4.697574,155.6, -8.1, -0.1,0,0,1684,1024,1384,1024,100,0,55,0,0,0,0,98,,,,,,,0,32,9844.9984118247,23.622048,6,P-GPS,
8700,2023-10-08 19:09:43,38.4982260483368,-112.064393953319,24.278216,,,9845.6545798247,22.637796,4.1159696,3.9697835916,7.1470146644,19,5,0,9845.6545798247,24.278216,4.1159696,3.9697835916,-3.802798,1.565858,-4.697574,155.5, -7.9, 0,0,0,1684,1024,1385,1024,100,0,55,0,0,0,0,98,,,,,,,0,32,9845.6545798247,24.278216,6,P-GPS,
8800,2023-10-08 19:09:43,38.4982244084497,-112.06439303894,24.934384,,,9846.3107478247,23.293964,4.4067718,4.6224739012,7.7998362076,19,5,0,9846.3107478247,24.934384,4.4067718,4.6224739012,-4.026492,1.789552,-4.697574,155.5, -7.6, 0,0,0,1684,1024,1390,1024,100,0,55,0,0,0,0,98,,,,,,,0,32,9846.3107478247,24.934384,6,P-GPS,
8900,2023-10-08 19:09:43,38.4982226540699,-112.064392069281,25.590552,,,9846.9669158247,23.622048,4.6080964,5.3197836348,8.4972443664,19,5,0,9846.9669158247,25.590552,4.6080964,5.3197836348,-4.250186,1.789552,-4.47388,155.6, -7.4, -0.1,0,0,1684,1024,1389,1024,100,0,55,0,0,0,0,98,,,,,,,0,32,9846.9669158247,25.590552,6,P-GPS,
9000,2023-10-08 19:09:43,38.4982207572103,-112.064391239227,26.24672,,,9847.6230838247,23.622048,4.8988986,6.0484253904,9.2287732612,19,5,0,9847.6230838247,26.24672,4.8988986,6.0484253904,-4.47388,2.013246,-4.697574,155.7, -7.7, -0.4,0,0,1684,1024,1399,1024,100,0,57,0,0,0,0,98,,,,,,,0,32,9847.6230838247,26.24672,6,P-GPS,
9100,2023-10-08 19:09:43,38.4982187963036,-112.064390172387,26.902888,,,9848.2792518247,23.622048,5.3239172,6.8259844704,10.0063323412,19,5,0,9848.2792518247,26.902888,5.3239172,6.8259844704,-4.921268,2.013246,-4.697574,155.8, -8.5, -0.7,0,0,1684,1024,1399,1024,100,0,57,0,0,0,0,98,,,,,,,0,32,9848.2792518247,26.902888,6,P-GPS,
9200,2023-10-08 19:09:43,38.4982166629231,-112.064389167753,27.559056,,,9848.9354198247,23.622048,5.3239172,7.6542653368,10.8358927352,19,5,0,9848.9354198247,27.559056,5.3239172,7.6542653368,-5.144962,2.23694,-4.697574,155.9, -9.5, -0.7,0,0,1684,1014,1400,1024,100,-2,57,0,0,0,0,98,,,,,,,0,32,9848.9354198247,27.559056,6,P-GPS,
9300,2023-10-08 19:09:43,38.4982144593838,-112.064387966095,28.215224,,,9849.5915878247,23.622048,5.816044,8.528379538,11.7100069364,19,5,0,9849.5915878247,28.215224,5.816044,8.528379538,-5.368656,2.23694,-4.697574,155.9, -10.4, -0.6,0,0,1684,1014,1397,1024,100,-2,57,0,0,0,0,98,,,,,,,0,32,9849.5915878247,28.215224,6,P-GPS,
9400,2023-10-08 19:09:43,38.4982120894588,-112.064386653786,29.199476,,,9850.5758398247,23.622048,5.816044,9.4707352112,12.6523626096,19,5,0,9850.5758398247,29.199476,5.816044,9.4707352112,-5.816044,2.460634,-4.697574,155.9, -11.2, -0.3,0,0,1684,1014,1382,1024,100,-2,54,0,0,0,0,98,,,,,,,0,32,9850.5758398247,29.199476,6,P-GPS,
9500,2023-10-08 19:09:44,38.4982095919451,-112.064385283012,29.855644,,,9851.2320078247,23.622048,6.822667,10.4624675264,13.6440949248,19,5,0,9851.2320078247,29.855644,6.822667,10.4624675264,-6.263432,2.684328,-4.697574,155.9, -11.8, -0.2,0,0,1684,1013,1366,1024,100,-2,52,0,0,0,0,98,,,,,,,0,32,9851.2320078247,29.855644,6,P-GPS,
9600,2023-10-08 19:09:44,38.4982068242879,-112.064383886324,30.511812,,,9851.8881758247,23.622048,7.1134692,11.5477037816,14.7297904976,19,5,0,9851.8881758247,30.511812,7.1134692,11.5477037816,-6.487126,2.908022,-4.697574,155.9, -12.3, -0.1,0,0,1684,1014,1351,1024,100,-2,50,0,0,0,0,98,,,,,,,0,32,9851.8881758247,30.511812,6,P-GPS,
9700,2023-10-08 19:09:44,38.4982040044092,-112.064382350231,31.16798,,,9852.5443438247,23.622048,7.5161184,12.6661421376,15.8481960452,19,5,0,9852.5443438247,31.16798,7.5161184,12.6661421376,-6.934514,2.908022,-4.697574,155.9, -13, -0.2,0,0,1684,1013,1308,1024,100,-2,43,0,0,0,0,98,,,,,,,0,32,9852.5443438247,31.16798,6,P-GPS,
9800,2023-10-08 19:09:44,38.4982009823964,-112.064380630573,31.824148,,,9853.2005118247,23.622048,8.0082452,13.8729663232,17.0551842728,19,5,0,9853.2005118247,31.824148,8.0082452,13.8729663232,-7.381902,3.131716,-4.47388,155.9, -13.9, -0.3,0,0,1684,1014,1285,1024,100,-2,40,0,0,0,0,98,,,,,,,0,32,9853.2005118247,31.824148,6,P-GPS,
9900,2023-10-08 19:09:44,38.4981978436486,-112.064378904177,32.480316,,,9853.8566798247,23.622048,8.5227414,15.1197183316,18.3019690896,19,5,0,9853.8566798247,32.480316,8.5227414,15.1197183316,-7.82929,3.35541,-4.250186,156, -14.9, -0.5,0,0,1684,1021,1257,1024,100,-0,35,0,0,0,0,98,,,,,,,0,32,9853.8566798247,32.480316,6,P-GPS,
10000,2023-10-08 19:09:44,38.498194521327,-112.064377217476,33.136484,,,9854.5128478247,23.622048,8.5227414,16.4236553812,19.6062670316,19,5,0,9854.5128478247,33.136484,8.5227414,16.4236553812,-8.052984,3.579104,-4.026492,156, -15.8, -0.6,0,0,1684,1024,1216,1024,100,0,29,0,0,0,0,98,,,,,,,0,32,9854.5128478247,33.136484,6,P-GPS,
10100,2023-10-08 19:09:44,38.4981910478941,-112.064375311204,33.792652,,,9855.1690158247,23.622048,9.3056704,17.8028549004,20.9854993592,19,5,0,9855.1690158247,33.792652,9.3056704,17.8028549004,-8.500372,3.802798,-3.579104,156.1, -16.6, -0.6,0,0,1684,1024,1186,999,100,0,25,-4,0,0,0,98,,,,,,,0,32,9855.1690158247,33.792652,6,P-GPS,
10200,2023-10-08 19:09:44,38.4981874429335,-112.064373344401,34.120736,,,9855.4970998247,23.622048,9.730689,19.2330058648,22.4156503236,19,5,0,9855.4970998247,34.120736,9.730689,19.2330058648,-8.94776,3.802798,-3.131716,156.1, -17.5, -0.6,0,0,1684,1024,1152,993,100,0,19,-5,0,0,0,98,,,,,,,0,32,9855.4970998247,34.120736,6,P-GPS,
10300,2023-10-08 19:09:44,38.4981836439095,-112.064371245115,34.776904,,,9856.1532678247,23.622048,10.2228158,20.7431437084,23.9257881672,19,5,0,9856.1532678247,34.776904,10.2228158,20.7431437084,-9.395148,4.026492,-2.460634,156.3, -18.4, -0.6,0,0,1673,1024,1123,944,98,0,15,-12,0,0,0,98,,,,,,,0,32,9856.1532678247,34.776904,6,P-GPS,
10400,2023-10-08 19:09:44,38.4981794718639,-112.064369188927,35.104988,,,9856.4813518247,23.622048,10.7149426,22.37368838,25.5572842824,19,5,0,9856.4813518247,35.104988,10.7149426,22.37368838,-9.842536,4.250186,-2.013246,156.2, -19.1, -1.2,0,0,1664,1024,1116,944,97,0,14,-12,0,0,0,98,,,,,,,0,32,9856.4813518247,35.104988,6,P-GPS,
10500,2023-10-08 19:09:45,38.4981753066473,-112.064366892384,35.433072,,,9856.8094358247,23.622048,11.2294388,24.0287737348,27.2124024456,19,5,0,9856.8094358247,35.433072,11.2294388,24.0287737348,-10.289924,4.47388,-1.565858,156.1, -19.3, -2.3,0,0,1663,1024,1107,934,97,0,13,-14,0,0,0,98,,,,,,,0,32,9856.8094358247,35.433072,6,P-GPS,
10600,2023-10-08 19:09:45,38.498170893703,-112.064364398367,35.433072,,,9856.8094358247,23.622048,11.7215656,25.7891084368,28.972933998,19,5,0,9856.8094358247,35.433072,11.7215656,25.7891084368,-10.737312,4.697574,-1.11847,155.7, -19.1, -3.2,0,0,1665,1024,1111,939,97,0,13,-13,0,0,0,98,,,,,,,0,32,9856.8094358247,35.433072,6,P-GPS,
10700,2023-10-08 19:09:45,38.498166365689,-112.064361803582,35.761156,,,9857.1375198247,23.622048,12.30317,27.5993775236,30.7834983604,19,5,0,9857.1375198247,35.761156,12.30317,27.5993775236,-11.1847,5.144962,-0.894776,155.3, -18.6, -4,0,0,1669,1024,1120,1016,98,0,15,-1,0,0,0,98,,,,,,,0,32,9857.1375198247,35.761156,6,P-GPS,
10800,2023-10-08 19:09:45,38.4981617560182,-112.064359141336,35.761156,,,9857.1375198247,23.622048,12.8176662,29.4446203648,32.6291677108,19,5,0,9857.1375198247,35.761156,12.8176662,29.4446203648,-11.632088,5.368656,-0.671082,154.8, -18.1, -4.3,0,0,1671,1024,1120,1001,98,0,15,-3,0,0,0,98,,,,,,,0,32,9857.1375198247,35.761156,6,P-GPS,
10900,2023-10-08 19:09:45,38.4981569030211,-112.064356208416,36.08924,,,9857.4656038247,23.622048,13.3992706,31.4020351256,34.587927616,19,5,0,9857.4656038247,36.08924,13.3992706,31.4020351256,-12.079476,5.816044,-0.447388,154.3, -17.9, -2.7,0,0,1671,1024,1114,1001,98,0,14,-3,0,0,0,98,,,,,,,0,32,9857.4656038247,36.08924,6,P-GPS,
11000,2023-10-08 19:09:45,38.4981517133267,-112.064353131596,36.08924,,,9857.4656038247,23.622048,13.3992706,33.488518132,36.675198024,19,5,0,9857.4656038247,36.08924,13.3992706,33.488518132,-12.526864,6.039738,-0.223694,153.9, -17.9, -1.1,0,0,1670,1024,1116,993,98,0,14,-5,0,0,0,98,,,,,,,0,32,9857.4656038247,36.08924,6,P-GPS,
11100,2023-10-08 19:09:45,38.49814648241,-112.064349900932,36.08924,,,9857.4656038247,23.622048,14.4058936,35.606628436,38.794948748,19,5,0,9857.4656038247,36.08924,14.4058936,35.606628436,-12.974252,6.263432,-0.223694,153.6, -17.9, -0.2,0,0,1670,1024,1118,987,98,0,14,-6,0,0,0,98,,,,,,,0,32,9857.4656038247,36.08924,6,P-GPS,
11200,2023-10-08 19:09:45,38.4981412231754,-112.064346574605,36.08924,,,9857.4656038247,23.622048,14.8980204,37.745408032,40.936024932,19,5,0,9857.4656038247,36.08924,14.8980204,37.745408032,-13.42164,6.487126,-0.223694,153.4, -18.1, -0.2,0,0,1669,1024,1119,931,98,0,14,-14,0,0,0,98,,,,,,,0,32,9857.4656038247,36.08924,6,P-GPS,
11300,2023-10-08 19:09:45,38.4981356170363,-112.064343100483,36.08924,,,9857.4656038247,23.622048,15.5019942,40.017061648,43.209318968,19,5,0,9857.4656038247,36.08924,15.5019942,40.017061648,-13.869028,6.934514,-0.223694,153.1, -18.1, -1.5,0,0,1666,1024,1116,926,97,0,14,-15,0,0,0,98,,,,,,,0,32,9857.4656038247,36.08924,6,P-GPS,
11400,2023-10-08 19:09:45,38.4981292760203,-112.064339356414,36.08924,,,9857.4656038247,23.622048,16.0164904,42.565290076,45.75787548,19,5,0,9857.4656038247,36.08924,16.0164904,42.565290076,-14.316416,7.158208,-0.223694,152.6, -18.2, -4.7,0,0,1660,1024,1115,906,96,0,14,-18,0,0,0,98,,,,,,,0,32,9857.4656038247,36.08924,6,P-GPS,
11500,2023-10-08 19:09:46,38.4981232726692,-112.064335526834,36.417324,,,9857.7936878247,23.622048,16.5980948,45.011156296,48.206038288,19,5,0,9857.7936878247,36.417324,16.5980948,45.011156296,-14.763804,7.605596,-0.223694,152, -18.2, -7.3,0,0,1663,1024,1114,907,97,0,14,-18,0,0,0,98,,,,,,,0,32,9857.7936878247,36.417324,6,P-GPS,
11600,2023-10-08 19:09:46,38.4981174944567,-112.064331786316,36.417324,,,9857.7936878247,23.622048,17.0231134,47.371720676,50.56922734,19,5,0,9857.7936878247,36.417324,17.0231134,47.371720676,-14.987498,8.052984,-0.223694,151.3, -18.3, -9.2,0,0,1664,1024,1113,926,97,0,13,-15,0,0,0,98,,,,,,,0,32,9857.7936878247,36.417324,6,P-GPS,
11700,2023-10-08 19:09:46,38.498111272886,-112.064327442169,36.417324,,,9857.7936878247,23.622048,17.7389342,49.950789,53.155841596,19,5,0,9857.7936878247,36.417324,17.7389342,49.950789,-15.434886,8.724066,-0.223694,150.4, -17.8, -9.8,0,0,1665,1024,1111,937,97,0,13,-13,0,0,0,98,,,,,,,0,32,9857.7936878247,36.417324,6,P-GPS,
11800,2023-10-08 19:09:46,38.4981050784259,-112.064322642813,36.417324,,,9857.7936878247,23.622048,18.1415834,52.576117168,55.799214384,19,5,0,9857.7936878247,36.417324,18.1415834,52.576117168,-15.65858,9.171454,-0.223694,149.4, -17.5, -8.7,0,0,1665,1024,1111,937,97,0,13,-13,0,0,0,98,,,,,,,0,32,9857.7936878247,36.417324,6,P-GPS,
11900,2023-10-08 19:09:46,38.4980986778028,-112.064317718046,36.417324,,,9857.7936878247,23.622048,18.678449,55.286419092,58.524936256,19,5,0,9857.7936878247,36.417324,18.678449,55.286419092,-15.882274,9.842536,-0.223694,148.7, -17.6, -7.1,0,0,1667,1024,1105,946,97,0,12,-12,0,0,0,98,,,,,,,0,32,9857.7936878247,36.417324,6,P-GPS,
12000,2023-10-08 19:09:46,38.498092163523,-112.064312512907,36.417324,,,9857.7936878247,23.622048,19.1034676,58.070211832,61.328085952,19,5,0,9857.7936878247,36.417324,19.1034676,58.070211832,-16.105968,10.289924,-0.223694,147.9, -18, -5.3,0,0,1669,1024,1106,944,98,0,12,-12,0,0,0,98,,,,,,,0,32,9857.7936878247,36.417324,6,P-GPS,
12100,2023-10-08 19:09:46,38.4980855418288,-112.064307126672,36.417324,,,9857.7936878247,23.622048,19.5508556,60.913059692,64.192259272,19,5,0,9857.7936878247,36.417324,19.5508556,60.913059692,-16.329662,10.737312,-0.223694,147.3, -18.3, -4.1,0,0,1669,1024,1107,943,98,0,13,-12,0,0,0,98,,,,,,,0,32,9857.7936878247,36.417324,6,P-GPS,
12200,2023-10-08 19:09:46,38.4980787771582,-112.064301599227,36.745408,,,9858.1217718247,23.622048,20.0429824,63.822836688,67.121721308,19,5,0,9858.1217718247,36.745408,20.0429824,63.822836688,-16.77705,10.961006,-0.223694,146.7, -18.2, -3.9,0,0,1668,1024,1107,943,98,0,13,-12,0,0,0,98,,,,,,,0,32,9858.1217718247,36.745408,6,P-GPS,
12300,2023-10-08 19:09:46,38.4980719061693,-112.064295821653,36.745408,,,9858.1217718247,23.622048,20.468001,66.800527072,70.122705656,19,5,0,9858.1217718247,36.745408,20.468001,66.800527072,-17.000744,11.408394,-0.223694,146.2, -17.9, -4.4,0,0,1670,1024,1108,943,98,0,13,-12,0,0,0,98,,,,,,,0,32,9858.1217718247,36.745408,6,P-GPS,
12400,2023-10-08 19:09:47,38.4980648437973,-112.064289669654,36.745408,,,9858.1217718247,23.622048,20.915389,69.890750268,73.241144076,19,5,0,9858.1217718247,36.745408,20.915389,69.890750268,-17.224438,11.855782,-0.223694,145.6, -17.6, -5.4,0,0,1670,1024,1107,943,98,0,13,-12,0,0,0,98,,,,,,,0,32,9858.1217718247,36.745408,6,P-GPS,
12500,2023-10-08 19:09:47,38.4980577585963,-112.064283477281,36.745408,,,9858.1217718247,23.622048,21.3404076,72.995737244,76.373362024,19,5,0,9858.1217718247,36.745408,21.3404076,72.995737244,-17.448132,12.30317,-0.447388,145.1, -17.4, -6.3,0,0,1672,1024,1106,943,98,0,12,-12,0,0,0,98,,,,,,,0,32,9858.1217718247,36.745408,6,P-GPS,
12600,2023-10-08 19:09:47,38.4980506329265,-112.064277226372,36.745408,,,9858.1217718247,23.622048,21.7877956,76.124018184,79.526905432,19,5,0,9858.1217718247,36.745408,21.7877956,76.124018184,-17.671826,12.750558,-0.447388,144.6, -17.5, -6.8,0,0,1672,1024,1105,942,98,0,12,-12,0,0,0,98,,,,,,,0,32,9858.1217718247,36.745408,6,P-GPS,
12700,2023-10-08 19:09:47,38.4980433953383,-112.064270621379,36.745408,,,9858.1217718247,23.622048,22.2351836,79.33727288,82.771656192,19,5,0,9858.1217718247,36.745408,22.2351836,79.33727288,-17.89552,13.197946,-0.447388,144.1, -17.5, -6.9,0,0,1671,1024,1105,942,98,0,12,-12,0,0,0,98,,,,,,,0,32,9858.1217718247,36.745408,6,P-GPS,
12800,2023-10-08 19:09:47,38.4980358128323,-112.064263630167,37.073492,,,9858.4498558247,23.622048,22.5483552,82.716209996,86.183401708,19,5,0,9858.4498558247,37.073492,22.5483552,82.716209996,-18.119214,13.42164,-0.447388,143.5, -17.6, -6.7,0,0,1671,1024,1107,942,98,0,13,-12,0,0,0,98,,,,,,,0,32,9858.4498558247,37.073492,6,P-GPS,
12900,2023-10-08 19:09:47,38.4980284143795,-112.064256602662,37.073492,,,9858.4498558247,23.622048,22.816788,86.04330984,89.546590792,19,5,0,9858.4498558247,37.073492,22.816788,86.04330984,-18.119214,13.869028,-0.447388,143.1, -18, -6.4,0,0,1670,1024,1112,941,98,0,13,-13,0,0,0,98,,,,,,,0,32,9858.4498558247,37.073492,6,P-GPS,
13000,2023-10-08 19:09:47,38.4980211513934,-112.064249441913,37.073492,,,9858.4498558247,23.622048,23.264176,89.348099972,92.89370376,19,5,0,9858.4498558247,37.073492,23.264176,89.348099972,-18.342908,14.316416,-0.223694,142.5, -18.4, -6.3,0,0,1671,1024,1114,941,98,0,14,-13,0,0,0,98,,,,,,,0,32,9858.4498558247,37.073492,6,P-GPS,
13100,2023-10-08 19:09:47,38.4980136334696,-112.064242010815,37.073492,,,9858.4498558247,23.622048,23.711564,92.774609268,96.36155164,19,5,0,9858.4498558247,37.073492,23.711564,92.774609268,-18.566602,14.763804,-0.223694,142, -18.4, -6.6,0,0,1670,1024,1121,938,98,0,15,-13,0,0,0,98,,,,,,,0,32,9858.4498558247,37.073492,6,P-GPS,
13200,2023-10-08 19:09:47,38.498005858707,-112.064234452555,37.073492,,,9858.4498558247,23.622048,24.1813214,96.303480772,99.925856216,19,5,0,9858.4498558247,37.073492,24.1813214,96.303480772,-18.790296,15.211192,-0.223694,141.3, -17.8, -7,0,0,1671,1024,1129,934,98,0,16,-14,0,0,0,98,,,,,,,0,32,9858.4498558247,37.073492,6,P-GPS,
13300,2023-10-08 19:09:47,38.4979982057789,-112.064226588977,37.073492,,,9858.4498558247,23.622048,24.4497542,99.839570124,103.50886158,19,5,0,9858.4498558247,37.073492,24.4497542,99.839570124,-18.790296,15.65858,-0.223694,140.6, -17.1, -7.8,0,0,1670,1024,1146,934,98,0,18,-14,0,0,0,98,,,,,,,0,32,9858.4498558247,37.073492,6,P-GPS,
13400,2023-10-08 19:09:47,38.4979904999656,-112.064218585569,37.401576,,,9858.7779398247,23.622048,24.4497542,103.415685724,107.132221276,19,5,0,9858.7779398247,37.401576,24.4497542,103.415685724,-18.790296,16.105968,-0.447388,139.9, -16.5, -8.6,0,0,1667,1024,1149,949,97,0,19,-11,0,0,0,98,,,,,,,0,32,9858.7779398247,37.401576,6,P-GPS,
13500,2023-10-08 19:09:48,38.4979828098055,-112.064210280441,37.401576,,,9858.7779398247,23.622048,25.2103138,107.033139908,110.805777824,19,5,0,9858.7779398247,37.401576,25.2103138,107.033139908,-19.01399,16.553356,-0.447388,139.2, -16.3, -9.1,0,0,1665,1024,1151,956,97,0,19,-10,0,0,0,98,,,,,,,0,32,9858.7779398247,37.401576,6,P-GPS,
13600,2023-10-08 19:09:48,38.4979750693293,-112.064201725282,37.401576,,,9858.7779398247,23.622048,25.501116,110.70702454,114.539701828,19,5,0,9858.7779398247,37.401576,25.501116,110.70702454,-19.01399,17.000744,-0.447388,138.7, -16.3, -8.5,0,0,1666,1024,1156,958,97,0,20,-10,0,0,0,98,,,,,,,0,32,9858.7779398247,37.401576,6,P-GPS,
13700,2023-10-08 19:09:48,38.4979673711542,-112.064192960442,37.401576,,,9858.7779398247,23.622048,25.8142876,114.402234632,118.301841056,19,5,0,9858.7779398247,37.401576,25.8142876,114.402234632,-19.01399,17.448132,-0.671082,138.1, -16.7, -6.7,0,0,1665,1024,1159,958,97,0,20,-10,0,0,0,98,,,,,,,0,32,9858.7779398247,37.401576,6,P-GPS,
13800,2023-10-08 19:09:48,38.4979591381168,-112.064183341826,37.72966,,,9859.1060238247,23.622048,25.8142876,118.395016912,122.37205116,19,5,0,9859.1060238247,37.72966,25.8142876,118.395016912,-19.01399,17.89552,-0.671082,137.7, -17.3, -4.8,0,0,1665,1024,1159,962,97,0,20,-9,0,0,0,98,,,,,,,0,32,9859.1060238247,37.72966,6,P-GPS,
13900,2023-10-08 19:09:48,38.4979513205049,-112.064174136772,37.72966,,,9859.1060238247,23.622048,26.4182614,122.202103648,126.250660208,19,5,0,9859.1060238247,37.72966,26.4182614,122.202103648,-19.237684,18.119214,-0.671082,137.3, -17.7, -3.1,0,0,1664,1024,1159,976,97,0,20,-7,0,0,0,98,,,,,,,0,32,9859.1060238247,37.72966,6,P-GPS,
14000,2023-10-08 19:09:48,38.4979429154539,-112.064164359878,37.72966,,,9859.1060238247,23.622048,26.7538024,126.282156272,130.397641968,19,5,0,9859.1060238247,37.72966,26.7538024,126.282156272,-19.461378,18.342908,-0.894776,136.9, -17.8, -1.9,0,0,1665,1024,1160,980,97,0,21,-7,0,0,0,98,,,,,,,0,32,9859.1060238247,37.72966,6,P-GPS,
14100,2023-10-08 19:09:48,38.4979348933575,-112.064154823213,38.057744,,,9859.4341078247,23.622048,26.8880188,130.211290256,134.395345508,19,5,0,9859.4341078247,38.057744,26.8880188,130.211290256,-19.461378,18.566602,-0.894776,136.7, -17.9, -1.3,0,0,1664,1024,1163,991,97,0,21,-5,0,0,0,98,,,,,,,0,32,9859.4341078247,38.057744,6,P-GPS,
14200,2023-10-08 19:09:48,38.4979282128783,-112.064146653956,38.057744,,,9859.4341078247,23.622048,27.3577762,133.5219859,137.76903328,19,5,0,9859.4341078247,38.057744,27.3577762,133.5219859,-19.685072,19.01399,-0.894776,136.5, -18, -1.4,0,0,1664,1024,1167,995,97,0,22,-4,0,0,0,98,,,,,,,0,32,9859.4341078247,38.057744,6,P-GPS,
14300,2023-10-08 19:09:48,38.4979201473503,-112.064137023064,38.057744,,,9859.4341078247,23.622048,27.3577762,137.486552956,141.796592464,19,5,0,9859.4341078247,38.057744,27.3577762,137.486552956,-19.908766,19.237684,-0.894776,136.3, -18.1, -1.5,0,0,1663,1024,1173,1000,97,0,23,-4,0,0,0,98,,,,,,,0,32,9859.4341078247,38.057744,6,P-GPS,
14400,2023-10-08 19:09:48,38.4979119115899,-112.064127540755,38.385828,,,9859.7621918247,23.622048,28.0064888,141.483600328,145.8415401,19,5,0,9859.7621918247,38.385828,28.0064888,141.483600328,-20.13246,19.461378,-0.894776,136.2, -18.2, -1.5,0,0,1663,1024,1179,1016,97,0,23,-1,0,0,0,98,,,,,,,0,32,9859.7621918247,38.385828,6,P-GPS,
14500,2023-10-08 19:09:49,38.4979036829881,-112.064117705916,38.385828,,,9859.7621918247,23.622048,28.3196604,145.53642198,149.95243262,19,5,0,9859.7621918247,38.385828,28.3196604,145.53642198,-20.356154,19.685072,-0.894776,136, -18, -1,0,0,1663,1024,1180,1016,97,0,24,-1,0,0,0,98,,,,,,,0,32,9859.7621918247,38.385828,6,P-GPS,
14600,2023-10-08 19:09:49,38.4978953620085,-112.064107553559,38.713912,,,9860.0902758247,23.622048,28.4762462,149.671264632,154.149939316,19,5,0,9860.0902758247,38.713912,28.4762462,149.671264632,-20.579848,19.685072,-1.11847,135.9, -18, -0.3,0,0,1663,1024,1185,1015,97,0,24,-1,0,0,0,98,,,,,,,0,32,9860.0902758247,38.713912,6,P-GPS,
14700,2023-10-08 19:09:49,38.4978869923912,-112.064097506435,38.713912,,,9860.0902758247,23.622048,28.7894178,153.807091536,158.33990008,19,5,0,9860.0902758247,38.713912,28.7894178,153.807091536,-20.803542,19.908766,-1.11847,135.8, -18.1, 0.1,0,0,1665,1024,1189,1010,97,0,25,-2,0,0,0,98,,,,,,,0,32,9860.0902758247,38.713912,6,P-GPS,
14800,2023-10-08 19:09:49,38.4978785592363,-112.064087432856,39.041996,,,9860.4183598247,23.622048,29.1025894,157.96916516,162.551842472,19,5,0,9860.4183598247,39.041996,29.1025894,157.96916516,-21.027236,20.13246,-1.11847,135.7, -18.2, 0.1,0,0,1664,1024,1192,1015,97,0,25,-1,0,0,0,98,,,,,,,0,32,9860.4183598247,39.041996,6,P-GPS,
14900,2023-10-08 19:09:49,38.4978700277097,-112.064077230672,39.041996,,,9860.4183598247,23.622048,29.4381304,162.184388392,166.815294052,19,5,0,9860.4183598247,39.041996,29.4381304,162.184388392,-21.25093,20.356154,-1.11847,135.8, -17.9, -0.1,0,0,1661,1024,1208,1015,97,0,28,-1,0,0,0,98,,,,,,,0,32,9860.4183598247,39.041996,6,P-GPS,
15000,2023-10-08 19:09:49,38.4978613736293,-112.06406717136,39.37008,,,9860.7464438247,23.622048,29.5947162,166.415359656,171.083666892,19,5,0,9860.7464438247,39.37008,29.5947162,166.415359656,-21.474624,20.356154,-1.11847,135.8, -17.7, -0.2,0,0,1659,1024,1209,1024,96,0,28,0,0,0,0,98,,,,,,,0,32,9860.7464438247,39.37008,6,P-GPS,
15100,2023-10-08 19:09:49,38.4978526972509,-112.064056817069,39.698164,,,9861.0745278247,23.622048,29.9078878,170.703089452,175.415359944,19,5,0,9861.0745278247,39.698164,29.9078878,170.703089452,-21.698318,20.579848,-1.342164,135.7, -17.4, -0.4,0,0,1661,1024,1209,1014,97,0,28,-2,0,0,0,98,,,,,,,0,32,9861.0745278247,39.698164,6,P-GPS,
15200,2023-10-08 19:09:49,38.4978439355164,-112.06404635634,39.698164,,,9861.0745278247,23.622048,30.0644736,175.03609484,179.790360084,19,5,0,9861.0745278247,39.698164,30.0644736,175.03609484,-21.698318,20.803542,-1.342164,135.9, -17.3, -0.5,0,0,1661,1024,1208,1014,97,0,28,-2,0,0,0,98,,,,,,,0,32,9861.0745278247,39.698164,6,P-GPS,
15300,2023-10-08 19:09:49,38.4978351388449,-112.064035859505,40.026248,,,9861.4026118247,23.622048,30.3776452,179.387472932,184.181764424,19,5,0,9861.4026118247,40.026248,30.3776452,179.387472932,-21.922012,21.027236,-1.565858,135.9, -17.3, -0.4,0,0,1664,1024,1208,1013,97,0,28,-2,0,0,0,98,,,,,,,0,32,9861.4026118247,40.026248,6,P-GPS,
15400,2023-10-08 19:09:50,38.4978262826092,-112.064025315819,40.354332,,,9861.7306958247,23.622048,30.534231,183.76641008,188.598103148,19,5,0,9861.7306958247,40.354332,30.534231,183.76641008,-22.145706,21.027236,-1.565858,135.8, -17.6, -0.4,0,0,1664,1024,1211,1013,97,0,28,-2,0,0,0,98,,,,,,,0,32,9861.7306958247,40.354332,6,P-GPS,
15500,2023-10-08 19:09:50,38.4978173778383,-112.064014693421,40.354332,,,9861.7306958247,23.622048,30.6908168,188.17421862,193.042657096,19,5,0,9861.7306958247,40.354332,30.6908168,188.17421862,-22.145706,21.25093,-1.565858,135.9, -17.9, -0.4,0,0,1664,1024,1215,1016,97,0,29,-1,0,0,0,98,,,,,,,0,32,9861.7306958247,40.354332,6,P-GPS,
15600,2023-10-08 19:09:50,38.497808345195,-112.064004029831,40.682416,,,9862.0587798247,23.622048,30.8474026,192.628615088,197.529861964,19,5,0,9862.0587798247,40.682416,30.8474026,192.628615088,-22.3694,21.25093,-1.565858,135.8, -18.2, -0.4,0,0,1664,1024,1216,1014,97,0,29,-2,0,0,0,98,,,,,,,0,32,9862.0587798247,40.682416,6,P-GPS,
15700,2023-10-08 19:09:50,38.497799324799,-112.063993288968,41.0105,,,9862.3868638247,23.622048,31.1605742,197.093838328,202.028221688,19,5,0,9862.3868638247,41.0105,31.1605742,197.093838328,-22.593094,21.474624,-1.565858,135.8, -18.2, -0.3,0,0,1664,1024,1225,1013,97,0,30,-2,0,0,0,98,,,,,,,0,32,9862.3868638247,41.0105,6,P-GPS,
15800,2023-10-08 19:09:50,38.4977902422259,-112.063982597595,41.338584,,,9862.7149478247,23.622048,31.31716,201.570544508,206.534127344,19,5,0,9862.7149478247,41.338584,31.31716,201.570544508,-22.593094,21.698318,-1.565858,135.7, -18.1, -0.2,0,0,1665,1024,1227,1018,97,0,31,-1,0,0,0,98,,,,,,,0,32,9862.7149478247,41.338584,6,P-GPS,
15900,2023-10-08 19:09:50,38.4977811035823,-112.063971721314,41.666668,,,9863.0430318247,23.622048,31.4961152,206.096135204,211.090557936,19,5,0,9863.0430318247,41.666668,31.4961152,206.096135204,-22.816788,21.698318,-1.565858,135.8, -17.8, -0.2,0,0,1667,1024,1232,1024,97,0,32,0,0,0,0,98,,,,,,,0,32,9863.0430318247,41.666668,6,P-GPS,
16000,2023-10-08 19:09:50,38.4977719411677,-112.06396082827,41.666668,,,9863.0430318247,23.622048,31.8092868,210.63320884,215.656831048,19,5,0,9863.0430318247,41.666668,31.8092868,210.63320884,-23.040482,21.922012,-1.789552,135.8, -17.2, -0.3,0,0,1667,1024,1233,1022,97,0,32,-0,0,0,0,98,,,,,,,0,32,9863.0430318247,41.666668,6,P-GPS,
16100,2023-10-08 19:09:50,38.497762716483,-112.063949828789,41.994752,,,9863.3711158247,23.622048,31.8092868,215.207684052,220.260177652,19,5,0,9863.3711158247,41.994752,31.8092868,215.207684052,-23.040482,21.922012,-1.789552,135.9, -16.9, -0.2,0,0,1667,1024,1243,1014,97,0,33,-2,0,0,0,98,,,,,,,0,32,9863.3711158247,41.994752,6,P-GPS,
16200,2023-10-08 19:09:50,38.4977534998476,-112.063938912112,42.322836,,,9863.6991998247,23.622048,31.9658726,219.766739316,224.845479636,19,5,0,9863.6991998247,42.322836,31.9658726,219.766739316,-23.040482,22.145706,-2.013246,135.8, -16.9, -0.2,0,0,1665,1024,1247,1015,97,0,34,-1,0,0,0,98,,,,,,,0,32,9863.6991998247,42.322836,6,P-GPS,
16300,2023-10-08 19:09:50,38.4977441980616,-112.063927852016,42.65092,,,9864.0272838247,23.622048,32.1224584,224.376319516,229.481306556,19,5,0,9864.0272838247,42.65092,32.1224584,224.376319516,-23.264176,22.145706,-2.013246,135.9, -17.3, -0.2,0,0,1666,1024,1249,1020,97,0,34,-1,0,0,0,98,,,,,,,0,32,9864.0272838247,42.65092,6,P-GPS,
16400,2023-10-08 19:09:51,38.4977347615282,-112.063916793539,42.979004,,,9864.3553678247,23.622048,32.2790442,229.026254048,234.152894632,19,5,0,9864.3553678247,42.979004,32.2790442,229.026254048,-23.264176,22.3694,-2.013246,136, -17.9, -0.5,0,0,1665,1024,1252,1020,97,0,35,-1,0,0,0,98,,,,,,,0,32,9864.3553678247,42.979004,6,P-GPS,
16500,2023-10-08 19:09:51,38.4977253577397,-112.063905654621,43.307088,,,9864.6834518247,23.622048,32.43563,233.68110984,238.831372472,19,5,0,9864.6834518247,43.307088,32.43563,233.68110984,-23.48787,22.3694,-2.013246,136, -17.8, -0.6,0,0,1654,1024,1244,1024,95,0,33,0,0,0,0,98,,,,,,,0,32,9864.6834518247,43.307088,6,P-GPS,
16600,2023-10-08 19:09:51,38.4977153618366,-112.063893671161,43.635172,,,9865.0115358247,23.622048,32.7488016,238.65486328,243.832356884,19,5,0,9865.0115358247,43.635172,32.7488016,238.65486328,-23.711564,22.593094,-2.013246,136, -17.7, -0.5,0,0,1651,1024,1235,1024,95,0,32,0,0,0,0,98,,,,,,,0,32,9865.0115358247,43.635172,6,P-GPS,
16700,2023-10-08 19:09:51,38.4977058124085,-112.063882356,43.963256,,,9865.3396198247,23.622048,32.7488016,243.384522224,248.583997456,19,5,0,9865.3396198247,43.963256,32.7488016,243.384522224,-23.711564,22.593094,-2.23694,136, -17.3, -0.5,0,0,1646,1024,1226,1024,94,0,31,0,0,0,0,98,,,,,,,0,32,9865.3396198247,43.963256,6,P-GPS,
16800,2023-10-08 19:09:51,38.4976970674233,-112.063872160621,44.29134,,,9865.6677038247,23.622048,32.9053874,247.687343884,252.903223316,19,5,0,9865.6677038247,44.29134,32.9053874,247.687343884,-23.711564,22.816788,-2.23694,136, -17, -0.7,0,0,1638,1024,1236,1024,93,0,32,0,0,0,0,98,,,,,,,0,32,9865.6677038247,44.29134,6,P-GPS,
16900,2023-10-08 19:09:51,38.4976875186803,-112.063860870931,44.619424,,,9865.9957878247,23.622048,33.0619732,252.413721988,257.649614544,19,5,0,9865.9957878247,44.619424,33.0619732,252.413721988,-23.935258,22.816788,-2.013246,136, -16.9, -1,0,0,1632,1024,1254,1020,92,0,35,-1,0,0,0,98,,,,,,,0,32,9865.9957878247,44.619424,6,P-GPS,
17000,2023-10-08 19:09:51,38.4976780049429,-112.06384956251,44.947508,,,9866.3238718247,23.622048,33.0619732,257.13419458,262.390428344,19,5,0,9866.3238718247,44.947508,33.0619732,257.13419458,-23.935258,22.816788,-2.013246,136, -16.9, -1.2,0,0,1636,1024,1254,1019,93,0,35,-1,0,0,0,98,,,,,,,0,32,9866.3238718247,44.947508,6,P-GPS,
17100,2023-10-08 19:09:51,38.4976684082128,-112.063838201789,45.275592,,,9866.6519558247,23.622048,33.0619732,261.888459824,267.16372246,19,5,0,9866.6519558247,45.275592,33.0619732,261.888459824,-23.935258,22.816788,-2.013246,136, -16.6, -1.2,0,0,1637,1024,1253,1019,93,0,35,-1,0,0,0,98,,,,,,,0,32,9866.6519558247,45.275592,6,P-GPS,
17200,2023-10-08 19:09:51,38.4976587994602,-112.063826941947,45.603676,,,9866.9800398247,23.622048,33.0619732,266.62894554,271.920612376,19,5,0,9866.9800398247,45.603676,33.0619732,266.62894554,-23.935258,22.816788,-2.013246,136, -16.2, -1,0,0,1641,1024,1253,1020,93,0,35,-1,0,0,0,98,,,,,,,0,32,9866.9800398247,45.603676,6,P-GPS,
17300,2023-10-08 19:09:51,38.4976491671766,-112.063815517459,45.93176,,,9867.3081238247,23.622048,33.0619732,271.40584858,276.715560036,19,5,0,9867.3081238247,45.93176,33.0619732,271.40584858,-23.935258,22.816788,-2.23694,136, -16.1, -0.9,0,0,1642,1024,1252,1020,94,0,35,-1,0,0,0,98,,,,,,,0,32,9867.3081238247,45.93176,6,P-GPS,
17400,2023-10-08 19:09:52,38.4976394301502,-112.063804069601,46.259844,,,9867.6362078247,23.622048,33.0619732,276.217528524,281.542988012,19,5,0,9867.6362078247,46.259844,33.0619732,276.217528524,-23.935258,22.816788,-2.23694,135.9, -16.3, -0.9,0,0,1644,1024,1251,1019,94,0,34,-1,0,0,0,98,,,,,,,0,32,9867.6362078247,46.259844,6,P-GPS,
17500,2023-10-08 19:09:52,38.4976297638886,-112.063792575964,46.587928,,,9867.9642918247,23.622048,33.0619732,281.017725528,286.360573468,19,5,0,9867.9642918247,46.587928,33.0619732,281.017725528,-23.935258,22.816788,-2.23694,135.9, -16.6, -0.8,0,0,1648,1024,1245,1019,95,0,33,-1,0,0,0,98,,,,,,,0,32,9867.9642918247,46.587928,6,P-GPS,
17600,2023-10-08 19:09:52,38.4976201196852,-112.063781128369,46.916012,,,9868.2923758247,23.622048,33.2409284,285.80381492,291.163395144,19,5,0,9868.2923758247,46.916012,33.2409284,285.80381492,-24.158952,22.816788,-2.23694,135.8, -17.2, -0.9,0,0,1647,1024,1245,1024,94,0,33,0,0,0,0,98,,,,,,,0,32,9868.2923758247,46.916012,6,P-GPS,
17700,2023-10-08 19:09:52,38.4976104040321,-112.063769564313,47.244096,,,9868.6204598247,23.622048,33.2409284,290.63157098,296.007883488,19,5,0,9868.6204598247,47.244096,33.2409284,290.63157098,-24.158952,22.816788,-2.23694,135.8, -17.5, -1.2,0,0,1651,1024,1245,1024,95,0,33,0,0,0,0,98,,,,,,,0,32,9868.6204598247,47.244096,6,P-GPS,
17800,2023-10-08 19:09:52,38.4976006618679,-112.063757785939,47.57218,,,9868.9485438247,23.622048,33.3751448,295.505586884,300.901256348,19,5,0,9868.9485438247,47.57218,33.3751448,295.505586884,-24.158952,23.040482,-2.23694,135.8, -17.6, -1.2,0,0,1656,1024,1239,1024,96,0,33,0,0,0,0,97,,,,,,,0,32,9868.9485438247,47.57218,6,P-GPS,
17900,2023-10-08 19:09:52,38.4975909000431,-112.063746089318,47.900264,,,9869.2766278247,23.622048,33.3751448,300.371072604,305.783802436,19,5,0,9869.2766278247,47.900264,33.3751448,300.371072604,-24.158952,23.040482,-2.23694,135.9, -17.6, -1.2,0,0,1651,1024,1241,1024,95,0,33,0,0,0,0,97,,,,,,,0,32,9869.2766278247,47.900264,6,P-GPS,
18000,2023-10-08 19:09:52,38.4975812397413,-112.063734283765,48.556432,,,9869.9327958247,23.622048,33.3751448,305.227700056,310.66109918,19,5,0,9869.9327958247,48.556432,33.3751448,305.227700056,-24.158952,23.040482,-2.23694,135.9, -17.7, -1,0,0,1658,1024,1230,1024,96,0,31,0,0,0,0,97,,,,,,,0,32,9869.9327958247,48.556432,6,P-GPS,
18100,2023-10-08 19:09:52,38.497571436266,-112.063722475192,48.884516,,,9870.2608798247,23.622048,33.3751448,310.12632226,315.576453668,19,5,0,9870.2608798247,48.884516,33.3751448,310.12632226,-24.158952,23.264176,-2.23694,136, -17.8, -0.8,0,0,1681,1024,1212,1024,100,0,28,0,0,0,0,97,,,,,,,0,32,9870.2608798247,48.884516,6,P-GPS,
18200,2023-10-08 19:09:52,38.497561389807,-112.06371072452,49.2126,,,9870.5889638247,23.622048,33.7106858,315.084327668,320.545942016,19,5,0,9870.5889638247,49.2126,33.7106858,315.084327668,-24.382646,23.264176,-2.013246,136.1, -18, -0.6,0,0,1676,1024,1212,1024,99,0,28,0,0,0,0,97,,,,,,,0,32,9870.5889638247,49.2126,6,P-GPS,
18300,2023-10-08 19:09:52,38.4975515062505,-112.063698842246,49.540684,,,9870.9170478247,23.622048,33.7106858,320.01969528,325.49705766,19,5,0,9870.9170478247,49.540684,33.7106858,320.01969528,-24.382646,23.264176,-2.013246,136.2, -18.6, -0.7,0,0,1668,1024,1206,1024,98,0,28,0,0,0,0,97,,,,,,,0,32,9870.9170478247,49.540684,6,P-GPS,
18400,2023-10-08 19:09:52,38.4975415319261,-112.063686882026,49.540684,,,9870.9170478247,23.622048,33.8672716,324.995417224,330.48885572,19,5,0,9870.9170478247,49.540684,33.8672716,324.995417224,-24.60634,23.264176,-1.789552,136.2, -19, -0.8,0,0,1666,1024,1226,1013,97,0,31,-2,0,0,0,97,,,,,,,0,32,9870.9170478247,49.540684,6,P-GPS,
18500,2023-10-08 19:09:53,38.4975315598624,-112.063674903424,49.868768,,,9871.2451318247,23.622048,34.1804432,329.97376384,335.4822942,19,5,0,9871.2451318247,49.868768,34.1804432,329.97376384,-24.830034,23.48787,-1.789552,136.3, -18.8, -1,0,0,1666,1024,1226,1013,97,0,31,-2,0,0,0,97,,,,,,,0,32,9871.2451318247,49.868768,6,P-GPS,
18600,2023-10-08 19:09:53,38.4975215273097,-112.063662840005,50.196852,,,9871.5732158247,23.622048,34.1804432,334.98688736,340.50854108,19,5,0,9871.5732158247,50.196852,34.1804432,334.98688736,-24.830034,23.48787,-1.565858,136.3, -18.6, -1.1,0,0,1670,1024,1227,1024,98,0,31,0,0,0,0,97,,,,,,,0,32,9871.5732158247,50.196852,6,P-GPS,
18700,2023-10-08 19:09:53,38.4975114762608,-112.063650761006,50.524936,,,9871.9012998247,23.622048,34.337029,340.00657256,345.54134964,19,5,0,9871.9012998247,50.524936,34.337029,340.00657256,-24.830034,23.711564,-1.789552,136.3, -17.9, -1.2,0,0,1659,1024,1229,1024,96,0,31,0,0,0,0,97,,,,,,,0,32,9871.9012998247,50.524936,6,P-GPS,
