time(millisecond),datetime(utc),latitude,longitude,height_above_takeoff(feet),height_above_ground_at_drone_location(feet),ground_elevation_at_drone_location(feet),altitude_above_seaLevel(feet),height_sonar(feet),speed(mph),distance(feet),mileage(feet),satellites,gpslevel,voltage(v),max_altitude(feet),max_ascent(feet),max_speed(mph),max_distance(feet), xSpeed(mph), ySpeed(mph), zSpeed(mph), compass_heading(degrees), pitch(degrees), roll(degrees),isPhoto,isVideo,rc_elevator,rc_aileron,rc_throttle,rc_rudder,rc_elevator(percent),rc_aileron(percent),rc_throttle(percent),rc_rudder(percent),gimbal_heading(degrees),gimbal_pitch(degrees),gimbal_roll(degrees),battery_percent,voltageCell1,voltageCell2,voltageCell3,voltageCell4,voltageCell5,voltageCell6,current(A),battery_temperature(f),altitude(feet),ascent(feet),flycStateRaw,flycState,message
1076700,2023-10-11 00:53:14,38.4981921915794,-112.0644361395,0,Available with any HD 360 subscription,Available with any HD 360 subscription,9821.850547895,0.656168,0,0,0,17,5,0,9821.850547895,0,0,0,0,0,0,140.8, -3.1, -2.8,0,0,1024,1024,1024,1024,0,0,0,0,0,0,0,98,4.339,4.338,4.341,4.34,4.342,4.341,0,32,9821.850547895,0,41,Motors_Started,
1076800,2023-10-11 00:53:15,38.4981922013189,-112.064436164493,0,,,9821.850547895,0.656168,0,0.0079722115412,0.0079722115412,17,5,0,9821.850547895,0,0,0.0079722115412,0,0,0,140.8, -3.1, -2.8,0,0,1024,1024,1024,1024,0,0,0,0,0,0,0,98,4.339,4.338,4.341,4.34,4.342,4.341,0,32,9821.850547895,0,41,Motors_Started,
1076900,2023-10-11 00:53:15,38.4981922017799,-112.064436159055,0,,,9821.850547895,0.656168,0,0.0067103348604,0.0095340226148,17,5,0,9821.850547895,0,0,0.0079722115412,0,0,0,140.8, -3.1, -2.8,0,0,1024,1024,1024,1024,0,0,0,0,0,0,0,98,4.339,4.338,4.341,4.34,4.342,4.341,0,32,9821.850547895,0,41,Motors_Started,
1077000,2023-10-11 00:53:15,38.4981922110611,-112.064436177801,0,,,9821.850547895,0.656168,0,0.0130435043544,0.015868110744,17,5,26.041,9821.850547895,0,0,0.0130435043544,0,0,0,140.8, -3.1, -2.8,0,0,1024,1024,1024,1024,0,0,0,0,0,0,0,98,4.339,4.338,4.341,4.34,4.342,4.341,0,32,9821.850547895,0,41,Motors_Started,
1077100,2023-10-11 00:53:15,38.498192066564,-112.064436039506,0,,,9821.850547895,0.656168,0,0.053811681512,0.081737535424,17,5,26.041,9821.850547895,0,0,0.053811681512,0,0,0,140.8, -3.1, -2.8,0,0,364,364,436,1506,-100,-100,-89,73,0,0,0,98,4.339,4.338,4.341,4.34,4.342,4.341,0,32,9821.850547895,0,41,Motors_Started,
1077200,2023-10-11 00:53:15,38.4981920540537,-112.064436020736,0,,,9821.850547895,0.656168,0,0.060561353644,0.088777233812,17,5,26.041,9821.850547895,0,0,0.060561353644,0,0,0,140.8, -3.2, -2.8,0,0,855,927,935,1024,-26,-15,-13,0,0,0,0,98,4.339,4.338,4.341,4.34,4.342,4.341,0,32,9821.850547895,0,41,Motors_Started,
1077300,2023-10-11 00:53:15,38.4981920442646,-112.064436008886,0,,,9821.850547895,0.656168,0,0.0654199496,0.093696853392,17,5,26.041,9821.850547895,0,0,0.0654199496,0,0,0,140.9, -3.1, -2.7,0,0,1024,1024,1024,1024,0,0,0,0,0,0,0,98,4.339,4.338,4.341,4.34,4.342,4.341,0,32,9821.850547895,0,41,Motors_Started,
1077400,2023-10-11 00:53:15,38.4981920683092,-112.064436043652,0,,,9821.850547895,0.656168,0,0.05264763948,0.106944885312,17,5,26.041,9821.850547895,0,0,0.0654199496,0,0,0,140.8, -3.2, -2.8,0,0,1024,1024,1024,1024,0,0,0,0,0,0,0,98,4.339,4.338,4.341,4.34,4.342,4.341,0,32,9821.850547895,0,41,Motors_Started,"Setting new Return-To-Home altitude to 61m (200 ft). Data Recorder File Index is 46. Setting new Maximum Flight Altitude to 500m (1640 ft)"
1077500,2023-10-11 00:53:15,38.4981920617553,-112.064436028752,0,,,9821.850547895,0.656168,0,6.4507219912,0.111825462896,17,5,26.041,9821.850547895,0,0,6.4507219912,0,0,0,140.8, -3.2, -2.8,0,0,1024,1024,1024,1024,0,0,0,0,0,0,0,98,4.339,4.338,4.341,4.34,4.342,4.341,0,32,9821.850547895,0,41,Motors_Started,
1077600,2023-10-11 00:53:15,38.498192085246,-112.064436218234,0,,,9821.850547895,0.656168,0,6.40830073,0.166604992208,17,5,26.041,9821.850547895,0,0,6.4507219912,0,0,0,140.9, -3.1, -2.8,0,0,1024,1024,1024,1024,0,0,0,0,0,0,0,98,4.339,4.338,4.341,4.34,4.342,4.341,0,32,9821.850547895,0,41,Motors_Started,
1077700,2023-10-11 00:53:15,38.4981920804842,-112.064436226423,0,,,9821.850547895,0.656168,0,6.4054135908,0.169518378128,17,5,26.041,9821.850547895,0,0,6.4507219912,0,0,0,141, -3, -2.8,0,0,1024,1024,1024,1024,0,0,0,0,0,0,0,98,4.339,4.338,4.341,4.34,4.342,4.341,0,32,9821.850547895,0,41,Motors_Started,
1077800,2023-10-11 00:53:16,38.4981919289537,-112.064436051303,0,,,9821.850547895,0.656168,0,6.4209647724,0.244062999936,17,5,26.041,9821.850547895,0,0,6.4507219912,0,0,0,141, -3.1, -2.8,0,0,1024,1024,1024,1024,0,0,0,0,0,0,0,98,4.339,4.338,4.341,4.34,4.342,4.341,0,32,9821.850547895,0,41,Motors_Started,
1077900,2023-10-11 00:53:16,38.4981919130351,-112.064436043365,0,,,9821.850547895,0.656168,0,6.4200461372,0.250297580188,17,5,26.041,9821.850547895,0,0,6.4507219912,0,0,0,140.9, -3.1, -2.8,0,0,1024,1024,1024,1024,0,0,0,0,0,0,0,98,4.339,4.338,4.341,4.34,4.342,4.341,0,32,9821.850547895,0,41,Motors_Started,
1078000,2023-10-11 00:53:16,38.4981919555562,-112.064436066172,0,,,9821.850547895,0.656168,0,6.4221130664,0.267123040044,17,5,25.865,9821.850547895,0,0,6.4507219912,0,0,0,140.8, -3.2, -2.8,0,0,1024,1024,1024,1024,0,0,0,0,0,0,0,98,4.313,4.314,4.308,4.311,4.309,4.31,0,32,9821.850547895,0,41,Motors_Started,
1078100,2023-10-11 00:53:16,38.4981919436624,-112.064436056435,0,,,9821.850547895,0.656168,0,6.4223755336,0.2722769116,17,5,25.865,9821.850547895,0,0,6.4507219912,0,0,0,140.8, -3.2, -2.9,0,0,1024,1024,1024,1024,0,0,0,0,0,0,0,98,4.313,4.314,4.308,4.311,4.309,4.31,0,32,9821.850547895,0,41,Motors_Started,
1078200,2023-10-11 00:53:16,38.4981919868882,-112.064436066506,0,,,9821.850547895,0.656168,0,6.4277233028,0.288307752008,17,5,25.865,9821.850547895,0,0,6.4507219912,0,0,0,140.8, -3.2, -2.8,0,0,1024,1024,1024,1024,0,0,0,0,0,0,0,98,4.313,4.314,4.308,4.311,4.309,4.31,0,32,9821.850547895,0,41,Motors_Started,
1078300,2023-10-11 00:53:16,38.4981919795509,-112.064436056477,0,,,9821.850547895,0.656168,0,6.4288715968,0.29222769964,17,5,25.865,9821.850547895,0,0,6.4507219912,0,0,0,140.8, -3.2, -2.9,0,0,1024,1024,1024,1024,0,0,0,0,0,0,0,98,4.313,4.314,4.308,4.311,4.309,4.31,0,32,9821.850547895,0,41,Motors_Started,
1078400,2023-10-11 00:53:16,38.4981919818678,-112.064436068006,0,,,9821.850547895,0.656168,0,6.4264437752,0.29562664988,17,5,25.865,9821.850547895,0,0,6.4507219912,0,0,0,140.7, -3.2, -2.9,0,0,1024,1024,1024,1024,0,0,0,0,0,0,0,98,4.313,4.314,4.308,4.311,4.309,4.31,0,32,9821.850547895,0,41,Motors_Started,
1078500,2023-10-11 00:53:16,38.4981919765667,-112.064436064167,0,,,9821.850547895,0.656168,0,6.4264109668,0.297850075148,17,5,25.865,9821.850547895,0,0,6.4507219912,0,0,0,140.8, -3.2, -2.9,0,0,1024,1024,1024,1024,0,0,0,0,0,0,0,98,4.313,4.314,4.308,4.311,4.309,4.31,0,32,9821.850547895,0,41,Motors_Started,
1078600,2023-10-11 00:53:16,38.498191829034,-112.064436075981,0,,,9821.850547895,0.656168,0,6.39681779,0.35178150732,17,5,25.865,9821.850547895,0,0,6.4507219912,0,0,0,140.7, -3.2, -2.8,0,0,1024,1024,1024,1024,0,0,0,0,0,0,0,98,4.313,4.314,4.308,4.311,4.309,4.31,0,32,9821.850547895,0,41,Motors_Started,
1078700,2023-10-11 00:53:16,38.4981918129643,-112.064436074095,0,,,9821.850547895,0.656168,0,6.3943899684,0.35767061512,17,5,25.865,9821.850547895,0,0,6.4507219912,0,0,0,140.8, -3.2, -2.8,0,0,1024,1024,1024,1024,0,0,0,0,0,0,0,98,4.313,4.314,4.308,4.311,4.309,4.31,0,32,9821.850547895,0,10,Assisted_Takeoff,
1078800,2023-10-11 00:53:17,38.4981918522654,-112.064436084868,0,,,9821.850547895,0.656168,0,6.398786294,0.37233596992,17,5,25.865,9821.850547895,0,0,6.4507219912,0,0,0,140.8, -3.2, -2.8,0,0,1024,1024,1024,1024,0,0,0,0,0,0,0,98,4.313,4.314,4.308,4.311,4.309,4.31,0,32,9821.850547895,0,10,Assisted_Takeoff,
1078900,2023-10-11 00:53:17,38.4981918392339,-112.064436077681,0,,,9821.850547895,0.656168,0,6.3982285512,0.37751313544,17,5,25.865,9821.850547895,0,0,6.4507219912,0,0,0,140.8, -3.2, -2.8,0,0,1024,1024,1024,1024,0,0,0,0,0,0,0,98,4.313,4.314,4.308,4.311,4.309,4.31,0,32,9821.850547895,0,10,Assisted_Takeoff,
1079000,2023-10-11 00:53:17,38.4981918705879,-112.064435917101,0,,,9821.850547895,0.656168,0,6.4437666104,0.42477363564,17,5,26.003,9821.850547895,0,0,6.4507219912,0,0,0,140.8, -3.2, -2.8,0,0,1024,1024,1024,1024,0,0,0,0,0,0,0,98,4.333,4.331,4.333,4.336,4.335,4.335,0,32,9821.850547895,0,10,Assisted_Takeoff,
1079100,2023-10-11 00:53:17,38.4981918612656,-112.064435896502,0,,,9821.850547895,0.656168,0,6.4472443008,0.43156497444,17,5,26.003,9821.850547895,0,0,6.4507219912,0,0,0,140.8, -3.2, -2.8,0,0,1024,1024,1024,1024,0,0,0,0,0,0,0,98,4.333,4.331,4.333,4.336,4.335,4.335,0,32,9821.850547895,0,10,Assisted_Takeoff,
1079200,2023-10-11 00:53:17,38.4981918811742,-112.064436079247,0,,,9821.850547895,0.656168,0,6.4054135908,0.484251984,17,5,26.003,9821.850547895,0,0,6.4507219912,0,0,0,140.8, -3.2, -2.8,0,0,1024,1024,1024,1024,0,0,0,0,0,0,0,98,4.333,4.331,4.333,4.336,4.335,4.335,0,32,9821.850547895,0,10,Assisted_Takeoff,
1079300,2023-10-11 00:53:17,38.4981918754497,-112.064436074966,0,,,9821.850547895,0.656168,0,6.4054135908,0.48666996308,17,5,26.003,9821.850547895,0,0,6.4507219912,0,0,0,140.8, -3.2, -2.8,0,0,1024,1024,1024,1024,0,0,0,0,0,0,0,98,4.333,4.331,4.333,4.336,4.335,4.335,0,32,9821.850547895,0,10,Assisted_Takeoff,
1079400,2023-10-11 00:53:17,38.4981918933568,-112.064435915068,0,,,9821.850547895,0.656168,0,6.4483597864,0.5327920118,17,5,26.003,9821.850547895,0,0,6.4507219912,0,0,0,140.8, -3.2, -2.8,0,0,1024,1024,1024,1024,0,0,0,0,0,0,0,98,4.333,4.331,4.333,4.336,4.335,4.335,0,32,9821.850547895,0,10,Assisted_Takeoff,
1079500,2023-10-11 00:53:17,38.498191890071,-112.064435892771,0,,,9821.850547895,0.656168,0,6.4533138548,0.5392716708,17,5,26.003,9821.850547895,0,0,6.4533138548,0,0,0,140.8, -3.2, -2.8,0,0,1024,1024,1024,1024,0,0,0,0,0,0,0,98,4.333,4.331,4.333,4.336,4.335,4.335,0,32,9821.850547895,0,10,Assisted_Takeoff,
1079600,2023-10-11 00:53:17,38.4981919036773,-112.064435919995,0,,,9821.850547895,0.656168,0,6.448983146,0.54849411204,17,5,26.003,9821.850547895,0,0,6.4533138548,0,0,0,140.8, -3.2, -2.8,0,0,1024,1024,1024,1024,0,0,0,0,0,0,0,98,4.333,4.331,4.333,4.336,4.335,4.335,0,32,9821.850547895,0,10,Assisted_Takeoff,
1079700,2023-10-11 00:53:17,38.498191759179,-112.06443594141,0,,,9821.850547895,0.656168,0,6.4178479744,0.60156826072,17,5,26.003,9821.850547895,0,0,6.4533138548,0,0,0,140.8, -3.2, -2.8,0,0,1024,1024,1024,1024,0,0,0,0,0,0,0,98,4.333,4.331,4.333,4.336,4.335,4.335,0,32,9821.850547895,0,10,Assisted_Takeoff,
1079800,2023-10-11 00:53:18,38.4981917439419,-112.064435925521,0,,,9821.850547895,0.656168,0,6.4190946936,0.6087434578,17,5,26.003,9821.850547895,0,0,6.4533138548,0,0,0,140.8, -3.2, -2.8,0,0,1024,1024,1045,1024,0,0,3,0,0,0,0,98,4.333,4.331,4.333,4.336,4.335,4.335,0,32,9821.850547895,0,10,Assisted_Takeoff,
1079900,2023-10-11 00:53:18,38.4981917292155,-112.064435907645,0,,,9821.850547895,0.656168,0,6.4209647724,0.61615487536,17,5,26.003,9821.850547895,0,0,6.4533138548,0,0,0,140.8, -3.2, -2.8,0,0,1024,1024,1155,1024,0,0,20,0,0,0,0,98,4.333,4.331,4.333,4.336,4.335,4.335,0,32,9821.850547895,0,10,Assisted_Takeoff,
1080000,2023-10-11 00:53:18,38.4981917606766,-112.064435939357,0,,,9821.850547895,0.656168,0,6.418635376,0.6307742984,17,5,26.011,9821.850547895,0,0,6.4533138548,0,0,0,140.8, -3.2, -2.8,0,0,1024,1024,1182,1024,0,0,24,0,0,0,0,98,4.335,4.333,4.335,4.335,4.337,4.336,0,32,9821.850547895,0,10,Assisted_Takeoff,
1080100,2023-10-11 00:53:18,38.4981917499977,-112.064435924485,0,,,9821.850547895,0.656168,0,6.420439838,0.63653873428,17,5,26.011,9821.850547895,0,0,6.4533138548,0,0,0,140.8, -3.2, -2.8,0,0,1024,1024,1223,1024,0,0,30,0,0,0,0,98,4.335,4.333,4.335,4.335,4.337,4.336,0,32,9821.850547895,0,10,Assisted_Takeoff,
1080200,2023-10-11 00:53:18,38.4981917745502,-112.064435948699,0,,,9821.850547895,0.656168,0,6.4187666096,0.64785435144,17,5,26.011,9821.850547895,0,0,6.4533138548,0,0,0,140.8, -3.1, -2.8,0,0,1024,1024,1258,1024,0,0,35,0,0,0,0,98,4.335,4.333,4.335,4.335,4.337,4.336,0,32,9821.850547895,0,10,Assisted_Takeoff,
1080300,2023-10-11 00:53:18,38.4981917696137,-112.064435953463,0,,,9821.850547895,0.656168,0,6.4166996804,0.65011156936,17,5,26.011,9821.850547895,0,0,6.4533138548,0,0,0,140.7, -2.8, -2.5,0,0,1024,1024,1269,1024,0,0,37,0,0,0,0,98,4.335,4.333,4.335,4.335,4.337,4.336,0,32,9821.850547895,0,10,Assisted_Takeoff,
1080400,2023-10-11 00:53:18,38.4981917917753,-112.064435984186,0,,,9821.850547895,0.656168,0,6.4129923312,0.66204398444,17,5,26.011,9821.850547895,0,0,6.4533138548,0,0,0,140.7, -2.8, -2.5,0,0,1024,1024,1292,1024,0,0,41,0,0,0,0,98,4.335,4.333,4.335,4.335,4.337,4.336,0,32,9821.850547895,0,10,Assisted_Takeoff,
1080500,2023-10-11 00:53:18,38.4981917853586,-112.064435962472,0,,,9821.850547895,0.656168,0,6.4172574232,0.66867128124,17,5,26.011,9821.850547895,0,0,6.4533138548,0,0,0,140.7, -2.9, -2.6,0,0,1024,1024,1292,1024,0,0,41,0,0,0,0,98,4.335,4.333,4.335,4.335,4.337,4.336,0,32,9821.850547895,0,10,Assisted_Takeoff,
1080600,2023-10-11 00:53:18,38.4981918041529,-112.064435989093,0,,,9821.850547895,0.656168,0,6.4139765832,0.67890750204,17,5,26.011,9821.850547895,0,0,6.4533138548,0,0,0,140.6, -2.7, -2.4,0,0,1024,1024,1291,1024,0,0,40,0,0,0,0,98,4.335,4.333,4.335,4.335,4.337,4.336,0,32,9821.850547895,0,10,Assisted_Takeoff,
1080700,2023-10-11 00:53:19,38.4981918037917,-112.064435986109,0,,,9821.850547895,0.656168,0,6.4146655596,0.67977036296,17,5,26.011,9821.850547895,0,0,6.4533138548,0,0,0,140.6, -2.6, -2.3,0,0,1024,1024,1288,1024,0,0,40,0,0,0,0,98,4.335,4.333,4.335,4.335,4.337,4.336,0,32,9821.850547895,0,10,Assisted_Takeoff,
1080800,2023-10-11 00:53:19,38.4981918196744,-112.064436114898,0,,,9821.850547895,0.656168,0,6.3854660836,0.71699805444,17,5,26.011,9821.850547895,0,0,6.4533138548,0,0,0,140.5, -2.6, -2.3,0,0,1024,1024,1301,1024,0,0,42,0,0,0,0,98,4.335,4.333,4.335,4.335,4.337,4.336,0,32,9821.850547895,0,10,Assisted_Takeoff,
1080900,2023-10-11 00:53:19,38.4981918224015,-112.064436123304,0,,,9821.850547895,0.656168,0,6.383858472,0.71959647972,17,5,26.011,9821.850547895,0,0,6.4533138548,0,0,0,140.4, -2.4, -2.2,0,0,1024,1024,1310,1024,0,0,43,0,0,0,0,98,4.335,4.333,4.335,4.335,4.337,4.336,0,32,9821.850547895,0,10,Assisted_Takeoff,
1081000,2023-10-11 00:53:19,38.4981916750639,-112.064436134714,0,,,9821.850547895,0.656168,0,6.3546918044,0.77345146832,17,5,25.6,9821.850547895,0,0,6.4533138548,0,0,0,140.1, -2, -2.1,0,0,1024,1024,1316,1024,0,0,44,0,0,0,0,98,4.268,4.262,4.26,4.275,4.27,4.265,0,32,9821.850547895,0,10,Assisted_Takeoff,
1081100,2023-10-11 00:53:19,38.498191683588,-112.064436136971,0,,,9821.850547895,0.656168,0,6.355643248,0.77662732144,17,5,25.6,9821.850547895,0,0,6.4533138548,0,0,0,139.9, -0.4, -1.8,0,0,1024,1024,1322,1024,0,0,45,0,0,0,0,98,4.268,4.262,4.26,4.275,4.27,4.265,0,32,9821.850547895,0,10,Assisted_Takeoff,
1081200,2023-10-11 00:53:19,38.4981917502283,-112.064436079011,0,,,9821.850547895,0.656168,0,6.3819555848,0.80604005204,17,5,25.6,9821.850547895,0,0,6.4533138548,0,0,-0.223694,139, 3.8, -1.2,0,0,1024,1024,1320,1024,0,0,45,0,0,0,0,98,4.268,4.262,4.26,4.275,4.27,4.265,0,32,9821.850547895,0,10,Assisted_Takeoff,
1081300,2023-10-11 00:53:19,38.4981918194188,-112.064436051075,0,,,9821.850547895,0.984252,0.223694,6.4012797324,0.83251315,17,5,25.6,9821.850547895,0,0.223694,6.4533138548,0.223694,0,-0.447388,138, 8.1, 0.2,0,0,1024,1024,1319,1024,0,0,45,0,0,0,0,98,4.268,4.262,4.26,4.275,4.27,4.265,0,32,9821.850547895,0,6,P-GPS,
1081400,2023-10-11 00:53:19,38.4981920172688,-112.064436106298,0,,,9821.850547895,0.984252,0.447388,6.4234254024,0.90640094764,17,5,25.6,9821.850547895,0,0.447388,6.4533138548,0.447388,0,-0.671082,137.2, 9, 1.2,0,0,1024,1024,1320,1024,0,0,45,0,0,0,0,98,4.268,4.262,4.26,4.275,4.27,4.265,0,32,9821.850547895,0,6,P-GPS,
1081500,2023-10-11 00:53:19,38.4981922531579,-112.064436305832,0.328084,,,9822.178631895,0.984252,0.447388,6.4180776332,1.00961617404,17,5,25.6,9822.178631895,0.328084,0.447388,6.4533138548,0.447388,-0.447388,-1.11847,136.7, 6.8, 1.2,0,0,1024,1024,1323,1024,0,0,45,0,0,0,0,98,4.268,4.262,4.26,4.275,4.27,4.265,0,32,9822.178631895,0.328084,6,P-GPS,
1081600,2023-10-11 00:53:19,38.4981925868031,-112.064436612671,0.328084,,,9822.178631895,1.312336,0.8052984,6.4073820948,1.1595964938,17,5,25.6,9822.178631895,0.328084,0.8052984,6.4533138548,0.671082,-0.447388,-1.342164,136.2, 2.4, 0.9,0,0,1024,1024,1330,1024,0,0,46,0,0,0,0,98,4.268,4.262,4.26,4.275,4.27,4.265,0,32,9822.178631895,0.328084,6,P-GPS,
1081700,2023-10-11 00:53:20,38.4981928893529,-112.064436946931,0.656168,,,9822.506715895,1.64042,0.9395148,6.3873689708,1.30552497616,17,5,25.6,9822.506715895,0.656168,0.9395148,6.4533138548,0.671082,-0.671082,-1.789552,136.1, -1.2, 1,0,0,1024,1024,1332,1024,0,0,47,0,0,0,0,98,4.268,4.262,4.26,4.275,4.27,4.265,0,32,9822.506715895,0.656168,6,P-GPS,
1081800,2023-10-11 00:53:20,38.4981930225573,-112.064437582369,0.984252,,,9822.834799895,1.968504,0.6263432,6.2647967884,1.49336290868,17,5,25.6,9822.834799895,0.984252,0.9395148,6.4533138548,0.447388,-0.447388,-2.013246,136, -3.4, 1.3,0,0,1024,1024,1332,1024,0,0,47,0,0,0,0,98,4.268,4.262,4.26,4.275,4.27,4.265,0,32,9822.834799895,0.984252,6,P-GPS,
1081900,2023-10-11 00:53:20,38.4981932070851,-112.064437928784,1.312336,,,9823.162883895,2.296588,0.4921268,6.2231957372,1.61301842432,17,5,25.6,9823.162883895,1.312336,0.9395148,6.4533138548,0.223694,-0.447388,-2.460634,136.3, -4.5, 0.8,0,0,1024,1024,1332,1024,0,0,47,0,0,0,0,98,4.268,4.262,4.26,4.275,4.27,4.265,0,32,9823.162883895,1.312336,6,P-GPS,
1082000,2023-10-11 00:53:20,38.4981933340337,-112.064437978594,1.64042,,,9823.490967895,2.624672,0.4921268,6.2390421944,1.66146986944,17,5,25.087,9823.490967895,1.64042,0.9395148,6.4533138548,0.223694,-0.447388,-2.684328,136.8, -4.1, 0.2,0,0,1024,1024,1323,1024,0,0,45,0,0,0,0,98,4.18,4.177,4.181,4.182,4.185,4.182,0,32,9823.490967895,1.64042,6,P-GPS,
1082100,2023-10-11 00:53:20,38.4981933861267,-112.064438224111,1.968504,,,9823.819051895,2.952756,0.4921268,6.1940946864,1.7341043862,17,5,25.087,9823.819051895,1.968504,0.9395148,6.4533138548,0,-0.447388,-3.131716,137, -3.2, -0.7,0,0,1024,1024,1323,1024,0,0,45,0,0,0,0,98,4.18,4.177,4.181,4.182,4.185,4.182,0,32,9823.819051895,1.968504,6,P-GPS,
1082200,2023-10-11 00:53:20,38.4981935920067,-112.064438061927,2.624672,,,9824.475219895,3.28084,0.223694,6.2763125368,1.82234913968,17,5,25.087,9824.475219895,2.624672,0.9395148,6.4533138548,0,-0.223694,-3.35541,137.4, -2.3, -1.4,0,0,1024,1024,1322,1024,0,0,45,0,0,0,0,98,4.18,4.177,4.181,4.182,4.185,4.182,0,32,9824.475219895,2.624672,6,P-GPS,
1082300,2023-10-11 00:53:20,38.4981935387886,-112.06443819536,3.28084,,,9825.131387895,3.937008,0.223694,6.2342193596,1.86511160824,16,5,25.087,9825.131387895,3.28084,0.9395148,6.4533138548,0,-0.223694,-3.579104,137.6, -1.8, -1.7,0,0,1024,1024,1324,1024,0,0,45,0,0,0,0,98,4.18,4.177,4.181,4.182,4.185,4.182,0,32,9825.131387895,3.28084,6,P-GPS,
1082400,2023-10-11 00:53:20,38.4981935133585,-112.064438266057,3.608924,,,9825.459471895,4.265092,0.223694,6.2125658156,1.88732945672,16,5,25.087,9825.459471895,3.608924,0.9395148,6.4533138548,0,-0.223694,-3.802798,137.7, -1.7, -1.6,0,0,1024,1024,1323,1024,0,0,45,0,0,0,0,98,4.18,4.177,4.181,4.182,4.185,4.182,0,32,9825.459471895,3.608924,6,P-GPS,
1082500,2023-10-11 00:53:20,38.4981934699259,-112.06443829317,4.265092,,,9826.115639895,4.92126,0,6.1967849752,1.90496397172,17,5,25.087,9826.115639895,4.265092,0.9395148,6.4533138548,0,0,-3.802798,137.8, -1.7, -1.6,0,0,1024,1024,1325,1024,0,0,46,0,0,0,0,98,4.18,4.177,4.181,4.182,4.185,4.182,0,32,9826.115639895,4.265092,6,P-GPS,
1082600,2023-10-11 00:53:20,38.4981932790894,-112.06443854541,4.92126,,,9826.771807895,5.249344,0,6.0973427148,2.00514114028,17,5,25.087,9826.771807895,4.92126,0.9395148,6.4533138548,0,0,-3.802798,137.8, -1.7, -1.7,0,0,1028,1024,1325,1024,1,0,46,0,0,0,0,98,4.18,4.177,4.181,4.182,4.185,4.182,0,32,9826.771807895,4.92126,6,P-GPS,
1082700,2023-10-11 00:53:21,38.4981931870502,-112.06443850717,5.249344,,,9827.099891895,5.905512,0,6.0858597748,2.0404528212,17,5,25.087,9827.099891895,5.249344,0.9395148,6.4533138548,0,0,-3.802798,137.7, -1.5, -1.8,0,0,1053,1024,1328,1024,4,0,46,0,0,0,0,98,4.18,4.177,4.181,4.182,4.185,4.182,0,32,9827.099891895,5.249344,6,P-GPS,
1082800,2023-10-11 00:53:21,38.4981932574564,-112.064438629356,5.905512,,,9827.756059895,6.56168,0,6.0734581996,2.08377959424,17,5,25.087,9827.756059895,5.905512,0.9395148,6.4533138548,-0.223694,0,-3.802798,137.8, -1.2, -1.6,0,0,1067,1024,1333,1024,7,0,47,0,0,0,0,98,4.18,4.177,4.181,4.182,4.185,4.182,0,32,9827.756059895,5.905512,6,P-GPS,
1082900,2023-10-11 00:53:21,38.4981931445312,-112.064438521973,6.56168,,,9828.412227895,6.889764,0.223694,6.0731957324,2.1351378636,17,5,25.087,9828.412227895,6.56168,0.9395148,6.4533138548,-0.223694,0,-3.802798,138, -0.8, -1.2,0,0,1077,1024,1334,1024,8,0,47,0,0,0,0,98,4.18,4.177,4.181,4.182,4.185,4.182,0,32,9828.412227895,6.56168,6,P-GPS,
1083000,2023-10-11 00:53:21,38.4981926435136,-112.064438346283,7.217848,,,9829.068395895,7.545932,0.223694,6.0067587224,2.32469167544,17,5,25.087,9829.068395895,7.217848,0.9395148,6.4533138548,-0.223694,0,-3.802798,138.2, -0.6, -1.1,0,0,1090,1024,1335,1024,10,0,47,0,0,0,0,98,4.18,4.177,4.181,4.182,4.185,4.182,0,32,9829.068395895,7.217848,6,P-GPS,
1083100,2023-10-11 00:53:21,38.4981924688963,-112.064438180253,7.874016,,,9829.724563895,8.2021,0.223694,6.0095474364,2.40410440764,17,5,25.087,9829.724563895,7.874016,0.9395148,6.4533138548,-0.223694,0,-3.802798,138.2, -0.8, -1.2,0,0,1114,1024,1335,1024,14,0,47,0,0,0,0,98,4.18,4.177,4.181,4.182,4.185,4.182,0,32,9829.724563895,7.874016,6,P-GPS,
1083200,2023-10-11 00:53:21,38.4981924504277,-112.06443823231,8.2021,,,9830.052647895,8.530184,0.3131716,5.9934713204,2.42042658664,17,5,25.087,9830.052647895,8.2021,0.9395148,6.4533138548,-0.223694,0.223694,-3.802798,138.3, -0.9, -1.3,0,0,1126,1024,1337,1024,15,0,47,0,0,0,0,98,4.18,4.177,4.181,4.182,4.185,4.182,0,32,9830.052647895,8.2021,6,P-GPS,
1083300,2023-10-11 00:53:21,38.4981922541319,-112.064438020486,8.858268,,,9830.708815895,9.186352,0.4921268,6.0038387748,2.51416674712,17,5,25.087,9830.708815895,8.858268,0.9395148,6.4533138548,-0.447388,0.223694,-3.802798,138.2, -0.9, -1.3,0,0,1147,1024,1340,1024,19,0,48,0,0,0,0,98,4.18,4.177,4.181,4.182,4.185,4.182,0,32,9830.708815895,8.858268,6,P-GPS,
1083400,2023-10-11 00:53:21,38.4981917786886,-112.0644379116,9.514436,,,9831.364983895,9.514436,0.4921268,5.936515938,2.69039706772,17,5,25.087,9831.364983895,9.514436,0.9395148,6.4533138548,-0.447388,0.223694,-3.802798,138.2, -1, -1,0,0,1170,1024,1342,1024,22,0,48,0,0,0,0,98,4.18,4.177,4.181,4.182,4.185,4.182,0,32,9831.364983895,9.514436,6,P-GPS,
1083500,2023-10-11 00:53:21,38.4981915216351,-112.064437649109,9.84252,,,9831.693067895,9.84252,0.6263432,5.9519030776,2.81045284584,18,5,25.087,9831.693067895,9.84252,0.9395148,6.4533138548,-0.447388,0.447388,-3.802798,138.1, -1.1, -0.7,0,0,1193,1024,1343,1024,26,0,48,0,0,0,0,98,4.18,4.177,4.181,4.182,4.185,4.182,0,32,9831.693067895,9.84252,6,P-GPS,
1083600,2023-10-11 00:53:21,38.4981913096626,-112.064437488363,10.498688,,,9832.349235895,10.498688,0.6263432,5.952592054,2.90038723192,18,5,25.087,9832.349235895,10.498688,0.9395148,6.4533138548,-0.447388,0.447388,-3.802798,138.1, -1.6, -0.5,0,0,1211,1024,1344,1024,28,0,48,0,0,0,0,98,4.18,4.177,4.181,4.182,4.185,4.182,0,32,9832.349235895,10.498688,6,P-GPS,
1083700,2023-10-11 00:53:21,38.498190997044,-112.064437187795,11.154856,,,9833.005403895,10.826772,0.8052984,5.9720146268,3.04313001864,18,5,25.087,9833.005403895,11.154856,0.9395148,6.4533138548,-0.671082,0.447388,-3.802798,138, -2.4, -0.5,0,0,1226,1024,1345,1024,31,0,49,0,0,0,0,98,4.18,4.177,4.181,4.182,4.185,4.182,0,32,9833.005403895,11.154856,6,P-GPS,
1083800,2023-10-11 00:53:22,38.4981906844204,-112.064436491987,11.811024,,,9833.661571895,11.48294,0.9395148,6.0954398276,3.27222451416,18,5,25.087,9833.661571895,11.811024,0.9395148,6.4533138548,-0.671082,0.671082,-3.802798,137.9, -3.4, -0.7,0,0,1260,1024,1335,1024,36,0,47,0,0,0,0,98,4.18,4.177,4.181,4.182,4.185,4.182,0,32,9833.661571895,11.811024,6,P-GPS,
1083900,2023-10-11 00:53:22,38.4981902782858,-112.06443607145,12.139108,,,9833.989655895,11.811024,1.11847,6.1391734248,3.4629594284,18,5,25.087,9833.989655895,12.139108,1.11847,6.4533138548,-0.894776,0.671082,-3.802798,137.9, -4.2, -1,0,0,1272,1024,1334,1024,38,0,47,0,0,0,0,98,4.18,4.177,4.181,4.182,4.185,4.182,0,32,9833.989655895,12.139108,6,P-GPS,
1084000,2023-10-11 00:53:22,38.4981898273745,-112.064436005899,12.795276,,,9834.645823895,12.467192,1.4316416,6.0889437644,3.6285106148,18,5,25.087,9834.645823895,12.795276,1.4316416,6.4533138548,-1.11847,0.894776,-3.802798,137.9, -5.2, -1.1,0,0,1278,1024,1334,1024,38,0,47,0,0,0,0,98,4.18,4.177,4.181,4.182,4.185,4.182,0,32,9834.645823895,12.795276,6,P-GPS,
1084100,2023-10-11 00:53:22,38.4981892974521,-112.064435480397,13.451444,,,9835.301991895,12.795276,1.4316416,6.1543965224,3.8732612788,18,5,25.21,9835.301991895,13.451444,1.4316416,6.4533138548,-1.11847,0.894776,-3.802798,137.9, -6, -1,0,0,1288,1024,1334,1024,40,0,47,0,0,0,0,98,4.198,4.199,4.201,4.201,4.206,4.205,0,32,9835.301991895,13.451444,6,P-GPS,
1084200,2023-10-11 00:53:22,38.4981887479627,-112.064434710058,14.107612,,,9835.958159895,13.12336,1.7448132,6.2925855032,4.1708662752,18,5,25.21,9835.958159895,14.107612,1.7448132,6.4533138548,-1.342164,1.11847,-3.802798,138, -6.7, -0.9,0,0,1327,1024,1335,1024,46,0,47,0,0,0,0,98,4.198,4.199,4.201,4.201,4.206,4.205,0,32,9835.958159895,14.107612,6,P-GPS,
1084300,2023-10-11 00:53:22,38.4981880564789,-112.064434000422,14.435696,,,9836.286243895,13.779528,2.0579848,6.410433276,4.4944555244,18,5,25.21,9836.286243895,14.435696,2.0579848,6.4533138548,-1.565858,1.342164,-3.802798,138, -7.2, -1,0,0,1338,1024,1335,1024,48,0,47,0,0,0,0,98,4.198,4.199,4.201,4.201,4.206,4.205,0,32,9836.286243895,14.435696,6,P-GPS,
1084400,2023-10-11 00:53:22,38.4981871228804,-112.064433197942,15.091864,,,9836.942411895,14.107612,2.3711564,6.548064514,4.9049870336,18,5,25.21,9836.942411895,15.091864,2.3711564,6.548064514,-1.789552,1.565858,-3.802798,138, -8, -1.1,0,0,1343,1024,1336,1024,48,0,47,0,0,0,0,98,4.198,4.199,4.201,4.201,4.206,4.205,0,32,9836.942411895,15.091864,6,P-GPS,
1084500,2023-10-11 00:53:22,38.4981862288864,-112.064432279067,15.748032,,,9837.598579895,14.435696,2.684328,6.7432088772,5.3235894092,18,5,25.21,9837.598579895,15.748032,2.684328,6.7432088772,-2.013246,1.789552,-3.802798,138.1, -8.9, -1.2,0,0,1347,1024,1338,1024,49,0,48,0,0,0,0,98,4.198,4.199,4.201,4.201,4.206,4.205,0,32,9837.598579895,15.748032,6,P-GPS,
1084600,2023-10-11 00:53:22,38.4981851984707,-112.064431374992,16.076116,,,9837.926663895,15.091864,3.1764548,6.9484582276,5.7796261692,18,5,25.21,9837.926663895,16.076116,3.1764548,6.9484582276,-2.460634,2.013246,-3.579104,138.2, -9.6, -1.2,0,0,1361,1024,1340,1024,51,0,48,0,0,0,0,98,4.198,4.199,4.201,4.201,4.206,4.205,0,32,9837.926663895,16.076116,6,P-GPS,
1084700,2023-10-11 00:53:22,38.4981840795486,-112.064430216073,16.732284,,,9838.582831895,15.419948,3.4896264,7.248031728,6.3051511204,17,5,25.21,9838.582831895,16.732284,3.4896264,7.248031728,-2.684328,2.23694,-3.579104,138.2, -10, -1.1,0,0,1367,1024,1346,1024,52,0,49,0,0,0,0,98,4.198,4.199,4.201,4.201,4.206,4.205,0,32,9838.582831895,16.732284,6,P-GPS,
1084800,2023-10-11 00:53:23,38.498182771264,-112.06442900741,17.388452,,,9839.238999895,15.748032,3.802798,7.5875658596,6.894193134,17,5,25.21,9839.238999895,17.388452,3.802798,7.5875658596,-2.908022,2.460634,-3.579104,138.2, -10.3, -1,0,0,1371,1024,1350,1024,53,0,49,0,0,0,0,98,4.198,4.199,4.201,4.201,4.206,4.205,0,32,9839.238999895,17.388452,6,P-GPS,
1084900,2023-10-11 00:53:23,38.498181281658,-112.064427481857,18.04462,,,9839.895167895,16.4042,4.4291412,8.0519359532,7.5906826576,17,5,25.21,9839.895167895,18.04462,4.4291412,8.0519359532,-3.35541,2.908022,-3.802798,138.2, -10.6, -0.8,0,0,1375,1024,1354,1024,53,0,50,0,0,0,0,98,4.198,4.199,4.201,4.201,4.206,4.205,0,32,9839.895167895,18.04462,6,P-GPS,
1085000,2023-10-11 00:53:23,38.4981797701408,-112.064425914736,18.372704,,,9840.223251895,16.732284,4.7646822,8.5607942372,8.3008860924,17,5,25.21,9840.223251895,18.372704,4.7646822,8.5607942372,-3.579104,3.131716,-3.802798,138.3, -10.5, -0.8,0,0,1374,1024,1354,1024,53,0,50,0,0,0,0,98,4.198,4.199,4.201,4.201,4.206,4.205,0,32,9840.223251895,18.372704,6,P-GPS,
1085100,2023-10-11 00:53:23,38.4981781302279,-112.064424206817,19.028872,,,9840.879419895,17.060368,5.2344396,9.1454399252,9.0727693192,18,5,25.194,9840.879419895,19.028872,5.2344396,9.1454399252,-4.026492,3.35541,-3.802798,138.3, -10.2, -0.9,0,0,1374,1024,1354,1024,53,0,50,0,0,0,0,98,4.196,4.199,4.203,4.199,4.198,4.199,0,32,9840.879419895,19.028872,6,P-GPS,
1085200,2023-10-11 00:53:23,38.4981765754804,-112.064422333831,19.68504,,,9841.535587895,17.388452,5.5476112,9.7940948016,9.8523953284,18,5,25.194,9841.535587895,19.68504,5.5476112,9.7940948016,-4.250186,3.579104,-3.802798,138.3, -10.1, -1,0,0,1377,1024,1355,1024,53,0,50,0,0,0,0,98,4.196,4.199,4.203,4.199,4.198,4.199,0,32,9841.535587895,19.68504,6,P-GPS,
1085300,2023-10-11 00:53:23,38.4981747153999,-112.064420360787,20.013124,,,9841.863671895,18.04462,5.8607828,10.5202431188,10.734416354,18,5,25.194,9841.863671895,20.013124,5.8607828,10.5202431188,-4.47388,3.802798,-3.802798,138.3, -10.2, -1,0,0,1398,1024,1352,1024,57,0,50,0,0,0,0,98,4.196,4.199,4.203,4.199,4.198,4.199,0,32,9841.863671895,20.013124,6,P-GPS,
1085400,2023-10-11 00:53:23,38.4981728023647,-112.064418377324,20.669292,,,9842.519839895,18.04462,6.5094954,11.2779531168,11.6332680888,18,5,25.194,9842.519839895,20.669292,6.5094954,11.2779531168,-4.921268,4.250186,-4.026492,138.4, -10.5, -1.2,0,0,1420,1024,1353,1024,60,0,50,0,0,0,0,98,4.196,4.199,4.203,4.199,4.198,4.199,0,32,9842.519839895,20.669292,6,P-GPS,
1085500,2023-10-11 00:53:23,38.4981707175301,-112.064416150063,21.32546,,,9843.176007895,18.04462,6.822667,12.143045008,12.6247379368,18,5,25.194,9843.176007895,21.32546,6.822667,12.143045008,-5.144962,4.47388,-4.026492,138.4, -10.7, -1.3,0,0,1424,1024,1366,1024,61,0,52,0,0,0,0,98,4.196,4.199,4.203,4.199,4.198,4.199,0,32,9843.176007895,21.32546,6,P-GPS,
1085600,2023-10-11 00:53:23,38.4981684175277,-112.064413962328,21.981628,,,9843.832175895,18.04462,7.1358386,13.0481303388,13.6708993876,18,5,25.194,9843.832175895,21.981628,7.1358386,13.0481303388,-5.368656,4.697574,-4.026492,138.5, -11.1, -1.2,0,0,1423,1024,1378,1024,60,0,54,0,0,0,0,98,4.196,4.199,4.203,4.199,4.198,4.199,0,32,9843.832175895,21.981628,6,P-GPS,
1085700,2023-10-11 00:53:23,38.4981660924014,-112.064411473623,22.637796,,,9844.488343895,18.04462,7.6279654,14.053970266,14.7775267196,19,5,25.194,9844.488343895,22.637796,7.6279654,14.053970266,-5.816044,4.921268,-4.026492,138.5, -11.4, -0.9,0,0,1429,1024,1376,1024,61,0,53,0,0,0,0,98,4.196,4.199,4.203,4.199,4.198,4.199,0,32,9844.488343895,22.637796,6,P-GPS,
1085800,2023-10-11 00:53:24,38.4981635273248,-112.064408860913,22.96588,,,9844.816427895,18.04462,8.0753534,15.1464571776,15.9743771516,19,5,25.194,9844.816427895,22.96588,8.0753534,15.1464571776,-6.039738,5.368656,-4.026492,138.5, -11.6, -0.4,0,0,1433,1024,1365,1024,62,0,52,0,0,0,0,98,4.196,4.199,4.203,4.199,4.198,4.199,0,32,9844.816427895,22.96588,6,P-GPS,
1085900,2023-10-11 00:53:24,38.4981609324833,-112.064406100682,23.622048,,,9845.472595895,18.04462,8.388525,16.295604196,17.2062341464,19,5,25.194,9845.472595895,23.622048,8.388525,16.295604196,-6.263432,5.59235,-4.250186,138.5, -11.8, -0.3,0,0,1455,1024,1361,1024,65,0,51,0,0,0,0,98,4.196,4.199,4.203,4.199,4.198,4.199,0,32,9845.472595895,23.622048,6,P-GPS,
1086000,2023-10-11 00:53:24,38.4981583930058,-112.064403460468,24.278216,,,9846.128763895,18.04462,8.388525,17.4162407148,18.4007223736,19,5,25.194,9846.128763895,24.278216,8.388525,17.4162407148,-6.71082,5.816044,-4.250186,138.6, -12.1, -0.5,0,0,1468,1024,1362,1024,67,0,51,0,0,0,0,98,4.196,4.199,4.203,4.199,4.198,4.199,0,32,9846.128763895,24.278216,6,P-GPS,
1086100,2023-10-11 00:53:24,38.4981555516098,-112.064400460997,24.934384,,,9846.784931895,18.04462,9.1938234,18.6918641152,19.7454402644,19,5,25.123,9846.784931895,24.934384,9.1938234,18.6918641152,-6.934514,6.039738,-4.250186,138.7, -12.5, -0.8,0,0,1489,1024,1357,1024,70,0,50,0,0,0,0,98,4.189,4.186,4.185,4.185,4.188,4.19,0,32,9846.784931895,24.934384,6,P-GPS,
1086200,2023-10-11 00:53:24,38.4981525146563,-112.064397084761,25.590552,,,9847.441099895,18.04462,9.6859502,20.105643688,21.2141410988,19,5,25.123,9847.441099895,25.590552,9.6859502,20.105643688,-7.381902,6.263432,-4.250186,138.8, -12.9, -1.2,0,0,1520,1024,1352,1024,75,0,50,0,0,0,0,98,4.189,4.186,4.185,4.185,4.188,4.19,0,32,9847.441099895,25.590552,6,P-GPS,
1086300,2023-10-11 00:53:24,38.4981494103377,-112.064393776859,26.24672,,,9848.097267895,18.04462,10.1333382,21.5248366468,22.6889114872,19,5,25.123,9848.097267895,26.24672,10.1333382,21.5248366468,-7.605596,6.71082,-4.250186,138.9, -13.4, -1.4,0,0,1550,1024,1349,1024,80,0,49,0,0,0,0,98,4.189,4.186,4.185,4.185,4.188,4.19,0,32,9848.097267895,26.24672,6,P-GPS,
1086400,2023-10-11 00:53:24,38.4981457585052,-112.064390132768,26.902888,,,9848.753435895,18.04462,10.625465,23.1461949664,24.3794627224,19,5,25.123,9848.753435895,26.902888,10.625465,23.1461949664,-8.052984,6.934514,-4.026492,139, -14.4, -1.4,0,0,1581,1024,1344,1024,84,0,48,0,0,0,0,98,4.189,4.186,4.185,4.185,4.188,4.19,0,32,9848.753435895,26.902888,6,P-GPS,
1086500,2023-10-11 00:53:24,38.498142355111,-112.064386493354,27.559056,,,9849.409603895,18.04462,11.0952224,24.7209981664,25.998688496,19,5,25.123,9849.409603895,27.559056,11.0952224,24.7209981664,-8.276678,7.381902,-4.026492,139, -15.8, -1.2,0,0,1606,1024,1341,1024,88,0,48,0,0,0,0,98,4.189,4.186,4.185,4.185,4.188,4.19,0,32,9849.409603895,27.559056,6,P-GPS,
1086600,2023-10-11 00:53:24,38.4981388967936,-112.064382812407,28.215224,,,9850.065771895,18.04462,11.5649798,26.322835488,27.6408473412,19,5,25.123,9850.065771895,28.215224,11.5649798,26.322835488,-8.724066,7.605596,-4.026492,139, -16.9, -0.8,0,0,1613,1024,1338,1024,89,0,48,0,0,0,0,98,4.189,4.186,4.185,4.185,4.188,4.19,0,32,9850.065771895,28.215224,6,P-GPS,
1086700,2023-10-11 00:53:25,38.4981351735842,-112.064378824156,28.543308,,,9850.393855895,18.04462,12.2136924,28.0582686144,29.4134851932,19,5,25.123,9850.393855895,28.543308,12.2136924,28.0582686144,-9.171454,8.052984,-4.026492,139, -17.7, -0.5,0,0,1617,1024,1339,1024,90,0,48,0,0,0,0,98,4.189,4.186,4.185,4.185,4.188,4.19,0,32,9850.393855895,28.543308,6,P-GPS,
1086800,2023-10-11 00:53:25,38.498131491961,-112.064375007356,29.199476,,,9851.050023895,18.04462,12.6834498,29.7505915032,31.1432424664,19,5,25.123,9851.050023895,29.199476,12.6834498,29.7505915032,-9.618842,8.276678,-3.802798,139.1, -18.1, -0.6,0,0,1633,1024,1337,1024,92,0,47,0,0,0,0,98,4.189,4.186,4.185,4.185,4.188,4.19,0,32,9851.050023895,29.199476,6,P-GPS,
1086900,2023-10-11 00:53:25,38.4981274168466,-112.064370673725,29.855644,,,9851.706191895,18.04462,13.309793,31.6522976008,33.077756964,19,5,25.123,9851.706191895,29.855644,13.309793,31.6522976008,-10.06623,8.724066,-3.802798,139.1, -18.2, -0.8,0,0,1655,1024,1339,1024,96,0,48,0,0,0,0,98,4.189,4.186,4.185,4.185,4.188,4.19,0,32,9851.706191895,29.855644,6,P-GPS,
1087000,2023-10-11 00:53:25,38.4981228295192,-112.064365907008,30.511812,,,9852.362359895,18.04462,13.9585056,33.773295044,35.234909264,19,5,25.122,9852.362359895,30.511812,13.9585056,33.773295044,-10.513618,9.171454,-3.802798,139.2, -18, -1.1,0,0,1666,1024,1339,1024,97,0,48,0,0,0,0,98,4.184,4.184,4.185,4.188,4.192,4.189,0,32,9852.362359895,30.511812,6,P-GPS,
1087100,2023-10-11 00:53:25,38.4981183715144,-112.064361169675,30.839896,,,9852.690443895,18.04462,14.5848488,35.86122162,37.350394896,20,5,25.122,9852.690443895,30.839896,14.5848488,35.86122162,-10.961006,9.618842,-3.802798,139.2, -17.8, -1.2,0,0,1684,1024,1339,1024,100,0,48,0,0,0,0,98,4.184,4.184,4.185,4.188,4.192,4.189,0,32,9852.690443895,30.839896,6,P-GPS,
1087200,2023-10-11 00:53:25,38.4981137245243,-112.06435655461,31.496064,,,9853.346611895,18.04462,15.0769756,37.972114076,39.497704676,20,5,25.122,9853.346611895,31.496064,15.0769756,37.972114076,-11.408394,9.842536,-3.802798,139.1, -17.7, -1.2,0,0,1684,1024,1339,1024,100,0,48,0,0,0,0,98,4.184,4.184,4.185,4.188,4.192,4.189,0,32,9853.346611895,31.496064,6,P-GPS,
1087300,2023-10-11 00:53:25,38.4981089201934,-112.064351463559,32.152232,,,9854.002779895,18.04462,15.7033188,40.226051156,41.77493572,20,5,25.122,9854.002779895,32.152232,15.7033188,40.226051156,-11.855782,10.289924,-3.579104,139.1, -17.6, -1.1,0,0,1684,1024,1339,1024,100,0,48,0,0,0,0,98,4.184,4.184,4.185,4.188,4.192,4.189,0,32,9854.002779895,32.152232,6,P-GPS,
1087400,2023-10-11 00:53:25,38.4981038414953,-112.064346019541,32.8084,,,9854.658947895,18.04462,15.7033188,42.624345196,44.193570968,20,5,25.122,9854.658947895,32.8084,15.7033188,42.624345196,-12.30317,10.737312,-3.579104,139.1, -17.6, -0.9,0,0,1684,1024,1339,1024,100,0,48,0,0,0,0,98,4.184,4.184,4.185,4.188,4.192,4.189,0,32,9854.658947895,32.8084,6,P-GPS,
1087500,2023-10-11 00:53:25,38.4980986969307,-112.064340552162,33.136484,,,9854.987031895,18.04462,16.8217888,45.046261284,46.634844012,20,5,25.122,9854.987031895,33.136484,16.8217888,45.046261284,-12.750558,10.961006,-3.579104,139, -18.2, -0.9,0,0,1684,1024,1338,1024,100,0,48,0,0,0,0,98,4.184,4.184,4.185,4.188,4.192,4.189,0,32,9854.987031895,33.136484,6,P-GPS,
1087600,2023-10-11 00:53:25,38.4980929406254,-112.064334627994,33.792652,,,9855.643199895,18.04462,17.448132,47.71817738,49.331694492,20,5,25.122,9855.643199895,33.792652,17.448132,47.71817738,-13.197946,11.408394,-3.579104,139, -19.6, -1.1,0,0,1684,1024,1337,1024,100,0,47,0,0,0,0,98,4.184,4.184,4.185,4.188,4.192,4.189,0,32,9855.643199895,33.792652,6,P-GPS,
1087700,2023-10-11 00:53:26,38.498087411034,-112.064328760928,34.44882,,,9856.299367895,18.04462,18.0744752,50.323820508,51.954069904,20,5,25.122,9856.299367895,34.44882,18.0744752,50.323820508,-13.645334,11.855782,-3.579104,138.9, -20.6, -1.3,0,0,1684,1024,1336,1024,100,0,47,0,0,0,0,98,4.184,4.184,4.185,4.188,4.192,4.189,0,32,9856.299367895,34.44882,6,P-GPS,
1087800,2023-10-11 00:53:26,38.4980822680707,-112.064323036822,34.776904,,,9856.627451895,18.04462,18.0744752,52.80347938,54.442587044,20,5,25.122,9856.627451895,34.776904,18.0744752,52.80347938,-14.092722,12.30317,-3.579104,138.8, -20.9, -1.3,0,0,1684,1024,1333,1024,100,0,47,0,0,0,0,98,4.184,4.184,4.185,4.188,4.192,4.189,0,32,9856.627451895,34.776904,6,P-GPS,
1087900,2023-10-11 00:53:26,38.498076415757,-112.064316770375,35.433072,,,9857.283619895,18.04462,19.1929452,55.57578918,57.228348288,20,5,25.122,9857.283619895,35.433072,19.1929452,55.57578918,-14.54011,12.526864,-3.579104,138.7, -20.8, -1.6,0,0,1684,1024,1328,1024,100,0,46,0,0,0,0,98,4.184,4.184,4.185,4.188,4.192,4.189,0,32,9857.283619895,35.433072,6,P-GPS,
1088000,2023-10-11 00:53:26,38.498070436925,-112.064310237824,36.08924,,,9857.939787895,18.04462,19.1929452,58.435697408,60.09842712,20,5,25.122,9857.939787895,36.08924,19.1929452,58.435697408,-14.763804,12.974252,-3.579104,138.6, -20.8, -1.4,0,0,1684,1024,1328,1024,100,0,46,0,0,0,0,98,4.184,4.184,4.185,4.188,4.192,4.189,0,32,9857.939787895,36.08924,6,P-GPS,
1088100,2023-10-11 00:53:26,38.4980642593801,-112.064303543976,36.417324,,,9858.267871895,18.04462,20.2890458,61.380251308,63.053807792,20,5,25.051,9858.267871895,36.417324,20.2890458,61.380251308,-15.211192,13.42164,-3.35541,138.4, -20.4, -0.7,0,0,1684,1024,1326,1024,100,0,46,0,0,0,0,98,4.173,4.174,4.176,4.173,4.178,4.177,0,32,9858.267871895,36.417324,6,P-GPS,
1088200,2023-10-11 00:53:26,38.4980579615335,-112.064296893324,37.073492,,,9858.924039895,18.04462,20.2890458,64.348427256,66.034779016,20,5,25.051,9858.924039895,37.073492,20.2890458,64.348427256,-15.65858,13.869028,-3.35541,138.3, -19.4, 0,0,0,1684,1024,1322,1024,100,0,45,0,0,0,0,98,4.173,4.174,4.176,4.173,4.178,4.177,0,32,9858.924039895,37.073492,6,P-GPS,
1088300,2023-10-11 00:53:26,38.4980514554947,-112.064289853652,37.401576,,,9859.252123895,18.04462,21.4075158,67.449805308,69.145015336,20,5,25.051,9859.252123895,37.401576,21.4075158,67.449805308,-16.105968,14.092722,-3.579104,138.3, -18.6, 0.3,0,0,1684,1024,1315,1024,100,0,44,0,0,0,0,98,4.173,4.174,4.176,4.173,4.178,4.177,0,32,9859.252123895,37.401576,6,P-GPS,
1088400,2023-10-11 00:53:26,38.4980440205589,-112.064282032386,38.057744,,,9859.908291895,18.04462,22.033859,70.950461588,72.658794976,20,5,25.051,9859.908291895,38.057744,22.033859,70.950461588,-16.553356,14.54011,-3.579104,138.4, -19, 0,0,0,1684,1024,1313,1024,100,0,44,0,0,0,0,98,4.173,4.174,4.176,4.173,4.178,4.177,0,32,9859.908291895,38.057744,6,P-GPS,
1088500,2023-10-11 00:53:26,38.4980371565525,-112.06427465094,38.713912,,,9860.564459895,18.04462,22.033859,74.215225472,75.932089044,21,5,25.051,9860.564459895,38.713912,22.033859,74.215225472,-16.77705,14.763804,-3.579104,138.6, -20, -0.2,0,0,1684,1024,1311,1024,100,0,43,0,0,0,0,98,4.173,4.174,4.176,4.173,4.178,4.177,0,32,9860.564459895,38.713912,6,P-GPS,
1088600,2023-10-11 00:53:26,38.4980306245935,-112.064267876268,39.041996,,,9860.892543895,18.04462,22.9733738,77.273296436,79.001642948,21,5,25.051,9860.892543895,39.041996,22.9733738,77.273296436,-17.224438,15.211192,-3.579104,138.7, -21, -0.4,0,0,1684,1024,1311,1024,100,0,43,0,0,0,0,98,4.173,4.174,4.176,4.173,4.178,4.177,0,32,9860.892543895,39.041996,6,P-GPS,
1088700,2023-10-11 00:53:27,38.498023499681,-112.064260227721,39.698164,,,9861.548711895,18.04462,23.4655006,80.66109182,82.39665618,21,5,25.051,9861.548711895,39.698164,23.4655006,80.66109182,-17.671826,15.434886,-3.579104,138.9, -21.2, -0.3,0,0,1684,1024,1306,1024,100,0,43,0,0,0,0,98,4.173,4.174,4.176,4.173,4.178,4.177,0,32,9861.548711895,39.698164,6,P-GPS,
1088800,2023-10-11 00:53:27,38.498016154494,-112.064252527007,40.354332,,,9862.204879895,18.04462,23.4655006,84.117784844,85.863191724,21,5,25.051,9862.204879895,40.354332,23.4655006,84.117784844,-18.119214,15.65858,-3.579104,139.2, -20.9, -0.1,0,0,1684,1024,1297,1024,100,0,41,0,0,0,0,98,4.173,4.174,4.176,4.173,4.178,4.177,0,32,9862.204879895,40.354332,6,P-GPS,
1088900,2023-10-11 00:53:27,38.4980087086061,-112.064244604971,40.682416,,,9862.532963895,18.04462,24.4050154,87.645344012,89.398296824,21,5,25.051,9862.532963895,40.682416,24.4050154,87.645344012,-18.342908,16.105968,-3.35541,139.4, -20.7, -0.2,0,0,1684,1024,1299,1024,100,0,42,0,0,0,0,98,4.173,4.174,4.176,4.173,4.178,4.177,0,32,9862.532963895,40.682416,6,P-GPS,
1089000,2023-10-11 00:53:27,38.4980011039772,-112.064236354344,41.338584,,,9863.189131895,18.04462,24.8971422,91.280186648,93.038388804,21,5,25.051,9863.189131895,41.338584,24.8971422,91.280186648,-18.790296,16.329662,-3.35541,139.5, -20.3, -0.5,0,0,1684,1024,1292,1024,100,0,41,0,0,0,0,98,4.173,4.174,4.176,4.173,4.178,4.177,0,32,9863.189131895,41.338584,6,P-GPS,
1089100,2023-10-11 00:53:27,38.4979933649778,-112.064228146586,41.666668,,,9863.517215895,18.04462,25.389269,94.942916424,96.70768026,21,5,25.051,9863.517215895,41.666668,25.389269,94.942916424,-19.237684,16.553356,-3.131716,139.5, -19.9, -0.8,0,0,1684,1024,1279,1024,100,0,39,0,0,0,0,98,4.173,4.174,4.176,4.173,4.178,4.177,0,32,9863.517215895,41.666668,6,P-GPS,
1089200,2023-10-11 00:53:27,38.4979852590881,-112.064219853879,42.322836,,,9864.173383895,18.04462,25.7024406,98.720147516,100.496394292,21,5,24.992,9864.173383895,42.322836,25.7024406,98.720147516,-19.461378,16.77705,-3.131716,139.6, -19.6, -1.2,0,0,1684,1024,1275,1024,100,0,38,0,0,0,0,98,4.166,4.174,4.181,4.156,4.156,4.159,0,32,9864.173383895,42.322836,6,P-GPS,
1089300,2023-10-11 00:53:27,38.497977249515,-112.064211405674,42.65092,,,9864.501467895,18.04462,26.0156122,102.502956036,104.285764492,21,5,24.992,9864.501467895,42.65092,26.0156122,102.502956036,-19.685072,17.000744,-2.908022,139.5, -19.6, -1.5,0,0,1684,1024,1270,1024,100,0,37,0,0,0,0,98,4.166,4.174,4.181,4.156,4.156,4.159,0,32,9864.501467895,42.65092,6,P-GPS,
1089400,2023-10-11 00:53:27,38.4979690094431,-112.064202806959,42.979004,,,9864.829551895,18.04462,26.3287838,106.376971908,108.167326296,21,5,24.992,9864.829551895,42.979004,26.3287838,106.376971908,-19.908766,17.224438,-2.908022,139.4, -19.6, -1.5,0,0,1684,1024,1267,1024,100,0,37,0,0,0,0,98,4.166,4.174,4.181,4.156,4.156,4.159,0,32,9864.829551895,42.979004,6,P-GPS,
1089500,2023-10-11 00:53:27,38.4979607858464,-112.064194097781,43.635172,,,9865.485719895,18.04462,26.8209106,110.268704316,112.064308048,21,5,24.992,9865.485719895,43.635172,26.8209106,110.268704316,-20.356154,17.448132,-2.684328,139.2, -19.9, -1.3,0,0,1684,1024,1261,1024,100,0,36,0,0,0,0,98,4.166,4.174,4.181,4.156,4.156,4.159,0,32,9865.485719895,43.635172,6,P-GPS,
1089600,2023-10-11 00:53:27,38.4979525365778,-112.064185466637,43.963256,,,9865.813803895,18.04462,27.2682986,114.152562708,115.954400036,21,5,24.992,9865.813803895,43.963256,27.2682986,114.152562708,-20.579848,17.89552,-2.684328,139.1, -19.8, -1,0,0,1684,1024,1253,1024,100,0,35,0,0,0,0,98,4.166,4.174,4.181,4.156,4.156,4.159,0,32,9865.813803895,43.963256,6,P-GPS,
1089700,2023-10-11 00:53:27,38.4979441134633,-112.064176518106,44.29134,,,9866.141887895,18.04462,27.5814702,118.14468882,119.951119324,21,5,24.992,9866.141887895,44.29134,27.5814702,118.14468882,-20.803542,18.119214,-2.460634,139, -19.6, -0.8,0,0,1684,1024,1246,1024,100,0,34,0,0,0,0,98,4.166,4.174,4.181,4.156,4.156,4.159,0,32,9866.141887895,44.29134,6,P-GPS,
1089800,2023-10-11 00:53:28,38.4979355221885,-112.064167457426,44.619424,,,9866.469971895,18.04462,27.8946418,122.204072152,124.015423916,21,5,24.992,9866.469971895,44.619424,27.8946418,122.204072152,-21.027236,18.342908,-2.460634,139.1, -19.5, -0.6,0,0,1684,1024,1246,1024,100,0,34,0,0,0,0,98,4.166,4.174,4.181,4.156,4.156,4.159,0,32,9866.469971895,44.619424,6,P-GPS,
1089900,2023-10-11 00:53:28,38.4979269107906,-112.064158314073,44.947508,,,9866.798055895,18.04462,28.073597,126.285109028,128.1003978,21,5,24.992,9866.798055895,44.947508,28.073597,126.285109028,-21.25093,18.342908,-2.23694,139.1, -19.8, -0.5,0,0,1684,1024,1223,1024,100,0,30,0,0,0,0,98,4.166,4.174,4.181,4.156,4.156,4.159,0,32,9866.798055895,44.947508,6,P-GPS,
1090000,2023-10-11 00:53:28,38.4979180320559,-112.064149089777,45.275592,,,9867.126139895,18.04462,28.3867686,130.454072416,132.275594784,21,5,24.992,9867.126139895,45.275592,28.3867686,130.454072416,-21.474624,18.566602,-2.013246,139.1, -20.3, -0.6,0,0,1684,1024,1223,1024,100,0,30,0,0,0,0,98,4.166,4.174,4.181,4.156,4.156,4.159,0,32,9867.126139895,45.275592,6,P-GPS,
1090100,2023-10-11 00:53:28,38.4979092576529,-112.064139785477,45.603676,,,9867.454223895,18.04462,28.6999402,134.610896696,136.435699904,22,5,24.992,9867.454223895,45.603676,28.6999402,134.610896696,-21.698318,18.790296,-2.013246,139.2, -20.3, -0.5,0,0,1684,1024,1224,1024,100,0,30,0,0,0,0,98,4.166,4.174,4.181,4.156,4.156,4.159,0,32,9867.454223895,45.603676,6,P-GPS,
1090200,2023-10-11 00:53:28,38.4978998694368,-112.064129636746,45.93176,,,9867.782307895,18.04462,28.856526,139.095148808,140.922248604,22,5,25.085,9867.782307895,45.93176,28.856526,139.095148808,-21.698318,19.01399,-1.789552,139.2, -20.3, 0,0,0,1684,1024,1227,1024,100,0,31,0,0,0,0,98,4.185,4.177,4.179,4.179,4.181,4.184,0,32,9867.782307895,45.93176,6,P-GPS,
1090300,2023-10-11 00:53:28,38.4978908927928,-112.064120075981,46.259844,,,9868.110391895,18.04462,29.3262834,143.355975716,145.186028268,22,5,25.085,9868.110391895,46.259844,29.3262834,143.355975716,-22.145706,19.237684,-1.789552,139.3, -19.6, 0.6,0,0,1684,1024,1235,1024,100,0,32,0,0,0,0,98,4.185,4.177,4.179,4.179,4.181,4.184,0,32,9868.110391895,46.259844,6,P-GPS,
1090400,2023-10-11 00:53:28,38.4978826007263,-112.064111525058,46.587928,,,9868.438475895,18.04462,29.5052386,147.238521772,149.073823668,22,5,25.085,9868.438475895,46.587928,29.5052386,147.238521772,-22.3694,19.237684,-1.789552,139.2, -19.3, 0.2,0,0,1684,1024,1235,1024,100,0,32,0,0,0,0,98,4.185,4.177,4.179,4.179,4.181,4.184,0,32,9868.438475895,46.587928,6,P-GPS,
1090500,2023-10-11 00:53:28,38.4978735039434,-112.06410187208,46.916012,,,9868.766559895,18.04462,29.974996,151.549873616,153.388128268,22,5,25.085,9868.766559895,46.916012,29.974996,151.549873616,-22.593094,19.685072,-1.565858,138.8, -19.4, 0.1,0,0,1684,1024,1245,1024,100,0,33,0,0,0,0,98,4.185,4.177,4.179,4.179,4.181,4.184,0,32,9868.766559895,46.916012,6,P-GPS,
1090600,2023-10-11 00:53:28,38.4978650590103,-112.064092645726,46.916012,,,9868.766559895,18.04462,30.2881676,155.602695268,157.441934172,22,5,25.085,9868.766559895,46.916012,30.2881676,155.602695268,-22.816788,19.908766,-1.565858,138.5, -18.3, 0.2,0,0,1684,1005,1243,1024,100,-3,33,0,0,0,0,98,4.185,4.177,4.179,4.179,4.181,4.184,0,32,9868.766559895,46.916012,6,P-GPS,
1090700,2023-10-11 00:53:28,38.4978558362485,-112.064082755364,47.244096,,,9869.094643895,18.04462,30.6013392,159.993771524,161.834978932,22,5,25.085,9869.094643895,47.244096,30.6013392,159.993771524,-23.040482,20.13246,-1.789552,138.3, -17, 0.3,0,0,1684,969,1229,1024,100,-8,31,0,0,0,0,98,4.185,4.177,4.179,4.179,4.181,4.184,0,32,9869.094643895,47.244096,6,P-GPS,
1090800,2023-10-11 00:53:29,38.4978456579245,-112.064072066547,47.57218,,,9869.422727895,18.04462,30.9145108,164.7965932,166.641737616,22,5,25.085,9869.422727895,47.57218,30.9145108,164.7965932,-23.264176,20.356154,-2.013246,138.4, -16, 0.1,0,0,1684,972,1241,1024,100,-8,33,0,0,0,0,98,4.185,4.177,4.179,4.179,4.181,4.184,0,32,9869.422727895,47.57218,6,P-GPS,
1090900,2023-10-11 00:53:29,38.4978362196492,-112.064061929567,47.900264,,,9869.750811895,18.04462,31.0710966,169.293640588,171.140425424,22,5,25.085,9869.750811895,47.900264,31.0710966,169.293640588,-23.48787,20.356154,-2.013246,138.5, -16.2, -0.2,0,0,1684,977,1260,1024,100,-7,36,0,0,0,0,98,4.185,4.177,4.179,4.179,4.181,4.184,0,32,9869.750811895,47.900264,6,P-GPS,
1091000,2023-10-11 00:53:29,38.4978266695068,-112.064051614287,48.228348,,,9870.078895895,18.04462,31.2276824,173.854664356,175.702761528,22,5,25.085,9870.078895895,48.228348,31.2276824,173.854664356,-23.48787,20.579848,-2.013246,138.7, -16.8, -0.6,0,0,1684,977,1262,1024,100,-7,36,0,0,0,0,98,4.185,4.177,4.179,4.179,4.181,4.184,0,32,9870.078895895,48.228348,6,P-GPS,
1091100,2023-10-11 00:53:29,38.4978171134046,-112.064041279532,48.556432,,,9870.406979895,18.04462,31.540854,178.421265552,180.27067506,22,5,24.875,9870.406979895,48.556432,31.540854,178.421265552,-23.711564,20.803542,-2.013246,138.6, -17.2, -0.5,0,0,1684,970,1263,1024,100,-8,36,0,0,0,0,98,4.147,4.142,4.145,4.145,4.146,4.15,0,32,9870.406979895,48.556432,6,P-GPS,
1091200,2023-10-11 00:53:29,38.4978076686213,-112.064030810329,48.884516,,,9870.735063895,18.04462,31.8540256,182.982945488,184.832354996,22,5,24.875,9870.735063895,48.884516,31.8540256,182.982945488,-23.935258,21.027236,-2.013246,138.4, -17.1, -0.2,0,0,1684,968,1276,1011,100,-8,38,-2,0,0,0,98,4.147,4.142,4.145,4.145,4.146,4.15,0,32,9870.735063895,48.884516,6,P-GPS,
1091300,2023-10-11 00:53:29,38.4977980157915,-112.064020266069,49.2126,,,9871.063147895,18.04462,32.0106114,187.615819652,189.465885328,22,5,24.875,9871.063147895,49.2126,32.0106114,187.615819652,-23.935258,21.25093,-2.23694,138.3, -16.5, 0.5,0,0,1684,951,1271,1009,100,-11,37,-2,0,0,0,98,4.147,4.142,4.145,4.145,4.146,4.15,0,32,9871.063147895,49.2126,6,P-GPS,
1091400,2023-10-11 00:53:29,38.4977885785095,-112.064009842251,49.540684,,,9871.391231895,18.04462,32.1671972,192.166672816,194.017066576,22,5,24.875,9871.391231895,49.540684,32.1671972,192.166672816,-24.158952,21.25093,-2.23694,138.2, -16.5, 0.4,0,0,1684,944,1271,1009,100,-12,37,-2,0,0,0,98,4.147,4.142,4.145,4.145,4.146,4.15,0,32,9871.391231895,49.540684,6,P-GPS,
1091500,2023-10-11 00:53:29,38.4977788724177,-112.063999178773,49.868768,,,9871.719315895,18.04462,32.323783,196.836620472,198.687342316,22,5,24.875,9871.719315895,49.868768,32.323783,196.836620472,-24.158952,21.474624,-2.23694,138.1, -17.3, 0.1,0,0,1684,926,1270,1004,100,-15,37,-3,0,0,0,98,4.147,4.142,4.145,4.145,4.146,4.15,0,32,9871.719315895,49.868768,6,P-GPS,
1091600,2023-10-11 00:53:29,38.4977691094334,-112.063988386495,50.196852,,,9872.047399895,18.04462,32.323783,201.546594376,203.397644304,22,5,24.875,9872.047399895,50.196852,32.323783,201.546594376,-24.158952,21.474624,-2.460634,138.1, -17.6, 0,0,0,1684,914,1265,1003,100,-17,37,-3,0,0,0,98,4.147,4.142,4.145,4.145,4.146,4.15,0,32,9872.047399895,50.196852,6,P-GPS,
1091700,2023-10-11 00:53:30,38.4977593764881,-112.063977565812,50.524936,,,9872.375483895,18.04462,32.6369546,206.25328744,208.104665452,22,5,24.875,9872.375483895,50.524936,32.6369546,206.25328744,-24.382646,21.698318,-2.460634,138.2, -17.8, 0,0,0,1684,901,1268,981,100,-19,37,-7,0,0,0,98,4.147,4.142,4.145,4.145,4.146,4.15,0,32,9872.375483895,50.524936,6,P-GPS,
1091800,2023-10-11 00:53:30,38.4977497575335,-112.063966756509,50.85302,,,9872.703567895,18.04462,32.6369546,210.927172104,212.778222032,22,5,24.875,9872.703567895,50.85302,32.6369546,210.927172104,-24.382646,21.922012,-2.460634,138.3, -18.2, -1.9,0,0,1684,882,1270,959,100,-22,37,-10,0,0,0,98,4.147,4.142,4.145,4.145,4.146,4.15,0,32,9872.703567895,50.85302,6,P-GPS,
1091900,2023-10-11 00:53:30,38.4977400413032,-112.06395578326,51.181104,,,9873.031651895,18.04462,32.6145852,215.658471468,217.509521396,22,5,24.875,9873.031651895,51.181104,32.6369546,215.658471468,-24.158952,21.922012,-2.460634,138.2, -18.3, -4.7,0,0,1684,878,1273,957,100,-22,38,-10,0,0,0,98,4.147,4.142,4.145,4.145,4.146,4.15,0,32,9873.031651895,51.181104,6,P-GPS,
1092000,2023-10-11 00:53:30,38.4977302430051,-112.063944421594,51.509188,,,9873.359735895,18.04462,32.9277568,220.485243276,222.336949372,22,5,24.875,9873.359735895,51.509188,32.9277568,220.485243276,-24.158952,22.3694,-2.460634,137.9, -18, -9.2,0,0,1684,878,1272,962,100,-22,38,-9,0,0,0,98,4.147,4.142,4.145,4.145,4.146,4.15,0,32,9873.359735895,51.509188,6,P-GPS,
1092100,2023-10-11 00:53:30,38.4977206427178,-112.063933085487,52.165356,,,9874.015903895,18.04462,32.9277568,225.253616132,227.10630648,22,5,24.891,9874.015903895,52.165356,32.9277568,225.253616132,-23.711564,22.593094,-2.460634,137.6, -17.6, -13.6,0,0,1684,878,1272,961,100,-22,38,-10,0,0,0,98,4.158,4.142,4.144,4.158,4.144,4.145,0,32,9874.015903895,52.165356,6,P-GPS,
1092200,2023-10-11 00:53:30,38.4977112839756,-112.063921767017,52.49344,,,9874.343987895,18.04462,33.0619732,229.95243518,231.8077502,22,5,24.891,9874.343987895,52.49344,33.0619732,229.95243518,-23.48787,23.264176,-2.460634,137, -17, -15.4,0,0,1684,879,1271,961,100,-22,37,-10,0,0,0,98,4.158,4.142,4.144,4.158,4.144,4.145,0,32,9874.343987895,52.49344,6,P-GPS,
1092300,2023-10-11 00:53:30,38.4977019981216,-112.063909883317,52.821524,,,9874.672071895,18.04462,33.0619732,234.738524572,236.603025944,22,5,24.891,9874.672071895,52.821524,33.0619732,234.738524572,-23.040482,23.711564,-2.460634,136.2, -16.4, -15.1,0,0,1684,884,1271,961,100,-21,37,-10,0,0,0,98,4.158,4.142,4.144,4.158,4.144,4.145,0,32,9874.672071895,52.821524,6,P-GPS,
1092400,2023-10-11 00:53:30,38.4976930675979,-112.063897666826,53.149608,,,9875.000155895,18.04462,33.0619732,239.49147748,241.37632006,22,5,24.891,9875.000155895,53.149608,33.0619732,239.49147748,-22.593094,24.158952,-2.684328,135.7, -16.2, -12.9,0,0,1684,887,1271,962,100,-21,37,-9,0,0,0,98,4.158,4.142,4.144,4.158,4.144,4.145,0,32,9875.000155895,53.149608,6,P-GPS,
1092500,2023-10-11 00:53:30,38.4976841142281,-112.063885257723,53.805776,,,9875.656323895,18.04462,33.106712,244.28806556,246.195545936,22,5,24.891,9875.656323895,53.805776,33.106712,244.28806556,-22.145706,24.60634,-2.684328,135.1, -16.4, -9.6,0,0,1684,890,1273,993,100,-20,38,-5,0,0,0,98,4.158,4.142,4.144,4.158,4.144,4.145,0,32,9875.656323895,53.805776,6,P-GPS,
1092600,2023-10-11 00:53:30,38.497675459159,-112.063872737719,54.13386,,,9875.984407895,18.04462,33.1290814,249.02559852,250.965559212,22,5,24.891,9875.984407895,54.13386,33.1290814,249.02559852,-21.922012,24.830034,-2.684328,134.6, -17.4, -6.5,0,0,1684,918,1278,1024,100,-16,38,0,0,0,0,98,4.158,4.142,4.144,4.158,4.144,4.145,0,32,9875.984407895,54.13386,6,P-GPS,
1092700,2023-10-11 00:53:31,38.4976666732129,-112.063860002957,54.461944,,,9876.312491895,18.04462,33.2856672,253.840887388,255.813000312,22,5,24.891,9876.312491895,54.461944,33.2856672,253.840887388,-21.922012,25.053728,-2.684328,134.3, -18.6, -2.1,0,0,1684,949,1278,1024,100,-11,38,0,0,0,0,98,4.158,4.142,4.144,4.158,4.144,4.145,0,32,9876.312491895,54.461944,6,P-GPS,
1092800,2023-10-11 00:53:31,38.4976574817233,-112.063847287366,54.790028,,,9876.640575895,18.04462,33.2856672,258.763459724,260.755585772,22,5,24.891,9876.640575895,54.790028,33.2856672,258.763459724,-21.922012,25.277422,-2.684328,134, -19.6, 1.7,0,0,1684,974,1284,1024,100,-8,39,0,0,0,0,98,4.158,4.142,4.144,4.158,4.144,4.145,0,32,9876.640575895,54.790028,6,P-GPS,
1092900,2023-10-11 00:53:31,38.4976485863078,-112.063834389403,55.118112,,,9876.968659895,18.04462,33.5988388,263.64174072,265.664706664,22,5,24.891,9876.968659895,55.118112,33.5988388,263.64174072,-22.145706,25.277422,-2.460634,133.8, -19.8, 3.7,0,0,1684,987,1293,1024,100,-6,41,0,0,0,0,98,4.158,4.142,4.144,4.158,4.144,4.145,0,32,9876.968659895,55.118112,6,P-GPS,
1093000,2023-10-11 00:53:31,38.4976397295629,-112.063821441111,55.77428,,,9877.624827895,18.04462,33.9120104,268.520677884,270.575139892,22,5,24.891,9877.624827895,55.77428,33.9120104,268.520677884,-22.3694,25.501116,-2.460634,133.8, -19, 2.8,0,0,1684,1000,1294,1024,100,-4,41,0,0,0,0,98,4.158,4.142,4.144,4.158,4.144,4.145,0,32,9877.624827895,55.77428,6,P-GPS,
1093100,2023-10-11 00:53:31,38.4976306830277,-112.063808444808,56.102364,,,9877.952911895,18.04462,34.0685962,273.460966756,275.5413474,22,5,24.891,9877.952911895,56.102364,34.0685962,273.460966756,-22.593094,25.501116,-2.684328,133.8, -17.6, 1.5,0,0,1684,1024,1296,1024,100,0,41,0,0,0,0,98,4.158,4.142,4.144,4.158,4.144,4.145,0,32,9877.952911895,56.102364,6,P-GPS,
1093200,2023-10-11 00:53:31,38.4976216471791,-112.063795337341,56.430448,,,9878.280995895,18.04462,34.0685962,278.420612584,280.529208452,22,5,24.978,9878.280995895,56.430448,34.0685962,278.420612584,-22.593094,25.501116,-2.684328,133.6, -17.2, 1.3,0,0,1684,1024,1287,1024,100,0,40,0,0,0,0,98,4.155,4.154,4.168,4.163,4.17,4.168,0,32,9878.280995895,56.430448,6,P-GPS,
1093300,2023-10-11 00:53:31,38.4976125721462,-112.063782218232,56.758532,,,9878.609079895,18.04462,34.2475514,283.39403794,285.528552444,22,5,24.978,9878.609079895,56.758532,34.2475514,283.39403794,-22.593094,25.72481,-2.684328,133.4, -17.6, 1.4,0,0,1684,1024,1262,1024,100,0,36,0,0,0,0,98,4.155,4.154,4.168,4.163,4.17,4.168,0,32,9878.609079895,56.758532,6,P-GPS,
1093400,2023-10-11 00:53:31,38.4976037578738,-112.06376912884,57.086616,,,9878.937163895,18.04462,34.4041372,288.292988228,290.45932688,22,5,24.978,9878.937163895,57.086616,34.4041372,288.292988228,-22.593094,25.948504,-2.684328,133.2, -17.8, 2.2,0,0,1684,1024,1230,1024,100,0,31,0,0,0,0,97,4.155,4.154,4.168,4.163,4.17,4.168,0,32,9878.937163895,57.086616,6,P-GPS,
1093500,2023-10-11 00:53:31,38.497594706646,-112.063755866488,57.742784,,,9879.593331895,18.04462,34.2699208,293.290035632,295.48393334,21,5,24.978,9879.593331895,57.742784,34.4041372,293.290035632,-22.3694,25.948504,-2.684328,133, -18.4, 3.3,0,0,1684,1024,1186,1024,100,0,25,0,0,0,0,97,4.155,4.154,4.168,4.163,4.17,4.168,0,32,9879.593331895,57.742784,6,P-GPS,
1093600,2023-10-11 00:53:31,38.4975859092256,-112.063742387584,58.070868,,,9879.921415895,18.04462,34.2699208,298.262148652,300.49541644,21,5,24.978,9879.921415895,58.070868,34.4041372,298.262148652,-22.3694,25.948504,-2.460634,132.9, -19.5, 4,0,0,1684,1024,1099,1024,100,0,11,0,0,0,0,97,4.155,4.154,4.168,4.163,4.17,4.168,0,32,9879.921415895,58.070868,6,P-GPS,
