time(millisecond),datetime(utc),latitude,longitude,height_above_takeoff(feet),height_above_ground_at_drone_location(feet),ground_elevation_at_drone_location(feet),altitude_above_seaLevel(feet),height_sonar(feet),speed(mph),distance(feet),mileage(feet),satellites,gpslevel,voltage(v),max_altitude(feet),max_ascent(feet),max_speed(mph),max_distance(feet), xSpeed(mph), ySpeed(mph), zSpeed(mph), compass_heading(degrees), pitch(degrees), roll(degrees),isPhoto,isVideo,rc_elevator,rc_aileron,rc_throttle,rc_rudder,rc_elevator(percent),rc_aileron(percent),rc_throttle(percent),rc_rudder(percent),gimbal_heading(degrees),gimbal_pitch(degrees),gimbal_roll(degrees),battery_percent,voltageCell1,voltageCell2,voltageCell3,voltageCell4,voltageCell5,voltageCell6,current(A),battery_temperature(f),altitude(feet),ascent(feet),flycStateRaw,flycState,message
3400,2023-10-11 00:24:30,38.4981819423656,-112.064456574412,0,Available with any HD 360 subscription,Available with any HD 360 subscription,9821.850547895,0.656168,0,0,0,16,5,25.973,9821.850547895,0,0,0,0,0,0,148.7, -4.8, -2.2,0,0,1024,1024,1024,1024,0,0,0,0,0,0,0,97,4.327,4.331,4.331,4.327,4.326,4.331,0,32,9821.850547895,0,41,Motors_Started,
3500,2023-10-11 00:24:30,38.4981819685238,-112.064456540316,0,,,9821.850547895,0.656168,0,0.0136332353444,0.0136332353444,16,5,25.973,9821.850547895,0,0,0.0136332353444,0,0,0,148.7, -4.8, -2.2,0,0,1024,1024,1024,1024,0,0,0,0,0,0,0,97,4.327,4.331,4.331,4.327,4.326,4.331,0,32,9821.850547895,0,41,Motors_Started,
3600,2023-10-11 00:24:30,38.4981820739065,-112.064456459326,0,,,9821.850547895,0.656168,0,0.058165028108,0.058500986124,16,5,25.973,9821.850547895,0,0,0.058165028108,0,0,0,148.7, -4.8, -2.2,0,0,1024,1024,1024,1024,0,0,0,0,0,0,0,97,4.327,4.331,4.331,4.327,4.326,4.331,0,32,9821.850547895,0,41,Motors_Started,
3700,2023-10-11 00:24:30,38.4981821085895,-112.064456421735,0,,,9821.850547895,0.656168,0,0.07468996302,0.075094490592,16,5,25.973,9821.850547895,0,0,0.07468996302,0,0,0,148.7, -4.8, -2.2,0,0,1024,1024,1024,1024,0,0,0,0,0,0,0,97,4.327,4.331,4.331,4.327,4.326,4.331,0,32,9821.850547895,0,41,Motors_Started,"Setting new Return-To-Home altitude to 61m (200 ft). Data Recorder File Index is 46. Setting new Maximum Flight Altitude to 500m (1640 ft)"
3800,2023-10-11 00:24:30,38.4981822030293,-112.064456343133,0,,,9821.850547895,0.656168,0,0.115783468272,0.116215882984,16,5,25.973,9821.850547895,0,0,0.115783468272,0,0,0,148.7, -4.8, -2.2,0,0,1024,1024,1024,1024,0,0,0,0,0,0,0,97,4.327,4.331,4.331,4.327,4.326,4.331,0,32,9821.850547895,0,41,Motors_Started,
3900,2023-10-11 00:24:30,38.4981822450061,-112.064456301271,0,,,9821.850547895,0.656168,0,0.13518537178,0.135643705128,16,5,25.973,9821.850547895,0,0,0.13518537178,0,0,0,148.7, -4.8, -2.2,0,0,747,736,1018,1024,-42,-44,-1,0,0,0,0,97,4.327,4.331,4.331,4.327,4.326,4.331,0,32,9821.850547895,0,41,Motors_Started,
4000,2023-10-11 00:24:30,38.498182169447,-112.064456233936,0,,,9821.850547895,0.656168,0,0.127733927972,0.169253942424,15,5,25.973,9821.850547895,0,0,0.13518537178,0,0,0,148.7, -4.8, -2.3,0,0,1024,1024,1024,1024,0,0,0,0,0,0,0,97,4.327,4.331,4.331,4.327,4.326,4.331,0,32,9821.850547895,0,41,Motors_Started,
4100,2023-10-11 00:24:31,38.4981822012721,-112.064456191178,0,,,9821.850547895,0.656168,0,0.14456037208,0.186103024328,15,5,25.973,9821.850547895,0,0,0.14456037208,0,0,0,148.7, -4.8, -2.3,0,0,1024,1024,1024,1024,0,0,0,0,0,0,0,97,4.327,4.331,4.331,4.327,4.326,4.331,0,32,9821.850547895,0,41,Motors_Started,
4200,2023-10-11 00:24:31,38.4981823021636,-112.064456275723,0,,,9821.850547895,0.656168,0,0.1565452806,0.23012303886,15,5,25.973,9821.850547895,0,0,0.1565452806,0,0,0,148.5, -4.8, -2.2,0,0,1024,1024,1024,1024,0,0,0,0,0,0,0,97,4.327,4.331,4.331,4.327,4.326,4.331,0,32,9821.850547895,0,41,Motors_Started,
4300,2023-10-11 00:24:31,38.4981823426766,-112.064456241942,0,,,9821.850547895,0.656168,0,0.174195215548,0.247772973808,15,5,25.973,9821.850547895,0,0,0.174195215548,0,0,0,148.6, -4.7, -2.3,0,0,1024,1024,1024,1024,0,0,0,0,0,0,0,97,4.327,4.331,4.331,4.327,4.326,4.331,0,32,9821.850547895,0,41,Motors_Started,
4400,2023-10-11 00:24:31,38.4981822669047,-112.064456158836,0,,,9821.850547895,0.656168,0,0.167635175968,0.284206373924,15,5,25.982,9821.850547895,0,0,0.174195215548,0,0,0,148.9, -4.9, -2.3,0,0,1024,1024,1024,1024,0,0,0,0,0,0,0,97,4.329,4.331,4.331,4.332,4.327,4.332,0,32,9821.850547895,0,41,Motors_Started,
4500,2023-10-11 00:24:31,38.4981823014713,-112.064456124334,0,,,9821.850547895,0.656168,0,0.183527564928,0.30020998336,15,5,25.982,9821.850547895,0,0,0.183527564928,0,0,0,148.9, -4.8, -2.4,0,0,1024,1024,1024,1024,0,0,0,0,0,0,0,97,4.329,4.331,4.331,4.332,4.327,4.332,0,32,9821.850547895,0,41,Motors_Started,
4600,2023-10-11 00:24:31,38.4981823937191,-112.064456348653,0,,,9821.850547895,0.656168,0,0.17684383768,0.37256562872,15,5,25.982,9821.850547895,0,0,0.183527564928,0,0,0,148.6, -4.9, -2.3,0,0,1024,1024,1024,1024,0,0,0,0,0,0,0,97,4.329,4.331,4.331,4.332,4.327,4.332,0,32,9821.850547895,0,41,Motors_Started,
4700,2023-10-11 00:24:31,38.4981824333259,-112.064456334806,0,,,9821.850547895,0.656168,0,0.191747709548,0.387549225,15,5,25.982,9821.850547895,0,0,0.191747709548,0,0,0,148.6, -4.7, -2.3,0,0,1024,1024,1024,1024,0,0,0,0,0,0,0,97,4.329,4.331,4.331,4.332,4.327,4.332,0,32,9821.850547895,0,41,Motors_Started,
4800,2023-10-11 00:24:31,38.4981825313062,-112.064456216628,0,,,9821.850547895,0.656168,0,0.23792487638,0.43670605072,15,5,25.982,9821.850547895,0,0,0.23792487638,0,0,0,148.6, -4.8, -2.3,0,0,1024,1024,1024,1024,0,0,0,0,0,0,0,97,4.329,4.331,4.331,4.332,4.327,4.332,0,32,9821.850547895,0,41,Motors_Started,
4900,2023-10-11 00:24:31,38.4981825779444,-112.064456194891,0,,,9821.850547895,0.656168,0,0.2559629347,0.45481956836,15,5,25.982,9821.850547895,0,0,0.2559629347,0,0,0,148.6, -4.7, -2.3,0,0,1024,1024,1024,1024,0,0,0,0,0,0,0,97,4.329,4.331,4.331,4.332,4.327,4.332,0,32,9821.850547895,0,41,Motors_Started,
5000,2023-10-11 00:24:31,38.49818247871,-112.06445608857,0,,,9821.850547895,0.656168,0,0.239870742584,0.50207022604,15,5,25.982,9821.850547895,0,0,0.2559629347,0,0,0,148.6, -4.8, -2.3,0,0,1024,1024,1024,1024,0,0,0,0,0,0,0,97,4.329,4.331,4.331,4.332,4.327,4.332,0,32,9821.850547895,0,41,Motors_Started,
5100,2023-10-11 00:24:32,38.4981825118852,-112.06445605649,0,,,9821.850547895,0.656168,0,0.255043315248,0.51724739188,15,5,25.982,9821.850547895,0,0,0.2559629347,0,0,0,148.6, -4.8, -2.3,0,0,1024,1024,1024,1024,0,0,0,0,0,0,0,97,4.329,4.331,4.331,4.332,4.327,4.332,0,32,9821.850547895,0,41,Motors_Started,
5200,2023-10-11 00:24:32,38.4981825991549,-112.0644561125,0,,,9821.850547895,0.656168,0,0.273529536312,0.55288059512,15,5,25.982,9821.850547895,0,0,0.273529536312,0,0,0,148.5, -4.8, -2.3,0,0,1024,1024,1024,1024,0,0,0,0,0,0,0,97,4.329,4.331,4.331,4.332,4.327,4.332,0,32,9821.850547895,0,41,Motors_Started,
5300,2023-10-11 00:24:32,38.4981826391667,-112.064456090632,0,,,9821.850547895,0.656168,0,0.289333670676,0.56875657988,15,5,25.982,9821.850547895,0,0,0.289333670676,0,0,0,148.6, -4.8, -2.3,0,0,1024,1024,1024,1024,0,0,0,0,0,0,0,97,4.329,4.331,4.331,4.332,4.327,4.332,0,32,9821.850547895,0,41,Motors_Started,
5400,2023-10-11 00:24:32,38.4981825699738,-112.064455984299,0,,,9821.850547895,0.656168,0,0.284298893612,0.60824477012,15,5,25.825,9821.850547895,0,0,0.289333670676,0,0,0,148.6, -4.8, -2.3,0,0,1024,1024,1024,1024,0,0,0,0,0,0,0,97,4.304,4.3,4.305,4.309,4.3,4.307,0,32,9821.850547895,0,10,Assisted_Takeoff,
5500,2023-10-11 00:24:32,38.4981826026501,-112.064455954474,0,,,9821.850547895,0.656168,0,0.29894850038,0.62289700156,15,5,25.825,9821.850547895,0,0,0.29894850038,0,0,0,148.5, -4.8, -2.3,0,0,1024,1024,1024,1024,0,0,0,0,0,0,0,97,4.304,4.3,4.305,4.309,4.3,4.307,0,32,9821.850547895,0,10,Assisted_Takeoff,
5600,2023-10-11 00:24:32,38.4981826938152,-112.064455868366,0,,,9821.850547895,0.656168,0,0.34031169068,0.66425855144,15,5,25.825,9821.850547895,0,0,0.34031169068,0,0,0,148.5, -4.8, -2.3,0,0,1024,1024,1024,1024,0,0,0,0,0,0,0,97,4.304,4.3,4.305,4.309,4.3,4.307,0,32,9821.850547895,0,10,Assisted_Takeoff,
5700,2023-10-11 00:24:32,38.4981827315784,-112.064455832345,0,,,9821.850547895,0.656168,0,0.35750329228,0.68145015304,15,5,25.825,9821.850547895,0,0,0.35750329228,0,0,0,148.5, -4.8, -2.3,0,0,1024,1024,1024,1024,0,0,0,0,0,0,0,97,4.304,4.3,4.305,4.309,4.3,4.307,0,32,9821.850547895,0,10,Assisted_Takeoff,
5800,2023-10-11 00:24:32,38.4981826670999,-112.064455741241,0,,,9821.850547895,0.656168,0,0.3556922686,0.71652561348,15,5,25.825,9821.850547895,0,0,0.35750329228,0,0,0,148.5, -4.8, -2.3,0,0,1024,1024,1024,1024,0,0,0,0,0,0,0,97,4.304,4.3,4.305,4.309,4.3,4.307,0,32,9821.850547895,0,10,Assisted_Takeoff,
5900,2023-10-11 00:24:32,38.4981826961692,-112.064455697836,0,,,9821.850547895,0.656168,0,0.37187009064,0.73283794996,15,5,25.825,9821.850547895,0,0,0.37187009064,0,0,0,148.5, -4.8, -2.3,0,0,1024,1024,1024,1024,0,0,0,0,0,0,0,97,4.304,4.3,4.305,4.309,4.3,4.307,0,32,9821.850547895,0,10,Assisted_Takeoff,
6000,2023-10-11 00:24:33,38.4981827916586,-112.064455773771,0,,,9821.850547895,0.656168,0,0.3850721908,0.77387469668,15,5,25.825,9821.850547895,0,0,0.3850721908,0,0,0,148.5, -4.8, -2.3,0,0,1024,1024,1024,1024,0,0,0,0,0,0,0,97,4.304,4.3,4.305,4.309,4.3,4.307,0,32,9821.850547895,0,10,Assisted_Takeoff,
6100,2023-10-11 00:24:33,38.4981828283785,-112.06445573953,0,,,9821.850547895,0.656168,0,0.401656837,0.79045934288,15,5,25.825,9821.850547895,0,0,0.401656837,0,0,0,148.5, -4.8, -2.3,0,0,1024,1024,1024,1024,0,0,0,0,0,0,0,97,4.304,4.3,4.305,4.309,4.3,4.307,0,32,9821.850547895,0,10,Assisted_Takeoff,
6200,2023-10-11 00:24:33,38.4981827618977,-112.064455802748,0,,,9821.850547895,0.656168,0,0.3714238964,0.82069556432,15,5,25.825,9821.850547895,0,0,0.401656837,0,0,0,148.5, -4.7, -2.3,0,0,1024,1024,1024,1024,0,0,0,0,0,0,0,97,4.304,4.3,4.305,4.309,4.3,4.307,0,32,9821.850547895,0,10,Assisted_Takeoff,
6300,2023-10-11 00:24:33,38.4981827903501,-112.064455775166,0,,,9821.850547895,0.656168,0,0.38445211204,0.83372377996,15,5,25.825,9821.850547895,0,0,0.401656837,0,0,0,148.5, -4.7, -2.4,0,0,1024,1024,1024,1024,0,0,0,0,0,0,0,97,4.304,4.3,4.305,4.309,4.3,4.307,0,32,9821.850547895,0,10,Assisted_Takeoff,
6400,2023-10-11 00:24:33,38.4981828892184,-112.064455673973,0,,,9821.850547895,0.656168,0,0.43063649672,0.87994425388,15,5,25.949,9821.850547895,0,0,0.43063649672,0,0,0,148.5, -4.7, -2.4,0,0,1024,1024,1024,1024,0,0,0,0,0,0,0,97,4.32,4.326,4.327,4.325,4.324,4.327,0,32,9821.850547895,0,10,Assisted_Takeoff,
6500,2023-10-11 00:24:33,38.4981829241526,-112.064455638396,0,,,9821.850547895,0.656168,0,0.44692586732,0.89624018616,15,5,25.949,9821.850547895,0,0,0.44692586732,0,0,0,148.5, -4.7, -2.4,0,0,1024,1024,1028,1024,0,0,1,0,0,0,0,97,4.32,4.326,4.327,4.325,4.324,4.327,0,32,9821.850547895,0,10,Assisted_Takeoff,
6600,2023-10-11 00:24:33,38.4981828542477,-112.064455703538,0,,,9821.850547895,0.656168,0,0.41536418652,0.92780842864,15,5,25.949,9821.850547895,0,0,0.44692586732,0,0,0,148.5, -4.8, -2.4,0,0,1024,1024,1050,1024,0,0,4,0,0,0,0,97,4.32,4.326,4.327,4.325,4.324,4.327,0,32,9821.850547895,0,10,Assisted_Takeoff,
6700,2023-10-11 00:24:33,38.4981828804061,-112.064455676649,0,,,9821.850547895,0.656168,0,0.42760500056,0.94005580436,15,5,25.949,9821.850547895,0,0,0.44692586732,0,0,0,148.6, -4.8, -2.3,0,0,1024,1024,1060,1024,0,0,5,0,0,0,0,97,4.32,4.326,4.327,4.325,4.324,4.327,0,32,9821.850547895,0,10,Assisted_Takeoff,
6800,2023-10-11 00:24:33,38.4981828281088,-112.064455574372,0,,,9821.850547895,0.656168,0,0.43124673296,0.97494097608,15,5,25.949,9821.850547895,0,0,0.44692586732,0,0,0,148.5, -4.8, -2.3,0,0,1024,1024,1082,1024,0,0,9,0,0,0,0,97,4.32,4.326,4.327,4.325,4.324,4.327,0,32,9821.850547895,0,10,Assisted_Takeoff,
6900,2023-10-11 00:24:33,38.4981828477056,-112.064455538247,0,,,9821.850547895,0.656168,0,0.44344489608,0.98749346992,15,5,25.949,9821.850547895,0,0,0.44692586732,0,0,0,148.5, -4.8, -2.4,0,0,1024,1024,1082,1024,0,0,9,0,0,0,0,97,4.32,4.326,4.327,4.325,4.324,4.327,0,32,9821.850547895,0,10,Assisted_Takeoff,
7000,2023-10-11 00:24:34,38.4981829597052,-112.064455601583,0,,,9821.850547895,0.656168,0,0.46360893872,1.03217851072,15,5,25.949,9821.850547895,0,0,0.46360893872,0,0,0,148.5, -4.8, -2.4,0,0,1024,1024,1133,1024,0,0,17,0,0,0,0,97,4.32,4.326,4.327,4.325,4.324,4.327,0,32,9821.850547895,0,10,Assisted_Takeoff,
7100,2023-10-11 00:24:34,38.4981829890605,-112.064455573775,0,,,9821.850547895,0.656168,0,0.47694227248,1.04551184448,15,5,25.949,9821.850547895,0,0,0.47694227248,0,0,0,148.6, -4.7, -2.4,0,0,1024,1024,1153,1024,0,0,20,0,0,0,0,97,4.32,4.326,4.327,4.325,4.324,4.327,0,32,9821.850547895,0,10,Assisted_Takeoff,
7200,2023-10-11 00:24:34,38.4981829385312,-112.064455626645,0,,,9821.850547895,0.656168,0,0.45313977828,1.0693405854,15,5,25.949,9821.850547895,0,0,0.47694227248,0,0,0,148.6, -4.6, -2.4,0,0,1024,1024,1167,1024,0,0,22,0,0,0,0,97,4.32,4.326,4.327,4.325,4.324,4.327,0,32,9821.850547895,0,10,Assisted_Takeoff,
7300,2023-10-11 00:24:34,38.4981829603801,-112.06445560658,0,,,9821.850547895,0.656168,0,0.46295277072,1.07915685868,15,5,25.949,9821.850547895,0,0,0.47694227248,0,0,0,148.6, -4.6, -2.4,0,0,1024,1024,1185,1024,0,0,24,0,0,0,0,97,4.32,4.326,4.327,4.325,4.324,4.327,0,32,9821.850547895,0,10,Assisted_Takeoff,
7400,2023-10-11 00:24:34,38.4981830657304,-112.064455649279,0,,,9821.850547895,0.656168,0,0.487614845,1.11948166312,15,5,25.942,9821.850547895,0,0,0.487614845,0,0,0,148.6, -4.6, -2.4,0,0,1024,1024,1186,1024,0,0,25,0,0,0,0,97,4.322,4.324,4.324,4.326,4.321,4.325,0,32,9821.850547895,0,10,Assisted_Takeoff,
7500,2023-10-11 00:24:34,38.4981830963408,-112.064455635298,0,,,9821.850547895,0.656168,0,0.49916996348,1.13134189972,15,5,25.942,9821.850547895,0,0,0.49916996348,0,0,0,148.6, -4.6, -2.5,0,0,1024,1024,1191,1024,0,0,25,0,0,0,0,97,4.322,4.324,4.324,4.326,4.321,4.325,0,32,9821.850547895,0,10,Assisted_Takeoff,
7600,2023-10-11 00:24:34,38.4981830332025,-112.064455666933,0,,,9821.850547895,0.656168,0,0.47491143252,1.156085995,15,5,25.942,9821.850547895,0,0,0.49916996348,0,0,0,148.6, -4.5, -2.5,0,0,1024,1024,1192,1024,0,0,25,0,0,0,0,97,4.322,4.324,4.324,4.326,4.321,4.325,0,32,9821.850547895,0,10,Assisted_Takeoff,
7700,2023-10-11 00:24:34,38.4981830576456,-112.064455652825,0,,,9821.850547895,0.656168,0,0.48458662968,1.16586945988,15,5,25.942,9821.850547895,0,0,0.49916996348,0,0,0,148.6, -4.5, -2.5,0,0,1024,1024,1200,1024,0,0,27,0,0,0,0,97,4.322,4.324,4.324,4.326,4.321,4.325,0,32,9821.850547895,0,10,Assisted_Takeoff,
7800,2023-10-11 00:24:34,38.4981831605994,-112.064455669855,0,,,9821.850547895,0.656168,0,0.51407153876,1.20374675768,15,5,25.942,9821.850547895,0,0,0.51407153876,0,0,0,148.6, -4.5, -2.5,0,0,1024,1024,1212,1024,0,0,28,0,0,0,0,97,4.322,4.324,4.324,4.326,4.321,4.325,0,32,9821.850547895,0,10,Assisted_Takeoff,
7900,2023-10-11 00:24:34,38.4981831966587,-112.064455655716,0,,,9821.850547895,0.656168,0,0.52748361268,1.21750988148,15,5,25.942,9821.850547895,0,0,0.52748361268,0,0,0,148.6, -4.3, -2.7,0,0,1024,1024,1226,1024,0,0,31,0,0,0,0,97,4.322,4.324,4.324,4.326,4.321,4.325,0,32,9821.850547895,0,10,Assisted_Takeoff,
8000,2023-10-11 00:24:34,38.4981832363602,-112.064455633355,0,,,9821.850547895,0.656168,0,0.54322836384,1.23333993448,15,5,25.942,9821.850547895,0,0,0.54322836384,0,0,0,148.4, -4, -2.7,0,0,1024,1024,1228,1024,0,0,31,0,0,0,0,97,4.322,4.324,4.324,4.326,4.321,4.325,0,32,9821.850547895,0,10,Assisted_Takeoff,
8100,2023-10-11 00:24:35,38.4981831762667,-112.064455639427,0,,,9821.850547895,0.656168,0,0.52339896688,1.255331405,15,5,25.942,9821.850547895,0,0,0.54322836384,0,0,0,147.8, -3.1, -2.6,0,0,1024,1024,1230,1024,0,0,31,0,0,0,0,97,4.322,4.324,4.324,4.326,4.321,4.325,0,32,9821.850547895,0,10,Assisted_Takeoff,
8200,2023-10-11 00:24:35,38.4981831633134,-112.064455617174,0,,,9821.850547895,0.656168,0,0.52263453116,1.26325135276,15,5,25.942,9821.850547895,0,0,0.54322836384,0,0,-0.223694,146.9, -0.2, -2.4,0,0,1024,1024,1235,1024,0,0,32,0,0,0,0,97,4.322,4.324,4.324,4.326,4.321,4.325,0,32,9821.850547895,0,10,Assisted_Takeoff,
8300,2023-10-11 00:24:35,38.4981832242416,-112.064455541128,0,,,9821.850547895,0.656168,0,0.55297902032,1.29432746924,15,5,25.942,9821.850547895,0,0,0.55297902032,0,0,-0.223694,145.6, 4.5, -1.8,0,0,1024,1024,1235,1024,0,0,32,0,0,0,0,97,4.322,4.324,4.324,4.326,4.321,4.325,0,32,9821.850547895,0,10,Assisted_Takeoff,
8400,2023-10-11 00:24:35,38.4981834535178,-112.06445550684,0,,,9821.850547895,0.984252,0.223694,0.630003301,1.37854991288,15,5,25.689,9821.850547895,0,0.223694,0.630003301,0.223694,0,-0.447388,144.7, 7.9, -1.2,0,0,1024,1024,1237,1024,0,0,32,0,0,0,0,97,4.27,4.271,4.289,4.285,4.286,4.288,0,32,9821.850547895,0,6,P-GPS,
8500,2023-10-11 00:24:35,38.498183668639,-112.064455505874,0,,,9821.850547895,0.984252,0.447388,0.69984254208,1.45703416736,15,5,25.689,9821.850547895,0,0.447388,0.69984254208,0.447388,0,-0.671082,144.1, 7.3, -0.3,0,0,1024,1024,1237,1024,0,0,32,0,0,0,0,97,4.27,4.271,4.289,4.285,4.286,4.288,0,32,9821.850547895,0,6,P-GPS,
8600,2023-10-11 00:24:35,38.4981838189893,-112.064455664978,0.328084,,,9822.178631895,0.984252,0.671082,0.73227692632,1.52826120376,15,5,25.689,9822.178631895,0.328084,0.671082,0.73227692632,0.671082,0,-0.894776,144, 3.5, 1.4,0,0,1024,1024,1237,1024,0,0,32,0,0,0,0,97,4.27,4.271,4.289,4.285,4.286,4.288,0,32,9822.178631895,0.328084,6,P-GPS,
8700,2023-10-11 00:24:35,38.4981841197919,-112.06445581513,0.328084,,,9822.178631895,1.312336,0.7158208,0.82348427832,1.64608601068,15,5,25.689,9822.178631895,0.328084,0.7158208,0.82348427832,0.671082,-0.223694,-1.11847,143.8, -0.4, 2.8,0,0,1024,1024,1242,1024,0,0,33,0,0,0,0,97,4.27,4.271,4.289,4.285,4.286,4.288,0,32,9822.178631895,0.328084,6,P-GPS,
8800,2023-10-11 00:24:35,38.4981844701572,-112.064456021222,0.656168,,,9822.506715895,1.64042,0.7158208,0.93569228716,1.7868110808,15,5,25.689,9822.506715895,0.656168,0.7158208,0.93569228716,0.447388,-0.223694,-1.342164,143.7, -2.7, 3,0,0,1024,1024,1250,1024,0,0,34,0,0,0,0,97,4.27,4.271,4.289,4.285,4.286,4.288,0,32,9822.506715895,0.656168,6,P-GPS,
8900,2023-10-11 00:24:35,38.4981846490341,-112.064456258581,0.984252,,,9822.834799895,1.64042,0.3131716,0.99163717084,1.88090229116,15,5,25.689,9822.834799895,0.984252,0.7158208,0.99163717084,0.223694,-0.223694,-1.565858,143.9, -2.7, 1.9,0,0,1024,1024,1259,1024,0,0,36,0,0,0,0,97,4.27,4.271,4.289,4.285,4.286,4.288,0,32,9822.834799895,0.984252,6,P-GPS,
9000,2023-10-11 00:24:35,38.498184506999,-112.064456395887,0.984252,,,9822.834799895,1.968504,0.447388,0.93709320584,1.9458826082,15,5,25.689,9822.834799895,0.984252,0.7158208,0.99163717084,0,-0.447388,-1.789552,144.3, -1.8, 0,0,0,1024,1024,1264,1024,0,0,36,0,0,0,0,97,4.27,4.271,4.289,4.285,4.286,4.288,0,32,9822.834799895,0.984252,6,P-GPS,
9100,2023-10-11 00:24:36,38.4981845658037,-112.064456633969,1.312336,,,9823.162883895,2.296588,0.447388,0.95730974192,2.01717198056,15,5,25.689,9823.162883895,1.312336,0.7158208,0.99163717084,0,-0.447388,-1.789552,144.7, -1.2, -1.3,0,0,1024,1024,1283,1024,0,0,39,0,0,0,0,97,4.27,4.271,4.289,4.285,4.286,4.288,0,32,9823.162883895,1.312336,6,P-GPS,
9200,2023-10-11 00:24:36,38.4981847984555,-112.064456557062,1.64042,,,9823.490967895,2.624672,0.223694,1.04205383912,2.10484914872,15,5,25.689,9823.490967895,1.64042,0.7158208,1.04205383912,0,-0.223694,-2.013246,145, -1, -1.8,0,0,1024,1024,1318,1024,0,0,45,0,0,0,0,97,4.27,4.271,4.289,4.285,4.286,4.288,0,32,9823.490967895,1.64042,6,P-GPS,
9300,2023-10-11 00:24:36,38.4981848493449,-112.064456700507,1.968504,,,9823.819051895,2.624672,0.223694,1.0612205064,2.1498196226,15,5,25.689,9823.819051895,1.968504,0.7158208,1.0612205064,0,-0.223694,-2.013246,145.2, -1.6, -2,0,0,1024,1024,1390,1024,0,0,55,0,0,0,0,97,4.27,4.271,4.289,4.285,4.286,4.288,0,32,9823.819051895,1.968504,6,P-GPS,
9400,2023-10-11 00:24:36,38.4981844694545,-112.064456723325,2.296588,,,9824.147135895,2.952756,0,0.92298559384,2.28857618872,15,5,25.17,9824.147135895,2.296588,0.7158208,1.0612205064,0,0,-2.23694,145.2, -1.7, -1.6,0,0,1024,1024,1398,1024,0,0,57,0,0,0,0,97,4.18,4.189,4.201,4.199,4.198,4.203,0,32,9824.147135895,2.296588,6,P-GPS,
9500,2023-10-11 00:24:36,38.4981844298049,-112.064456767088,2.624672,,,9824.475219895,3.28084,0,0.90920606584,2.30769036256,15,5,25.17,9824.475219895,2.624672,0.7158208,1.0612205064,0,0,-2.684328,145, -1.1, -0.8,0,0,1024,1024,1408,1024,0,0,58,0,0,0,0,97,4.18,4.189,4.201,4.199,4.198,4.203,0,32,9824.475219895,2.624672,6,P-GPS,
9600,2023-10-11 00:24:36,38.4981845297072,-112.06445717495,3.28084,,,9825.131387895,3.937008,0,0.95943900708,2.4297244872,15,5,25.17,9825.131387895,3.28084,0.7158208,1.0612205064,0,0,-3.131716,145, -0.4, -0.4,0,0,1024,1024,1432,1024,0,0,62,0,0,0,0,97,4.18,4.189,4.201,4.199,4.198,4.203,0,32,9825.131387895,3.28084,6,P-GPS,
9700,2023-10-11 00:24:36,38.4981844538312,-112.064457238736,3.608924,,,9825.459471895,4.265092,0,0.93573493808,2.4628609712,15,5,25.17,9825.459471895,3.608924,0.7158208,1.0612205064,0,0,-3.35541,144.9, -0.1, -0.6,0,0,1024,1024,1452,1024,0,0,65,0,0,0,0,97,4.18,4.189,4.201,4.199,4.198,4.203,0,32,9825.459471895,3.608924,6,P-GPS,
9800,2023-10-11 00:24:36,38.4981843499867,-112.064457547185,4.265092,,,9826.115639895,4.92126,0,0.92128939956,2.55874023936,15,5,25.17,9826.115639895,4.265092,0.7158208,1.0612205064,0,0,-3.802798,144.9, -0.1, -1,0,0,1024,1024,1460,1024,0,0,66,0,0,0,0,97,4.18,4.189,4.201,4.199,4.198,4.203,0,32,9826.115639895,4.265092,6,P-GPS,
9900,2023-10-11 00:24:36,38.4981842434548,-112.064457618072,4.92126,,,9826.771807895,5.577428,0,0.89087273192,2.60256241924,15,5,25.17,9826.771807895,4.92126,0.7158208,1.0612205064,0,0,-4.47388,144.9, -0.3, -1.3,0,0,1024,1024,1466,1024,0,0,67,0,0,0,0,97,4.18,4.189,4.201,4.199,4.198,4.203,0,32,9826.771807895,4.92126,6,P-GPS,
10000,2023-10-11 00:24:36,38.4981841399834,-112.064457414324,5.577428,,,9827.427975895,6.233596,0.223694,0.83689963308,2.671916096,15,5,25.17,9827.427975895,5.577428,0.7158208,1.0612205064,-0.223694,0,-4.921268,144.9, -0.5, -1.4,0,0,1024,1024,1477,1024,0,0,69,0,0,0,0,97,4.18,4.189,4.201,4.199,4.198,4.203,0,32,9827.427975895,5.577428,6,P-GPS,
10100,2023-10-11 00:24:37,38.4981840023651,-112.064457424361,6.233596,,,9828.084143895,6.889764,0.223694,0.78980317488,2.72220809236,15,5,25.17,9828.084143895,6.233596,0.7158208,1.0612205064,-0.223694,0,-5.368656,145, -0.4, -1.4,0,0,1024,1024,1479,1024,0,0,69,0,0,0,0,97,4.18,4.189,4.201,4.199,4.198,4.203,0,32,9828.084143895,6.233596,6,P-GPS,
10200,2023-10-11 00:24:37,38.4981839812896,-112.064457382703,7.217848,,,9829.068395895,7.545932,0.223694,0.77888125852,2.73637147864,15,5,25.17,9829.068395895,7.217848,0.7158208,1.0612205064,-0.223694,0,-5.816044,145, -0.1, -1.4,0,0,1024,1024,1477,1024,0,0,69,0,0,0,0,97,4.18,4.189,4.201,4.199,4.198,4.203,0,32,9829.068395895,7.217848,6,P-GPS,
10300,2023-10-11 00:24:37,38.4981838295891,-112.064457360341,7.874016,,,9829.724563895,8.2021,0.223694,0.72419949824,2.79208670352,15,5,25.17,9829.724563895,7.874016,0.7158208,1.0612205064,-0.223694,0,-6.039738,145.1, 0.1, -1.4,0,0,1024,1024,1478,1024,0,0,69,0,0,0,0,97,4.18,4.189,4.201,4.199,4.198,4.203,0,32,9829.724563895,7.874016,6,P-GPS,
10400,2023-10-11 00:24:37,38.4981835407958,-112.06445694375,8.858268,,,9830.708815895,9.186352,0.223694,0.59264437592,2.95099418892,15,5,24.916,9830.708815895,8.858268,0.7158208,1.0612205064,-0.223694,0,-6.263432,145.2, 0.3, -1.5,0,0,1024,1024,1492,1024,0,0,71,0,0,0,0,97,4.131,4.136,4.153,4.163,4.167,4.166,0,32,9830.708815895,8.858268,6,P-GPS,
10500,2023-10-11 00:24:37,38.4981833649281,-112.064456873928,9.84252,,,9831.693067895,9.84252,0.223694,0.52602035804,3.01818579212,15,5,24.916,9831.693067895,9.84252,0.7158208,1.0612205064,-0.223694,0,-6.487126,145.4, 0.3, -1.7,0,0,1024,1024,1496,1024,0,0,72,0,0,0,0,97,4.131,4.136,4.153,4.163,4.167,4.166,0,32,9831.693067895,9.84252,6,P-GPS,
10600,2023-10-11 00:24:37,38.4981834776163,-112.0644570749,10.826772,,,9832.677319895,10.826772,0.223694,0.57807744632,3.0887796264,15,5,24.916,9832.677319895,10.826772,0.7158208,1.0612205064,-0.223694,0,-6.71082,145.4, 0.3, -2,0,0,1024,1024,1508,1024,0,0,73,0,0,0,0,97,4.131,4.136,4.153,4.163,4.167,4.166,0,32,9832.677319895,10.826772,6,P-GPS,
10700,2023-10-11 00:24:37,38.4981833248466,-112.064457015012,11.811024,,,9833.661571895,11.48294,0.223694,0.519849098,3.14708343404,15,5,24.916,9833.661571895,11.811024,0.7158208,1.0612205064,-0.223694,0,-6.934514,145.5, 0.2, -2.4,0,0,1024,1024,1506,1017,0,0,73,-1,0,0,0,97,4.131,4.136,4.153,4.163,4.167,4.166,0,32,9833.661571895,11.811024,6,P-GPS,
10800,2023-10-11 00:24:37,38.4981831349229,-112.064457213096,12.795276,,,9834.645823895,12.467192,0.223694,0.47177823032,3.23652897496,15,5,24.916,9834.645823895,12.795276,0.7158208,1.0612205064,-0.223694,0,-6.934514,145.6, 0.1, -2.6,0,0,1024,1024,1499,1003,0,0,72,-3,0,0,0,97,4.131,4.136,4.153,4.163,4.167,4.166,0,32,9834.645823895,12.795276,6,P-GPS,
10900,2023-10-11 00:24:37,38.4981829812269,-112.064457134169,13.779528,,,9835.630075895,13.12336,0.223694,0.4113517192,3.2969489244,15,5,24.916,9835.630075895,13.779528,0.7158208,1.0612205064,-0.223694,0,-7.158208,145.7, 0.1, -2.8,0,0,1024,1024,1495,879,0,0,71,-22,0,0,0,97,4.131,4.136,4.153,4.163,4.167,4.166,0,32,9835.630075895,13.779528,6,P-GPS,
11000,2023-10-11 00:24:38,38.4981828358381,-112.064456966107,15.091864,,,9836.942411895,14.107612,0.223694,0.3446358378,3.3685040448,15,5,24.916,9836.942411895,15.091864,0.7158208,1.0612205064,-0.223694,0,-7.158208,145.3, 0.2, -2.5,0,0,1024,1024,1489,860,0,0,70,-25,0,0,0,97,4.131,4.136,4.153,4.163,4.167,4.166,0,32,9836.942411895,15.091864,6,P-GPS,
11100,2023-10-11 00:24:38,38.4981826847504,-112.064456832886,16.076116,,,9837.926663895,14.76378,0.223694,0.280733932868,3.4354659892,15,5,24.916,9837.926663895,16.076116,0.7158208,1.0612205064,-0.223694,0,-7.158208,144.6, 0.5, -2.1,0,0,1024,1024,1472,840,0,0,68,-28,0,0,0,97,4.131,4.136,4.153,4.163,4.167,4.166,0,32,9837.926663895,16.076116,6,P-GPS,
11200,2023-10-11 00:24:38,38.4981825257145,-112.064456569341,17.060368,,,9838.910915895,15.748032,0.223694,0.212839245656,3.530511924,15,5,24.916,9838.910915895,17.060368,0.7158208,1.0612205064,-0.223694,0,-7.158208,143.5, 0.9, -1.9,0,0,1024,1024,1464,842,0,0,67,-28,0,0,0,97,4.131,4.136,4.153,4.163,4.167,4.166,0,32,9838.910915895,17.060368,6,P-GPS,
11300,2023-10-11 00:24:38,38.4981823774581,-112.06445641864,18.372704,,,9840.223251895,16.4042,0.223694,0.164856960656,3.5996064144,15,5,24.916,9840.223251895,18.372704,0.7158208,1.0612205064,-0.223694,0,-6.934514,142.2, 1.2, -2.1,0,0,1024,1024,1453,843,0,0,65,-27,0,0,0,97,4.131,4.136,4.153,4.163,4.167,4.166,0,32,9840.223251895,18.372704,6,P-GPS,
11400,2023-10-11 00:24:38,38.4981821519557,-112.064456324045,19.356956,,,9841.207503895,17.060368,0.223694,0.104682089964,3.6862205904,15,5,25.043,9841.207503895,19.356956,0.7158208,1.0612205064,-0.223694,0,-6.71082,140.7, 1.2, -2.3,0,0,1024,1024,1443,825,0,0,63,-30,0,0,0,97,4.156,4.164,4.18,4.179,4.178,4.186,0,32,9841.207503895,19.356956,6,P-GPS,
11500,2023-10-11 00:24:38,38.4981820197488,-112.064456178353,20.341208,,,9842.191755895,17.716536,0.223694,0.116562011604,3.7499016948,15,5,25.043,9842.191755895,20.341208,0.7158208,1.0612205064,-0.223694,0,-6.71082,139.1, 1.1, -2.4,0,0,1024,1024,1439,794,0,0,63,-35,0,0,0,97,4.156,4.164,4.18,4.179,4.178,4.186,0,32,9842.191755895,20.341208,6,P-GPS,
11600,2023-10-11 00:24:38,38.4981819801047,-112.064455976187,21.32546,,,9843.176007895,18.372704,0.3131716,0.171372052728,3.8094161324,16,5,25.043,9843.176007895,21.32546,0.7158208,1.0612205064,-0.223694,0.223694,-6.487126,137.5, 0.9, -2.4,0,0,1024,1024,1434,787,0,0,62,-36,0,0,0,97,4.156,4.164,4.18,4.179,4.178,4.186,0,32,9843.176007895,21.32546,6,P-GPS,
11700,2023-10-11 00:24:38,38.4981818825735,-112.064455819866,22.309712,,,9844.160259895,19.028872,0.223694,0.216555781208,3.8665027484,16,5,25.043,9844.160259895,22.309712,0.7158208,1.0612205064,0,0.223694,-6.263432,135.6, 0.9, -2.3,0,0,1024,1024,1428,768,0,0,61,-39,0,0,0,97,4.156,4.164,4.18,4.179,4.178,4.186,0,32,9844.160259895,22.309712,6,P-GPS,
11800,2023-10-11 00:24:38,38.498181934661,-112.06445592968,22.96588,,,9844.816427895,19.356956,0.223694,0.18411910038,3.9031825396,16,5,25.043,9844.816427895,22.96588,0.7158208,1.0612205064,0,0.223694,-6.039738,133.4, 0.9, -2.1,0,0,1024,1024,1427,769,0,0,61,-39,0,0,0,97,4.156,4.164,4.18,4.179,4.178,4.186,0,32,9844.816427895,22.96588,6,P-GPS,
11900,2023-10-11 00:24:38,38.4981818786827,-112.064455803403,23.950132,,,9845.800679895,20.013124,0,0.221377303672,3.9446195488,16,5,25.043,9845.800679895,23.950132,0.7158208,1.0612205064,0,0,-5.816044,131, 1, -1.9,0,0,1024,1024,1426,770,0,0,61,-38,0,0,0,97,4.156,4.164,4.18,4.179,4.178,4.186,0,32,9845.800679895,23.950132,6,P-GPS,
12000,2023-10-11 00:24:39,38.4981823460185,-112.064456067679,24.934384,,,9846.784931895,20.669292,0,0.206458996108,4.131069686,16,5,25.043,9846.784931895,24.934384,0.7158208,1.0612205064,0,0,-5.816044,128.5, 1, -1.6,0,0,1038,1024,1422,770,2,0,60,-38,0,0,0,97,4.156,4.164,4.18,4.179,4.178,4.186,0,32,9846.784931895,24.934384,6,P-GPS,
12100,2023-10-11 00:24:39,38.4981823569464,-112.064456007149,25.590552,,,9847.441099895,21.32546,0,0.221621070084,4.1488190304,16,5,25.043,9847.441099895,25.590552,0.7158208,1.0612205064,0,0,-5.59235,125.9, 0.9, -1.4,0,0,1072,1024,1425,755,7,0,61,-41,0,0,0,97,4.156,4.164,4.18,4.179,4.178,4.186,0,32,9847.441099895,25.590552,6,P-GPS,
12200,2023-10-11 00:24:39,38.4981818515656,-112.064455832418,26.574804,,,9848.425351895,21.981628,0,0.214444232584,4.3398295352,16,5,25.043,9848.425351895,26.574804,0.7158208,1.0612205064,0,0,-5.59235,123.4, 1, -1.5,0,0,1086,1024,1423,746,9,0,60,-42,0,0,0,97,4.156,4.164,4.18,4.179,4.178,4.186,0,32,9848.425351895,26.574804,6,P-GPS,
12300,2023-10-11 00:24:39,38.4981818282111,-112.064455803844,27.230972,,,9849.081519895,22.637796,0,0.223936030788,4.3516077508,16,5,25.043,9849.081519895,27.230972,0.7158208,1.0612205064,0,0,-5.368656,120.8, 0.9, -1.9,0,0,1090,1024,1424,734,10,0,61,-44,0,0,0,97,4.156,4.164,4.18,4.179,4.178,4.186,0,32,9849.081519895,27.230972,6,P-GPS,
12400,2023-10-11 00:24:39,38.4981815795242,-112.064455846072,28.215224,,,9850.065771895,22.637796,0,0.246530191616,4.4431431868,15,5,25.196,9850.065771895,28.215224,0.7158208,1.0612205064,0,0,-5.368656,118.2, 0.6, -2,0,0,1113,1024,1417,739,13,0,60,-43,0,0,0,97,4.182,4.192,4.205,4.205,4.206,4.206,0,32,9850.065771895,28.215224,6,P-GPS,
12500,2023-10-11 00:24:39,38.4981815626479,-112.064455846035,28.871392,,,9850.721939895,22.637796,0,0.249899286212,4.449311166,15,5,25.196,9850.721939895,28.871392,0.7158208,1.0612205064,0,0,-5.368656,115.4, 0, -2.2,0,0,1132,1024,1417,734,16,0,60,-44,0,0,0,97,4.182,4.192,4.205,4.205,4.206,4.206,0,32,9850.721939895,28.871392,6,P-GPS,
12600,2023-10-11 00:24:39,38.4981813419834,-112.064455828382,29.855644,,,9851.706191895,22.637796,0,0.305550206628,4.5299870216,16,5,25.196,9851.706191895,29.855644,0.7158208,1.0612205064,0,0,-5.144962,112.5, -0.8, -2.3,0,0,1157,1024,1410,735,20,0,58,-44,0,0,0,97,4.182,4.192,4.205,4.205,4.206,4.206,0,32,9851.706191895,29.855644,6,P-GPS,
12700,2023-10-11 00:24:39,38.4981813242645,-112.064455810986,30.511812,,,9852.362359895,22.637796,0,0.313649288252,4.5381235048,16,5,25.196,9852.362359895,30.511812,0.7158208,1.0612205064,0,0,-5.144962,109.6, -1.5, -2.3,0,0,1168,1024,1403,741,22,0,57,-43,0,0,0,97,4.182,4.192,4.205,4.205,4.206,4.206,0,32,9852.362359895,30.511812,6,P-GPS,
12800,2023-10-11 00:24:39,38.4981812530858,-112.064455706312,31.496064,,,9853.346611895,22.637796,0,0.35311024752,4.5777232436,16,5,25.196,9853.346611895,31.496064,0.7158208,1.0612205064,0,0,-5.144962,106.6, -2.1, -2.2,0,0,1176,1024,1402,762,23,0,57,-40,0,0,0,97,4.182,4.192,4.205,4.205,4.206,4.206,0,32,9853.346611895,31.496064,6,P-GPS,
12900,2023-10-11 00:24:39,38.4981812414106,-112.064455622061,32.152232,,,9854.002779895,22.637796,0.223694,0.37330053688,4.6021655016,16,5,25.196,9854.002779895,32.152232,0.7158208,1.0612205064,0,0.223694,-5.144962,103.7, -2.7, -2.1,0,0,1194,1024,1396,824,26,0,56,-30,0,0,0,97,4.182,4.192,4.205,4.205,4.206,4.206,0,32,9854.002779895,32.152232,6,P-GPS,
13000,2023-10-11 00:24:40,38.4981811559782,-112.064455672705,32.8084,,,9854.658947895,22.637796,0.223694,0.38550198084,4.6365158964,16,5,25.196,9854.658947895,32.8084,0.7158208,1.0612205064,0,0.223694,-5.144962,100.9, -3.3, -1.9,0,0,1207,1024,1383,881,28,0,54,-22,0,0,0,97,4.182,4.192,4.205,4.205,4.206,4.206,0,32,9854.658947895,32.8084,6,P-GPS,
13100,2023-10-11 00:24:40,38.4981811337722,-112.064455514041,33.792652,,,9855.643199895,22.637796,0.447388,0.42273951484,4.6825460816,16,5,25.196,9855.643199895,33.792652,0.7158208,1.0612205064,0,0.447388,-5.144962,98.5, -4.2, -1.9,0,0,1237,1024,1379,908,32,0,54,-18,0,0,0,97,4.182,4.192,4.205,4.205,4.206,4.206,0,32,9855.643199895,33.792652,6,P-GPS,
13200,2023-10-11 00:24:40,38.4981811457676,-112.064455328487,34.44882,,,9856.299367895,22.637796,0.447388,0.45938977848,4.7356956896,16,5,25.196,9856.299367895,34.44882,0.7158208,1.0612205064,0,0.447388,-4.921268,96.6, -5.2, -2,0,0,1256,1024,1378,918,35,0,54,-16,0,0,0,97,4.182,4.192,4.205,4.205,4.206,4.206,0,32,9856.299367895,34.44882,6,P-GPS,
13300,2023-10-11 00:24:40,38.4981811248257,-112.064455028276,35.104988,,,9856.955535895,22.637796,0.671082,0.53280513516,4.8217521228,16,5,25.196,9856.955535895,35.104988,0.7158208,1.0612205064,0,0.671082,-4.921268,95.2, -6.3, -2.2,0,0,1281,1024,1371,951,39,0,53,-11,0,0,0,97,4.182,4.192,4.205,4.205,4.206,4.206,0,32,9856.955535895,35.104988,6,P-GPS,
13400,2023-10-11 00:24:40,38.4981810447155,-112.064454448007,35.761156,,,9857.611703895,22.637796,0.894776,0.68987206932,4.9900264064,16,5,25.196,9857.611703895,35.761156,0.894776,1.0612205064,0,0.894776,-4.697574,94.2, -7.2, -2.3,0,0,1297,1024,1371,953,41,0,53,-11,0,0,0,97,4.182,4.192,4.205,4.205,4.206,4.206,0,32,9857.611703895,35.761156,6,P-GPS,
13500,2023-10-11 00:24:40,38.4981810338108,-112.064453908644,36.417324,,,9858.267871895,22.637796,1.11847,0.8302329662,5.1440946528,16,5,25.143,9858.267871895,36.417324,1.11847,1.0612205064,0,1.11847,-4.697574,93.4, -8, -2.2,0,0,1300,1024,1373,897,42,0,53,-19,0,0,0,97,4.174,4.184,4.199,4.198,4.189,4.199,0,32,9858.267871895,36.417324,6,P-GPS,
13600,2023-10-11 00:24:40,38.4981814574189,-112.064453243078,37.401576,,,9859.252123895,22.637796,1.342164,0.96754924356,5.3890421672,16,5,25.143,9859.252123895,37.401576,1.342164,1.0612205064,0,1.342164,-4.47388,92.8, -8.8, -1.9,0,0,1298,1024,1371,857,42,0,53,-25,0,0,0,97,4.174,4.184,4.199,4.198,4.189,4.199,0,32,9859.252123895,37.401576,6,P-GPS,
13700,2023-10-11 00:24:40,38.4981815031073,-112.064452412523,38.057744,,,9859.908291895,22.637796,1.789552,1.19915030084,5.6267718336,16,5,25.143,9859.908291895,38.057744,1.789552,1.19915030084,0,1.789552,-4.47388,92, -9.5, -1.7,0,0,1299,1024,1355,868,42,0,50,-24,0,0,0,97,4.174,4.184,4.199,4.198,4.189,4.199,0,32,9859.908291895,38.057744,6,P-GPS,
13800,2023-10-11 00:24:40,38.4981810879257,-112.064451326314,38.713912,,,9860.564459895,22.637796,1.789552,1.53062997024,5.97194901,16,5,25.143,9860.564459895,38.713912,1.789552,1.53062997024,0,2.013246,-4.47388,91, -9.9, -1.9,0,0,1295,1024,1352,891,41,0,50,-20,0,0,0,97,4.174,4.184,4.199,4.198,4.189,4.199,0,32,9860.564459895,38.713912,6,P-GPS,
13900,2023-10-11 00:24:40,38.498181106586,-112.064450146911,39.37008,,,9861.220627895,22.637796,2.460634,1.86047578132,6.3087928528,16,5,25.143,9861.220627895,39.37008,2.460634,1.86047578132,0,2.460634,-4.250186,89.7, -10.4, -2.4,0,0,1297,1024,1344,926,41,0,48,-15,0,0,0,97,4.174,4.184,4.199,4.198,4.189,4.199,0,32,9861.220627895,39.37008,6,P-GPS,
14000,2023-10-11 00:24:41,38.4981811190794,-112.064448757595,39.698164,,,9861.548711895,22.637796,2.684328,2.25214574136,6.7055120256,16,5,25.143,9861.548711895,39.698164,2.684328,2.25214574136,0,2.684328,-4.250186,88.5, -10.7, -2.5,0,0,1307,1024,1330,934,43,0,46,-14,0,0,0,97,4.174,4.184,4.199,4.198,4.189,4.199,0,32,9861.548711895,39.698164,6,P-GPS,
14100,2023-10-11 00:24:41,38.4981811810162,-112.064447218866,40.354332,,,9862.204879895,22.637796,3.131716,2.68579733004,7.1454726696,16,5,25.143,9862.204879895,40.354332,3.131716,2.68579733004,0.223694,3.131716,-4.026492,87.5, -10.6, -2.3,0,0,1313,1024,1326,934,44,0,46,-14,0,0,0,97,4.174,4.184,4.199,4.198,4.189,4.199,0,32,9862.204879895,40.354332,6,P-GPS,
14200,2023-10-11 00:24:41,38.4981812309819,-112.064445551255,41.0105,,,9862.861047895,22.637796,3.131716,3.1582514134,7.6219818712,16,5,25.143,9862.861047895,41.0105,3.131716,3.1582514134,0.223694,3.35541,-4.026492,86.7, -10.4, -2.1,0,0,1323,1024,1321,965,45,0,45,-9,0,0,0,97,4.174,4.184,4.199,4.198,4.189,4.199,0,32,9862.861047895,41.0105,6,P-GPS,
14300,2023-10-11 00:24:41,38.4981813279203,-112.064443674965,41.666668,,,9863.517215895,22.637796,3.802798,3.6901575984,8.1589241456,16,5,25.143,9863.517215895,41.666668,3.802798,3.6901575984,0.223694,3.802798,-3.802798,86, -10.3, -1.9,0,0,1337,1024,1322,979,47,0,45,-7,0,0,0,97,4.174,4.184,4.199,4.198,4.189,4.199,0,32,9863.517215895,41.666668,6,P-GPS,
14400,2023-10-11 00:24:41,38.4981813715295,-112.064441582176,42.322836,,,9864.173383895,22.637796,4.026492,4.2859581424,8.7566931936,16,5,25.143,9864.173383895,42.322836,4.026492,4.2859581424,0.223694,4.026492,-3.579104,85.5, -10.2, -1.6,0,0,1347,1024,1331,985,49,0,47,-6,0,0,0,97,4.174,4.184,4.199,4.198,4.189,4.199,0,32,9864.173383895,42.322836,6,P-GPS,
14500,2023-10-11 00:24:41,38.4981814894782,-112.064439374915,42.65092,,,9864.501467895,22.637796,4.250186,4.9139437268,9.388451744,16,5,25.161,9864.501467895,42.65092,4.250186,4.9139437268,0.223694,4.250186,-3.579104,85.3, -10.4, -1.5,0,0,1347,1024,1331,984,49,0,47,-6,0,0,0,97,4.181,4.187,4.197,4.203,4.196,4.197,0,32,9864.501467895,42.65092,6,P-GPS,
14600,2023-10-11 00:24:41,38.4981818254376,-112.064437158027,43.307088,,,9865.157635895,22.637796,4.250186,5.5443571328,10.0332024208,16,5,25.161,9865.157635895,43.307088,4.250186,5.5443571328,0.447388,4.697574,-3.579104,85, -10.9, -1.4,0,0,1347,1024,1330,984,49,0,46,-6,0,0,0,97,4.181,4.187,4.197,4.203,4.196,4.197,0,32,9865.157635895,43.307088,6,P-GPS,
14700,2023-10-11 00:24:41,38.498181990837,-112.064434620439,43.963256,,,9865.813803895,22.637796,5.1673314,6.2687994132,10.7603021816,16,5,25.161,9865.813803895,43.963256,5.1673314,6.2687994132,0.447388,5.144962,-3.579104,84.8, -11.4, -1.2,0,0,1342,1024,1331,984,48,0,47,-6,0,0,0,97,4.181,4.187,4.197,4.203,4.196,4.197,0,32,9865.813803895,43.963256,6,P-GPS,
14800,2023-10-11 00:24:41,38.4981821712155,-112.064431759396,44.29134,,,9866.141887895,22.637796,5.3910254,7.0862206992,11.579888822,16,5,25.161,9866.141887895,44.29134,5.3910254,7.0862206992,0.447388,5.368656,-3.35541,84.6, -11.5, -1.2,0,0,1336,1024,1334,984,47,0,47,-6,0,0,0,97,4.181,4.187,4.197,4.203,4.196,4.197,0,32,9866.141887895,44.29134,6,P-GPS,
14900,2023-10-11 00:24:41,38.4981823562021,-112.064428837528,44.947508,,,9866.798055895,22.637796,5.3910254,7.9214569464,12.4169295312,16,5,25.161,9866.798055895,44.947508,5.3910254,7.9214569464,0.447388,5.816044,-3.35541,84.4, -11.2, -1.4,0,0,1336,1024,1334,984,47,0,47,-6,0,0,0,97,4.181,4.187,4.197,4.203,4.196,4.197,0,32,9866.798055895,44.947508,6,P-GPS,
15000,2023-10-11 00:24:41,38.4981824473568,-112.064425484643,45.275592,,,9867.126139895,22.637796,6.2858014,8.8793309928,13.3749020028,16,5,25.161,9867.126139895,45.275592,6.2858014,8.8793309928,0.447388,6.263432,-3.579104,84.3, -10.7, -1.8,0,0,1333,1024,1334,983,47,0,47,-6,0,0,0,97,4.181,4.187,4.197,4.203,4.196,4.197,0,32,9867.126139895,45.275592,6,P-GPS,
15100,2023-10-11 00:24:42,38.4981826526937,-112.06442218853,45.93176,,,9867.782307895,22.637796,6.5094954,9.82201475,14.319062138,16,5,25.161,9867.782307895,45.93176,6.5094954,9.82201475,0.447388,6.487126,-3.579104,84.2, -10.2, -2.1,0,0,1333,1024,1332,978,47,0,47,-7,0,0,0,97,4.181,4.187,4.197,4.203,4.196,4.197,0,32,9867.782307895,45.93176,6,P-GPS,
15200,2023-10-11 00:24:42,38.4981828445573,-112.064418940913,46.587928,,,9868.438475895,22.637796,6.7331894,10.7509517876,15.249016236,16,5,25.161,9868.438475895,46.587928,6.7331894,10.7509517876,0.671082,6.71082,-3.579104,84.1, -10.1, -2.1,0,0,1332,1024,1331,978,47,0,47,-7,0,0,0,97,4.181,4.187,4.197,4.203,4.196,4.197,0,32,9868.438475895,46.587928,6,P-GPS,
15300,2023-10-11 00:24:42,38.4981830882582,-112.064415350237,46.916012,,,9868.766559895,22.637796,7.1805774,11.7786421092,16.2781501272,16,5,25.161,9868.766559895,46.916012,7.1805774,11.7786421092,0.671082,7.158208,-3.579104,84, -10.2, -2,0,0,1329,1024,1331,981,46,0,47,-7,0,0,0,97,4.181,4.187,4.197,4.203,4.196,4.197,0,32,9868.766559895,46.916012,6,P-GPS,
15400,2023-10-11 00:24:42,38.4981834181557,-112.064411616132,47.57218,,,9869.422727895,22.637796,7.4042714,12.8487208836,17.3511816576,16,5,25.161,9869.422727895,47.57218,7.4042714,12.8487208836,0.671082,7.381902,-3.579104,83.9, -10.4, -2,0,0,1327,1024,1331,995,46,0,47,-4,0,0,0,97,4.181,4.187,4.197,4.203,4.196,4.197,0,32,9869.422727895,47.57218,6,P-GPS,
15500,2023-10-11 00:24:42,38.4981837072813,-112.064407714927,48.228348,,,9870.078895895,22.637796,7.8516594,13.9662406044,18.4701121396,16,5,25.083,9870.078895895,48.228348,7.8516594,13.9662406044,0.671082,7.82929,-3.579104,83.8, -10.4, -1.9,0,0,1327,1024,1331,995,46,0,47,-4,0,0,0,97,4.166,4.172,4.185,4.187,4.185,4.188,0,32,9870.078895895,48.228348,6,P-GPS,
15600,2023-10-11 00:24:42,38.4981837979618,-112.064403598761,48.556432,,,9870.406979895,22.637796,8.0753534,15.1418640016,19.6458995788,16,5,25.083,9870.406979895,48.556432,8.0753534,15.1418640016,0.671082,8.052984,-3.579104,83.7, -10.3, -1.5,0,0,1322,1024,1331,996,45,0,47,-4,0,0,0,97,4.166,4.172,4.185,4.187,4.185,4.188,0,32,9870.406979895,48.556432,6,P-GPS,
15700,2023-10-11 00:24:42,38.4981840985417,-112.064399386934,49.2126,,,9871.063147895,22.637796,8.3214168,16.3483272948,20.8535439744,16,5,25.083,9871.063147895,49.2126,8.3214168,16.3483272948,0.894776,8.276678,-3.579104,83.8, -10, -1,0,0,1321,1024,1332,997,45,0,47,-4,0,0,0,97,4.166,4.172,4.185,4.187,4.185,4.188,0,32,9871.063147895,49.2126,6,P-GPS,
15800,2023-10-11 00:24:42,38.4981844172396,-112.064395022028,49.868768,,,9871.719315895,22.637796,8.5451108,17.598917886,22.105315668,16,5,25.083,9871.719315895,49.868768,8.5451108,17.598917886,0.894776,8.500372,-3.579104,83.7, -9.7, -0.7,0,0,1320,1024,1332,1002,45,0,47,-3,0,0,0,97,4.166,4.172,4.185,4.187,4.185,4.188,0,32,9871.719315895,49.868768,6,P-GPS,
15900,2023-10-11 00:24:42,38.4981847184632,-112.064390523385,50.196852,,,9872.047399895,22.637796,8.9924988,18.887467796,23.3945545544,16,5,25.083,9872.047399895,50.196852,8.9924988,18.887467796,0.894776,8.94776,-3.579104,83.7, -9.3, -0.8,0,0,1315,1024,1327,1019,44,0,46,-1,0,0,0,97,4.166,4.172,4.185,4.187,4.185,4.188,0,32,9872.047399895,50.196852,6,P-GPS,
16000,2023-10-11 00:24:42,38.4981848881527,-112.06438605378,50.85302,,,9872.703567895,22.637796,9.2161928,20.1652237424,24.6723105008,16,5,25.083,9872.703567895,50.85302,9.2161928,20.1652237424,0.894776,9.171454,-3.579104,83.8, -9, -1.2,0,0,1311,1024,1323,1024,43,0,45,0,0,0,0,97,4.166,4.172,4.185,4.187,4.185,4.188,0,32,9872.703567895,50.85302,6,P-GPS,
16100,2023-10-11 00:24:43,38.4981851767426,-112.064381315385,51.509188,,,9873.359735895,22.637796,9.4398868,21.5219495076,26.0294299668,16,5,25.083,9873.359735895,51.509188,9.4398868,21.5219495076,0.894776,9.395148,-3.579104,83.8, -8.6, -1.6,0,0,1309,1024,1317,1024,43,0,44,0,0,0,0,97,4.166,4.172,4.185,4.187,4.185,4.188,0,32,9873.359735895,51.509188,6,P-GPS,
16200,2023-10-11 00:24:43,38.4981855127097,-112.064376078481,51.837272,,,9873.687819895,22.637796,9.6635808,23.0217855136,27.5297909072,16,5,25.083,9873.687819895,51.837272,9.6635808,23.0217855136,0.894776,9.618842,-3.579104,83.8, -8.4, -2,0,0,1308,1024,1306,1024,43,0,43,0,0,0,0,97,4.166,4.172,4.185,4.187,4.185,4.188,0,32,9873.687819895,51.837272,6,P-GPS,
16300,2023-10-11 00:24:43,38.4981858279033,-112.064371092778,52.49344,,,9874.343987895,22.637796,9.8872748,24.4496726984,28.9580389844,16,5,25.083,9874.343987895,52.49344,9.8872748,24.4496726984,0.894776,9.842536,-3.579104,83.8, -8.1, -2,0,0,1309,1024,1305,1024,43,0,43,0,0,0,0,97,4.166,4.172,4.185,4.187,4.185,4.188,0,32,9874.343987895,52.49344,6,P-GPS,
16400,2023-10-11 00:24:43,38.4981860401078,-112.06436612043,53.149608,,,9875.000155895,22.637796,10.1109688,25.8715887544,30.3799878488,16,5,25.083,9875.000155895,53.149608,10.1109688,25.8715887544,0.894776,10.06623,-3.35541,83.8, -7.9, -1.9,0,0,1310,1024,1305,1024,43,0,43,0,0,0,0,97,4.166,4.172,4.185,4.187,4.185,4.188,0,32,9875.000155895,53.149608,6,P-GPS,
16500,2023-10-11 00:24:43,38.4981863831593,-112.064360959956,53.477692,,,9875.328239895,22.637796,10.1109688,27.34990245,31.8587936704,16,5,25.095,9875.328239895,53.477692,10.1109688,27.34990245,0.894776,10.06623,-3.35541,83.8, -7.9, -1.5,0,0,1310,1024,1298,1024,43,0,42,0,0,0,0,97,4.168,4.176,4.185,4.19,4.187,4.189,0,32,9875.328239895,53.477692,6,P-GPS,
16600,2023-10-11 00:24:43,38.4981866278283,-112.064355754174,54.13386,,,9875.984407895,22.637796,10.3570322,28.8390429176,33.34809818,16,5,25.095,9875.984407895,54.13386,10.3570322,28.8390429176,1.11847,10.289924,-3.35541,83.8, -7.9, -1.1,0,0,1308,1024,1295,1024,43,0,41,0,0,0,0,97,4.168,4.176,4.185,4.19,4.187,4.189,0,32,9875.984407895,54.13386,6,P-GPS,
16700,2023-10-11 00:24:43,38.4981869895989,-112.064350419514,54.461944,,,9876.312491895,22.637796,10.5807262,30.3674878484,34.87696962,16,5,25.095,9876.312491895,54.461944,10.5807262,30.3674878484,1.11847,10.513618,-3.131716,83.7, -8, -0.9,0,0,1303,1024,1277,1024,42,0,38,0,0,0,0,97,4.168,4.176,4.185,4.19,4.187,4.189,0,32,9876.312491895,54.461944,6,P-GPS,
16800,2023-10-11 00:24:43,38.4981874773137,-112.064345018736,55.118112,,,9876.968659895,22.637796,10.8044202,31.9177175568,36.429463108,16,5,25.095,9876.968659895,55.118112,10.8044202,31.9177175568,1.11847,10.737312,-3.131716,83.7, -8, -0.9,0,0,1298,1024,1233,1024,42,0,32,0,0,0,0,97,4.168,4.176,4.185,4.19,4.187,4.189,0,32,9876.968659895,55.118112,6,P-GPS,
16900,2023-10-11 00:24:43,38.4981878664552,-112.064339510601,55.446196,,,9877.296743895,22.637796,11.0281142,33.496392148,38.0085314,16,5,25.095,9877.296743895,55.446196,11.0281142,33.496392148,1.11847,10.961006,-2.908022,83.7, -7.8, -0.9,0,0,1296,1024,1207,1024,41,0,28,0,0,0,0,97,4.168,4.176,4.185,4.19,4.187,4.189,0,32,9877.296743895,55.446196,6,P-GPS,
17000,2023-10-11 00:24:43,38.4981880901044,-112.0643340411,56.102364,,,9877.952911895,22.637796,11.0281142,35.060040492,39.572507828,16,5,25.095,9877.952911895,56.102364,11.0281142,35.060040492,1.11847,10.961006,-2.684328,83.8, -7.8, -0.8,0,0,1295,1024,1203,1024,41,0,27,0,0,0,0,97,4.168,4.176,4.185,4.19,4.187,4.189,0,32,9877.952911895,56.102364,6,P-GPS,
17100,2023-10-11 00:24:44,38.4981884734857,-112.064328402369,56.430448,,,9878.280995895,22.637796,11.2294388,36.675854192,41.188649612,16,5,25.095,9878.280995895,56.430448,11.2294388,36.675854192,1.11847,11.1847,-2.460634,83.9, -7.9, -0.7,0,0,1294,1024,1199,1024,41,0,27,0,0,0,0,97,4.168,4.176,4.185,4.19,4.187,4.189,0,32,9878.280995895,56.430448,6,P-GPS,
17200,2023-10-11 00:24:44,38.4981888138264,-112.064322716853,56.758532,,,9878.609079895,22.637796,11.2294388,38.304135084,42.81660242,16,5,25.095,9878.609079895,56.758532,11.2294388,38.304135084,1.11847,11.1847,-2.23694,84, -7.7, -0.5,0,0,1289,1024,1194,1024,40,0,26,0,0,0,0,97,4.168,4.176,4.185,4.19,4.187,4.189,0,32,9878.609079895,56.758532,6,P-GPS,
17300,2023-10-11 00:24:44,38.4981891896498,-112.064316943576,57.086616,,,9878.937163895,22.637796,11.4531328,39.958006528,44.470801948,16,5,25.095,9878.937163895,57.086616,11.4531328,39.958006528,1.11847,11.408394,-2.013246,84, -7.2, -0.6,0,0,1289,1024,1191,1024,40,0,25,0,0,0,0,97,4.168,4.176,4.185,4.19,4.187,4.189,0,32,9878.937163895,57.086616,6,P-GPS,
17400,2023-10-11 00:24:44,38.4981894719493,-112.064311127847,57.4147,,,9879.265247895,22.637796,11.6768268,41.621720492,46.134843996,16,5,25.095,9879.265247895,57.4147,11.6768268,41.621720492,1.11847,11.632088,-1.789552,84, -6.6, -0.8,0,0,1289,1024,1183,1024,40,0,24,0,0,0,0,97,4.168,4.176,4.185,4.19,4.187,4.189,0,32,9879.265247895,57.4147,6,P-GPS,
17500,2023-10-11 00:24:44,38.4981898298245,-112.064305251416,57.742784,,,9879.593331895,22.637796,11.6768268,43.304791412,47.817914916,16,5,25.174,9879.593331895,57.742784,11.6768268,43.304791412,1.11847,11.632088,-1.565858,83.9, -6.1, -0.9,0,0,1289,1024,1178,1024,40,0,23,0,0,0,0,97,4.183,4.189,4.197,4.203,4.198,4.204,0,32,9879.593331895,57.742784,6,P-GPS,
17600,2023-10-11 00:24:44,38.4981902644114,-112.064299318746,57.742784,,,9879.593331895,22.637796,11.6768268,45.005578868,49.51935854,16,5,25.174,9879.593331895,57.742784,11.6768268,45.005578868,1.11847,11.632088,-1.342164,83.7, -5.9, -1.3,0,0,1289,1024,1170,1024,40,0,22,0,0,0,0,97,4.183,4.189,4.197,4.203,4.198,4.204,0,32,9879.593331895,57.742784,6,P-GPS,
17700,2023-10-11 00:24:44,38.4981906293672,-112.064293373034,58.070868,,,9879.921415895,22.637796,11.9005208,46.708334828,51.2221145,16,5,25.174,9879.921415895,58.070868,11.9005208,46.708334828,1.11847,11.855782,-1.342164,83.5, -5.9, -1.2,0,0,1287,1024,1145,1024,40,0,18,0,0,0,0,97,4.183,4.189,4.197,4.203,4.198,4.204,0,32,9879.921415895,58.070868,6,P-GPS,
17800,2023-10-11 00:24:44,38.4981909167323,-112.064287756722,58.398952,,,9880.249499895,22.637796,11.9005208,48.315618344,52.829398016,16,5,25.174,9880.249499895,58.398952,11.9005208,48.315618344,1.11847,11.855782,-1.11847,83.5, -6.1, -0.9,0,0,1288,1024,1114,1024,40,0,14,0,0,0,0,97,4.183,4.189,4.197,4.203,4.198,4.204,0,32,9880.249499895,58.398952,6,P-GPS,
17900,2023-10-11 00:24:44,38.4981912781464,-112.064281762321,58.398952,,,9880.249499895,22.637796,11.9005208,50.032153832,54.545933504,16,5,25.174,9880.249499895,58.398952,11.9005208,50.032153832,1.11847,11.855782,-1.11847,83.5, -6.2, -0.7,0,0,1286,1024,1080,1024,40,0,8,0,0,0,0,97,4.183,4.189,4.197,4.203,4.198,4.204,0,32,9880.249499895,58.398952,6,P-GPS,
18000,2023-10-11 00:24:45,38.4981914893611,-112.064275705565,58.727036,,,9880.577583895,22.637796,12.1242148,51.762796932,56.277232772,16,5,25.174,9880.577583895,58.727036,12.1242148,51.762796932,1.11847,12.079476,-0.894776,83.6, -6.1, -0.9,0,0,1283,1024,1066,1024,39,0,6,0,0,0,0,97,4.183,4.189,4.197,4.203,4.198,4.204,0,32,9880.577583895,58.727036,6,P-GPS,
18100,2023-10-11 00:24:45,38.4981918300511,-112.064269626631,58.727036,,,9880.577583895,22.637796,12.1242148,53.502954468,58.017390308,16,5,25.174,9880.577583895,58.727036,12.1242148,53.502954468,1.11847,12.079476,-0.671082,83.7, -6, -1.4,0,0,1286,1024,1059,1024,40,0,5,0,0,0,0,97,4.183,4.189,4.197,4.203,4.198,4.204,0,32,9880.577583895,58.727036,6,P-GPS,
18200,2023-10-11 00:24:45,38.4981921895087,-112.06426352774,58.727036,,,9880.577583895,22.637796,12.3479088,55.2493456,59.76378144,16,5,25.174,9880.577583895,58.727036,12.3479088,55.2493456,1.11847,12.30317,-0.447388,83.8, -5.6, -1.8,0,0,1285,1024,1057,1024,40,0,5,0,0,0,0,97,4.183,4.189,4.197,4.203,4.198,4.204,0,32,9880.577583895,58.727036,6,P-GPS,
18300,2023-10-11 00:24:45,38.4981925449571,-112.064257387742,59.05512,,,9880.905667895,22.637796,12.3479088,57.007547756,61.521983596,16,5,25.174,9880.905667895,59.05512,12.3479088,57.007547756,1.11847,12.30317,-0.223694,83.9, -4.9, -1.6,0,0,1284,1024,1056,1024,39,0,5,0,0,0,0,97,4.183,4.189,4.197,4.203,4.198,4.204,0,32,9880.905667895,59.05512,6,P-GPS,
18400,2023-10-11 00:24:45,38.4981930648332,-112.064251179449,59.05512,,,9880.905667895,22.637796,12.3479088,58.789043876,63.304792052,16,5,25.174,9880.905667895,59.05512,12.3479088,58.789043876,1.11847,12.30317,-0.223694,83.9, -4.4, -1.3,0,0,1284,1024,1052,1024,39,0,4,0,0,0,0,97,4.183,4.189,4.197,4.203,4.198,4.204,0,32,9880.905667895,59.05512,6,P-GPS,
18500,2023-10-11 00:24:45,38.4981934348166,-112.064245011244,59.05512,,,9880.905667895,22.637796,12.3479088,60.555448132,65.071196308,16,5,25.175,9880.905667895,59.05512,12.3479088,60.555448132,1.11847,12.30317,0,83.9, -4.3, -1.2,0,0,1282,1024,1050,1024,39,0,4,0,0,0,0,97,4.182,4.189,4.198,4.198,4.204,4.204,0,32,9880.905667895,59.05512,6,P-GPS,
18600,2023-10-11 00:24:45,38.4981937544801,-112.064238697717,59.05512,,,9880.905667895,22.637796,12.3479088,62.361878636,66.877626812,16,5,25.175,9880.905667895,59.05512,12.3479088,62.361878636,1.11847,12.30317,0,83.8, -4.4, -1.1,0,0,1278,1024,1049,1024,38,0,4,0,0,0,0,97,4.182,4.189,4.198,4.198,4.204,4.204,0,32,9880.905667895,59.05512,6,P-GPS,
18700,2023-10-11 00:24:45,38.4981941164156,-112.064232496908,59.05512,,,9880.905667895,22.637796,12.3479088,64.137469244,68.65321742,16,5,25.175,9880.905667895,59.05512,12.3479088,64.137469244,1.11847,12.30317,0,83.7, -4.6, -1.1,0,0,1277,1024,1045,1024,38,0,3,0,0,0,0,97,4.182,4.189,4.198,4.198,4.204,4.204,0,32,9880.905667895,59.05512,6,P-GPS,
18800,2023-10-11 00:24:45,38.4981944262798,-112.064226184474,59.05512,,,9880.905667895,22.637796,12.3479088,65.94324358,70.45931984,16,5,25.175,9880.905667895,59.05512,12.3479088,65.94324358,1.11847,12.30317,0,83.6, -4.7, -1.2,0,0,1278,1024,1045,1024,38,0,3,0,0,0,0,97,4.182,4.189,4.198,4.198,4.204,4.204,0,32,9880.905667895,59.05512,6,P-GPS,
18900,2023-10-11 00:24:45,38.4981947851564,-112.064219949462,59.05512,,,9880.905667895,22.637796,12.3479088,67.728348624,72.244424884,16,5,25.175,9880.905667895,59.05512,12.3479088,67.728348624,1.11847,12.30317,0,83.4, -4.9, -1.3,0,0,1279,1024,1044,1024,39,0,3,0,0,0,0,97,4.182,4.189,4.198,4.198,4.204,4.204,0,32,9880.905667895,59.05512,6,P-GPS,
19000,2023-10-11 00:24:45,38.4981951299713,-112.064213854762,59.05512,,,9880.905667895,22.637796,12.5716028,69.47342742,73.989175596,16,5,25.175,9880.905667895,59.05512,12.5716028,69.47342742,1.11847,12.526864,0,83.3, -4.8, -1.3,0,0,1284,1024,1042,1024,39,0,3,0,0,0,0,97,4.182,4.189,4.198,4.198,4.204,4.204,0,32,9880.905667895,59.05512,6,P-GPS,
19100,2023-10-11 00:24:46,38.4981955060259,-112.064207605219,58.727036,,,9880.577583895,22.637796,12.5716028,71.26312564,75.778873816,16,5,25.175,9880.905667895,59.05512,12.5716028,71.26312564,1.11847,12.526864,0,83.2, -4.7, -1.3,0,0,1285,1024,1030,1024,40,0,1,0,0,0,0,97,4.182,4.189,4.198,4.198,4.204,4.204,0,32,9880.577583895,58.727036,6,P-GPS,
19200,2023-10-11 00:24:46,38.4981960378275,-112.064201249502,58.727036,,,9880.577583895,22.637796,12.5716028,73.086944596,77.604005108,16,5,25.175,9880.905667895,59.05512,12.5716028,73.086944596,1.11847,12.526864,0,83.1, -4.8, -1.3,0,0,1290,1024,1025,1024,40,0,0,0,0,0,0,97,4.182,4.189,4.198,4.198,4.204,4.204,0,32,9880.577583895,58.727036,6,P-GPS,
19300,2023-10-11 00:24:46,38.4981964383281,-112.064194970987,58.727036,,,9880.577583895,22.637796,12.5939722,74.885501084,79.40288968,16,5,25.175,9880.905667895,59.05512,12.5939722,74.885501084,1.342164,12.526864,0,83.1, -5, -1.2,0,0,1305,1024,1024,1069,43,0,0,7,0,0,0,97,4.182,4.189,4.198,4.198,4.204,4.204,0,32,9880.577583895,58.727036,6,P-GPS,
19400,2023-10-11 00:24:46,38.498196785371,-112.064188686542,58.727036,,,9880.577583895,22.637796,12.5939722,76.684385656,81.201774252,16,5,25.175,9880.905667895,59.05512,12.5939722,76.684385656,1.342164,12.526864,0,83.2, -5.1, -0.8,0,0,1326,1024,1024,1110,46,0,0,13,0,0,0,97,4.182,4.189,4.198,4.198,4.204,4.204,0,32,9880.577583895,58.727036,6,P-GPS,
19500,2023-10-11 00:24:46,38.4981971867097,-112.064182372949,58.727036,,,9880.577583895,22.637796,12.5939722,78.493112748,83.010501344,16,5,25.175,9880.905667895,59.05512,12.5939722,78.493112748,1.342164,12.526864,0,83.1, -5.4, -0.3,0,0,1332,1024,1024,1124,47,0,0,15,0,0,0,97,4.182,4.189,4.198,4.198,4.204,4.204,0,32,9880.577583895,58.727036,6,P-GPS,
19600,2023-10-11 00:24:46,38.4981976166825,-112.064176244243,58.727036,,,9880.577583895,22.637796,12.5716028,80.250002568,84.767391164,16,5,25.175,9880.905667895,59.05512,12.5939722,80.250002568,1.11847,12.526864,0,83.2, -6, 0.6,0,0,1335,1024,1024,1142,47,0,0,18,0,0,0,97,4.182,4.189,4.198,4.198,4.204,4.204,0,32,9880.577583895,58.727036,6,P-GPS,
19700,2023-10-11 00:24:46,38.4981979893202,-112.064169879313,58.727036,,,9880.577583895,22.637796,12.7952968,82.072509188,86.589897784,16,5,25.175,9880.905667895,59.05512,12.7952968,82.072509188,1.11847,12.750558,0,83.3, -6.5, 1.6,0,0,1348,1024,1024,1165,49,0,0,21,0,0,0,97,4.182,4.189,4.198,4.198,4.204,4.204,0,32,9880.577583895,58.727036,6,P-GPS,
19800,2023-10-11 00:24:46,38.498198309137,-112.064163226845,58.727036,,,9880.577583895,22.637796,12.7952968,83.975396388,88.493113068,16,5,25.175,9880.905667895,59.05512,12.7952968,83.975396388,1.11847,12.750558,0,83.6, -6.8, 2.4,0,0,1356,1024,1024,1165,50,0,0,21,0,0,0,97,4.182,4.189,4.198,4.198,4.204,4.204,0,32,9880.577583895,58.727036,6,P-GPS,
19900,2023-10-11 00:24:46,38.4981985990951,-112.064156721253,58.727036,,,9880.577583895,22.637796,12.9966214,85.835960752,90.353677432,16,5,25.175,9880.905667895,59.05512,12.9966214,85.835960752,0.894776,12.974252,0,83.9, -7.2, 3,0,0,1358,1024,1024,1148,51,0,0,19,0,0,0,97,4.182,4.189,4.198,4.198,4.204,4.204,0,32,9880.577583895,58.727036,6,P-GPS,
20000,2023-10-11 00:24:46,38.4981988544342,-112.064150408776,58.727036,,,9880.577583895,22.637796,12.9966214,87.640422752,92.1587956,16,5,25.175,9880.905667895,59.05512,12.9966214,87.640422752,0.894776,12.974252,0,84.4, -7.5, 3.4,0,0,1363,1024,1024,1122,51,0,0,15,0,0,0,97,4.182,4.189,4.198,4.198,4.204,4.204,0,32,9880.577583895,58.727036,6,P-GPS,
20100,2023-10-11 00:24:47,38.4981990397364,-112.064143777053,58.727036,,,9880.577583895,22.637796,13.2203154,89.5341236,94.0534807,16,5,25.175,9880.905667895,59.05512,13.2203154,89.5341236,0.671082,13.197946,0,84.9, -7.8, 3.1,0,0,1374,1024,1026,1113,53,0,0,13,0,0,0,97,4.182,4.189,4.198,4.198,4.204,4.204,0,32,9880.577583895,58.727036,6,P-GPS,
20200,2023-10-11 00:24:47,38.4981991938126,-112.064136405104,58.727036,,,9880.577583895,22.637796,13.197946,91.638126292,96.159123812,16,5,25.175,9880.905667895,59.05512,13.2203154,91.638126292,0.447388,13.197946,0,85.4, -8.2, 1.7,0,0,1386,1024,1027,1129,55,0,0,16,0,0,0,97,4.182,4.189,4.198,4.198,4.204,4.204,0,32,9880.577583895,58.727036,6,P-GPS,
20300,2023-10-11 00:24:47,38.498199295845,-112.064129539936,58.727036,,,9880.577583895,22.637796,13.42164,93.596131604,98.119753796,16,5,25.175,9880.905667895,59.05512,13.42164,93.596131604,0.447388,13.42164,0,85.8, -8.9, 0.5,0,0,1401,1024,1037,1116,57,0,2,14,0,0,0,97,4.182,4.189,4.198,4.198,4.204,4.204,0,32,9880.577583895,58.727036,6,P-GPS,
20400,2023-10-11 00:24:47,38.4981993365273,-112.064122932196,58.727036,,,9880.577583895,22.637796,13.645334,95.479661848,100.006892964,16,5,25.175,9880.905667895,59.05512,13.645334,95.479661848,0.447388,13.645334,0,86.3, -9.6, 0.5,0,0,1402,1024,1037,1113,57,0,2,13,0,0,0,97,4.182,4.189,4.198,4.198,4.204,4.204,0,32,9880.577583895,58.727036,6,P-GPS,
20500,2023-10-11 00:24:47,38.4981994173636,-112.064115901485,58.727036,,,9880.577583895,22.637796,13.645334,97.484911256,102.01443896,16,5,25.175,9880.905667895,59.05512,13.645334,97.484911256,0.447388,13.869028,0,86.7, -10, 1.2,0,0,1415,1024,1037,1117,59,0,2,14,0,0,0,97,4.182,4.189,4.198,4.198,4.204,4.204,0,32,9880.577583895,58.727036,6,P-GPS,
20600,2023-10-11 00:24:47,38.4981994656028,-112.06410933029,58.727036,,,9880.577583895,22.637796,14.092722,99.35859898,103.89107944,16,5,25.087,9880.905667895,59.05512,14.092722,99.35859898,0.447388,14.092722,0,87, -10, 1.6,0,0,1428,1024,1035,1111,61,0,2,13,0,0,0,97,4.166,4.173,4.187,4.188,4.185,4.188,0,32,9880.577583895,58.727036,6,P-GPS,
20700,2023-10-11 00:24:47,38.4981994923889,-112.064102125108,58.727036,,,9880.577583895,22.637796,14.316416,101.41240482,105.948494204,16,5,25.087,9880.905667895,59.05512,14.316416,101.41240482,0.223694,14.316416,0,87.4, -9.9, 1.9,0,0,1451,1024,1038,1115,65,0,2,14,0,0,0,97,4.166,4.173,4.187,4.188,4.185,4.188,0,32,9880.577583895,58.727036,6,P-GPS,
20800,2023-10-11 00:24:47,38.4981994748743,-112.064094667182,58.727036,,,9880.577583895,22.637796,14.316416,103.537404888,108.077759364,16,5,25.087,9880.905667895,59.05512,14.316416,103.537404888,0.223694,14.316416,0,87.9, -10.1, 2.1,0,0,1476,1024,1036,1091,68,0,2,10,0,0,0,97,4.166,4.173,4.187,4.188,4.185,4.188,0,32,9880.577583895,58.727036,6,P-GPS,
