time(millisecond),datetime(utc),latitude,longitude,height_above_takeoff(feet),height_above_ground_at_drone_location(feet),ground_elevation_at_drone_location(feet),altitude_above_seaLevel(feet),height_sonar(feet),speed(mph),distance(feet),mileage(feet),satellites,gpslevel,voltage(v),max_altitude(feet),max_ascent(feet),max_speed(mph),max_distance(feet), xSpeed(mph), ySpeed(mph), zSpeed(mph), compass_heading(degrees), pitch(degrees), roll(degrees),isPhoto,isVideo,rc_elevator,rc_aileron,rc_throttle,rc_rudder,rc_elevator(percent),rc_aileron(percent),rc_throttle(percent),rc_rudder(percent),gimbal_heading(degrees),gimbal_pitch(degrees),gimbal_roll(degrees),battery_percent,voltageCell1,voltageCell2,voltageCell3,voltageCell4,voltageCell5,voltageCell6,current(A),battery_temperature(f),altitude(feet),ascent(feet),flycStateRaw,flycState,message
0,2023-10-10 00:43:08,38.4981507362985,-112.064391957574,0,Available with any HD 360 subscription,Available with any HD 360 subscription,9819.6854818808,0.656168,0,0,0,17,5,0,9819.6854818808,0,0,0,0,0,0,143.5, -9.5, 0,0,0,1024,1024,1024,1024,0,0,0,0,0,0,0,99,4.316,4.307,4.314,4.318,4.301,4.314,0,32,9819.6854818808,0,6,P-GPS,
100,2023-10-10 00:43:08,38.4981507349515,-112.064391931555,0,,,9819.6854818808,0.656168,0,0.0074458007632,0.0074458007632,17,5,0,9819.6854818808,0,0,0.0074458007632,0,0,0,143.5, -9.5, 0,0,0,1024,1024,1024,1024,0,0,0,0,0,0,0,99,4.316,4.307,4.314,4.318,4.301,4.314,0,32,9819.6854818808,0,41,Motors_Started,
200,2023-10-10 00:43:08,38.4981507382844,-112.064391941792,0,,,9819.6854818808,0.656168,0,0.0045642717996,0.0106117785548,17,5,0,9819.6854818808,0,0,0.0074458007632,0,0,0,143.5, -9.5, 0,0,0,1024,1024,1024,1024,0,0,0,0,0,0,0,99,4.316,4.307,4.314,4.318,4.301,4.314,0,32,9819.6854818808,0,41,Motors_Started,
300,2023-10-10 00:43:08,38.4981507339094,-112.064391920057,0,,,9819.6854818808,0.656168,0,0.0107481630736,0.0170201120932,17,5,0,9819.6854818808,0,0,0.0107481630736,0,0,0,143.5, -9.5, 0,0,0,1024,1024,1024,1024,0,0,0,0,0,0,0,99,4.316,4.307,4.314,4.318,4.301,4.314,0,32,9819.6854818808,0,41,Motors_Started,
400,2023-10-10 00:43:08,38.4981507372592,-112.064391926995,0,,,9819.6854818808,0.656168,0,0.0087385501484,0.0193479993068,17,5,0,9819.6854818808,0,0,0.0107481630736,0,0,0,143.5, -9.5, 0,0,0,1024,1024,1024,1024,0,0,0,0,0,0,0,99,4.316,4.307,4.314,4.318,4.301,4.314,0,32,9819.6854818808,0,41,Motors_Started,
500,2023-10-10 00:43:08,38.4981507340674,-112.064392066244,0,,,9819.6854818808,0.656168,0,0.0310402897072,0.059126314228,17,5,0,9819.6854818808,0,0,0.0310402897072,0,0,0,143.5, -9.5, 0,0,0,523,373,664,1319,-76,-99,-55,45,0,0,0,99,4.316,4.307,4.314,4.318,4.301,4.314,0,32,9819.6854818808,0,41,Motors_Started,
600,2023-10-10 00:43:08,38.4981507362321,-112.064392085583,0,,,9819.6854818808,0.656168,0,0.03655183844,0.064704398396,17,5,0,9819.6854818808,0,0,0.03655183844,0,0,0,143.5, -9.5, 0,0,0,951,974,1024,1024,-11,-8,0,0,0,0,0,99,4.316,4.307,4.314,4.318,4.301,4.314,0,32,9819.6854818808,0,41,Motors_Started,
700,2023-10-10 00:43:08,38.4981507338776,-112.064392050498,0,,,9819.6854818808,0.656168,0,0.0265483604296,0.074759516828,17,5,0,9819.6854818808,0,0,0.03655183844,0,0,0,143.5, -9.5, 0,0,0,1024,1024,1024,1024,0,0,0,0,0,0,0,99,4.316,4.307,4.314,4.318,4.301,4.314,0,32,9819.6854818808,0,41,Motors_Started,
800,2023-10-10 00:43:08,38.4981507364109,-112.06439206537,0,,,9819.6854818808,0.656168,0,0.0307800862868,0.079105317492,17,5,0,9819.6854818808,0,0,0.03655183844,0,0,0,143.6, -9.5, 0,0,0,1024,1024,1024,1024,0,0,0,0,0,0,0,99,4.316,4.307,4.314,4.318,4.301,4.314,0,32,9819.6854818808,0,41,Motors_Started,"Setting new Return-To-Home altitude to 61m (200 ft). Data Recorder File Index is 43. Setting new Maximum Flight Altitude to 500m (1640 ft)"
900,2023-10-10 00:43:08,38.4981507299694,-112.064392040125,0,,,9819.6854818808,0.656168,0,0.0236844495768,0.086687010648,17,5,0,9819.6854818808,0,0,0.03655183844,0,0,0,143.9, -9.4, -0.1,0,0,1024,1024,1024,1024,0,0,0,0,0,0,0,99,4.316,4.307,4.314,4.318,4.301,4.314,0,32,9819.6854818808,0,41,Motors_Started,
1000,2023-10-10 00:43:09,38.4981507295195,-112.064392054842,0,,,9819.6854818808,0.656168,0,0.02788385916,0.090892719444,17,5,0,9819.6854818808,0,0,0.03655183844,0,0,0,143.7, -9.5, 0,0,0,1024,1024,1024,1024,0,0,0,0,0,0,0,99,4.316,4.307,4.314,4.318,4.301,4.314,0,32,9819.6854818808,0,41,Motors_Started,
1100,2023-10-10 00:43:09,38.49815088279,-112.064392033602,0,,,9819.6854818808,0.656168,0,0.057687993972,0.147141080824,17,5,0,9819.6854818808,0,0,0.057687993972,0,0,0,143.4, -9.5, 0,0,0,1024,1024,1024,1024,0,0,0,0,0,0,0,99,4.316,4.307,4.314,4.318,4.301,4.314,0,32,9819.6854818808,0,41,Motors_Started,
1200,2023-10-10 00:43:09,38.4981508981141,-112.064392041204,0,,,9819.6854818808,0.656168,0,0.063685041408,0.153138784428,17,5,0,9819.6854818808,0,0,0.063685041408,0,0,0,143.5, -9.5, 0,0,0,1024,1024,1024,1024,0,0,0,0,0,0,0,99,4.316,4.307,4.314,4.318,4.301,4.314,0,32,9819.6854818808,0,41,Motors_Started,
1300,2023-10-10 00:43:09,38.4981508273336,-112.064392182392,0,,,9819.6854818808,0.656168,0,0.072278217536,0.20101542638,17,5,0,9819.6854818808,0,0,0.072278217536,0,0,0,143.6, -9.5, -0.1,0,0,1024,1024,1024,1024,0,0,0,0,0,0,0,99,4.316,4.307,4.314,4.318,4.301,4.314,0,32,9819.6854818808,0,41,Motors_Started,
1400,2023-10-10 00:43:09,38.4981508343653,-112.064392202749,0,,,9819.6854818808,0.656168,0,0.078620737424,0.207369429208,17,5,25.87,9819.6854818808,0,0,0.078620737424,0,0,0,143.5, -9.5, 0,0,0,1024,1024,1024,1024,0,0,0,0,0,0,0,99,4.316,4.307,4.314,4.318,4.301,4.314,0,32,9819.6854818808,0,41,Motors_Started,
1500,2023-10-10 00:43:09,38.4981508580526,-112.064392146679,0,,,9819.6854818808,0.656168,0,0.06992126208,0.225563327428,17,5,25.87,9819.6854818808,0,0,0.078620737424,0,0,0,143.5, -9.6, 0,0,0,1024,1024,1024,1024,0,0,0,0,0,0,0,99,4.316,4.307,4.314,4.318,4.301,4.314,0,32,9819.6854818808,0,41,Motors_Started,
1600,2023-10-10 00:43:09,38.4981508670096,-112.064392162619,0,,,9819.6854818808,0.656168,0,0.07551345386,0.231166674064,17,5,25.87,9819.6854818808,0,0,0.078620737424,0,0,0,143.5, -9.6, 0,0,0,1024,1024,1024,1024,0,0,0,0,0,0,0,99,4.316,4.307,4.314,4.318,4.301,4.314,0,32,9819.6854818808,0,41,Motors_Started,
1700,2023-10-10 00:43:09,38.498150848243,-112.064392137211,0,,,9819.6854818808,0.656168,0,0.065568243568,0.241142396168,17,5,25.87,9819.6854818808,0,0,0.078620737424,0,0,0,143.5, -9.6, 0,0,0,1024,1024,1024,1024,0,0,0,0,0,0,0,99,4.316,4.307,4.314,4.318,4.301,4.314,0,32,9819.6854818808,0,41,Motors_Started,
1800,2023-10-10 00:43:09,38.498150856467,-112.064392148027,0,,,9819.6854818808,0.656168,0,0.069854661028,0.245448498668,17,5,25.87,9819.6854818808,0,0,0.078620737424,0,0,0,143.5, -9.5, -0.1,0,0,1024,1024,1024,1024,0,0,0,0,0,0,0,99,4.316,4.307,4.314,4.318,4.301,4.314,0,32,9819.6854818808,0,41,Motors_Started,
1900,2023-10-10 00:43:09,38.4981508473399,-112.064392122353,0,,,9819.6854818808,0.656168,0,0.062089897,0.253500336196,17,5,25.87,9819.6854818808,0,0,0.078620737424,0,0,0,143.5, -9.6, -0.1,0,0,1024,1024,1024,1024,0,0,0,0,0,0,0,99,4.316,4.307,4.314,4.318,4.301,4.314,0,32,9819.6854818808,0,41,Motors_Started,
2000,2023-10-10 00:43:10,38.4981508543084,-112.064392128542,0,,,9819.6854818808,0.656168,0,0.065092521768,0.256596464904,17,5,25.87,9819.6854818808,0,0,0.078620737424,0,0,0,143.5, -9.6, -0.1,0,0,1024,1024,1024,1024,0,0,0,0,0,0,0,99,4.316,4.307,4.314,4.318,4.301,4.314,0,32,9819.6854818808,0,41,Motors_Started,
2100,2023-10-10 00:43:10,38.4981509975716,-112.064392262187,0,,,9819.6854818808,0.656168,0,0.129043967384,0.321314314744,17,5,25.87,9819.6854818808,0,0,0.129043967384,0,0,0,143.5, -9.5, -0.1,0,0,1024,1024,1024,1024,0,0,0,0,0,0,0,99,4.316,4.307,4.314,4.318,4.301,4.314,0,32,9819.6854818808,0,10,Assisted_Takeoff,
2200,2023-10-10 00:43:10,38.4981510175479,-112.064392279986,0,,,9819.6854818808,0.656168,0,0.137858600212,0.3302001418,17,5,25.87,9819.6854818808,0,0,0.137858600212,0,0,0,143.5, -9.5, -0.1,0,0,1024,1024,1024,1024,0,0,0,0,0,0,0,99,4.316,4.307,4.314,4.318,4.301,4.314,0,32,9819.6854818808,0,10,Assisted_Takeoff,
2300,2023-10-10 00:43:10,38.4981509845902,-112.064392246366,0,,,9819.6854818808,0.656168,0,0.122500332004,0.3455872814,17,5,25.87,9819.6854818808,0,0,0.137858600212,0,0,0,143.5, -9.5, -0.1,0,0,1024,1024,1024,1024,0,0,0,0,0,0,0,99,4.316,4.307,4.314,4.318,4.301,4.314,0,32,9819.6854818808,0,10,Assisted_Takeoff,
2400,2023-10-10 00:43:10,38.498150999967,-112.064392258025,0,,,9819.6854818808,0.656168,0,0.128896985752,0.35210959132,17,5,26.006,9819.6854818808,0,0,0.137858600212,0,0,0,143.5, -9.5, -0.1,0,0,1024,1024,1024,1024,0,0,0,0,0,0,0,99,4.344,4.343,4.332,4.346,4.304,4.337,0,32,9819.6854818808,0,10,Assisted_Takeoff,
2500,2023-10-10 00:43:10,38.4981509707458,-112.064392224646,0,,,9819.6854818808,0.656168,0,0.11459646036,0.36641077288,17,5,26.006,9819.6854818808,0,0,0.137858600212,0,0,0,143.5, -9.5, -0.1,0,0,1024,1024,1024,1024,0,0,0,0,0,0,0,99,4.344,4.343,4.332,4.346,4.304,4.337,0,32,9819.6854818808,0,10,Assisted_Takeoff,
2600,2023-10-10 00:43:10,38.498150983375,-112.064392231758,0,,,9819.6854818808,0.656168,0,0.119397313532,0.37144686228,17,5,26.006,9819.6854818808,0,0,0.137858600212,0,0,0,143.5, -9.5, -0.1,0,0,1024,1024,1024,1024,0,0,0,0,0,0,0,99,4.344,4.343,4.332,4.346,4.304,4.337,0,32,9819.6854818808,0,10,Assisted_Takeoff,
2700,2023-10-10 00:43:10,38.4981509580403,-112.064392364487,0,,,9819.6854818808,0.656168,0,0.141581697444,0.41045604988,17,5,26.006,9819.6854818808,0,0,0.141581697444,0,0,0,143.5, -9.5, -0.1,0,0,1024,1024,1029,1024,0,0,1,0,0,0,0,99,4.344,4.343,4.332,4.346,4.304,4.337,0,32,9819.6854818808,0,10,Assisted_Takeoff,
2800,2023-10-10 00:43:10,38.4981509678053,-112.064392380934,0,,,9819.6854818808,0.656168,0,0.147471789496,0.41635171936,17,5,26.006,9819.6854818808,0,0,0.147471789496,0,0,0,143.6, -9.6, -0.1,0,0,1024,1024,1045,1024,0,0,3,0,0,0,0,99,4.344,4.343,4.332,4.346,4.304,4.337,0,32,9819.6854818808,0,10,Assisted_Takeoff,
2900,2023-10-10 00:43:10,38.4981511055325,-112.064392342481,0,,,9819.6854818808,0.656168,0,0.173860897952,0.46778544804,17,5,26.006,9819.6854818808,0,0,0.173860897952,0,0,0,143.5, -9.6, -0.1,0,0,1024,1024,1072,1024,0,0,7,0,0,0,0,99,4.344,4.343,4.332,4.346,4.304,4.337,0,32,9819.6854818808,0,10,Assisted_Takeoff,
3000,2023-10-10 00:43:11,38.4981511283923,-112.064392352381,0,,,9819.6854818808,0.656168,0,0.182136488768,0.4765912226,17,5,26.006,9819.6854818808,0,0,0.182136488768,0,0,0,143.5, -9.6, -0.1,0,0,1024,1024,1096,1024,0,0,11,0,0,0,0,99,4.344,4.343,4.332,4.346,4.304,4.337,0,32,9819.6854818808,0,10,Assisted_Takeoff,
3100,2023-10-10 00:43:11,38.4981510904968,-112.064392321881,0,,,9819.6854818808,0.656168,0,0.165895346516,0.49293308664,17,5,26.006,9819.6854818808,0,0,0.182136488768,0,0,0,143.5, -9.5, -0.1,0,0,1024,1024,1148,1024,0,0,19,0,0,0,0,99,4.344,4.343,4.332,4.346,4.304,4.337,0,32,9819.6854818808,0,10,Assisted_Takeoff,
3200,2023-10-10 00:43:11,38.4981511110838,-112.06439232787,0,,,9819.6854818808,0.656168,0,0.172851711568,0.50063649896,17,5,26.006,9819.6854818808,0,0,0.182136488768,0,0,0,143.5, -9.5, -0.1,0,0,1024,1024,1170,1024,0,0,22,0,0,0,0,99,4.344,4.343,4.332,4.346,4.304,4.337,0,32,9819.6854818808,0,10,Assisted_Takeoff,
3300,2023-10-10 00:43:11,38.4981510821103,-112.064392306503,0,,,9819.6854818808,0.656168,0,0.160765425092,0.51284122376,17,5,26.006,9819.6854818808,0,0,0.182136488768,0,0,0,143.5, -9.4, -0.1,0,0,1024,1024,1209,1024,0,0,28,0,0,0,0,99,4.344,4.343,4.332,4.346,4.304,4.337,0,32,9819.6854818808,0,10,Assisted_Takeoff,
3400,2023-10-10 00:43:11,38.4981511006699,-112.064392307437,0,,,9819.6854818808,0.656168,0,0.166292984324,0.5196194392,17,5,26.006,9819.6854818808,0,0,0.182136488768,0,0,0,143.5, -9.3, -0.1,0,0,1024,1024,1228,1024,0,0,31,0,0,0,0,99,4.344,4.343,4.332,4.346,4.304,4.337,0,32,9819.6854818808,0,10,Assisted_Takeoff,
3500,2023-10-10 00:43:11,38.498151070492,-112.064392290714,0,,,9819.6854818808,0.656168,0,0.15464731466,0.53162075192,17,5,26.035,9819.6854818808,0,0,0.182136488768,0,0,0,143.5, -9.3, -0.1,0,0,1024,1024,1251,1024,0,0,34,0,0,0,0,99,4.34,4.339,4.342,4.343,4.33,4.341,0,32,9819.6854818808,0,10,Assisted_Takeoff,
3600,2023-10-10 00:43:11,38.4981510847909,-112.064392287247,0,,,9819.6854818808,0.656168,0,0.158201776716,0.53692915104,17,5,26.035,9819.6854818808,0,0,0.182136488768,0,0,0,143.5, -9.3, 0,0,0,1024,1024,1304,1024,0,0,42,0,0,0,0,99,4.34,4.339,4.342,4.343,4.33,4.341,0,32,9819.6854818808,0,10,Assisted_Takeoff,
3700,2023-10-10 00:43:11,38.4981510611841,-112.06439243258,0,,,9819.6854818808,0.656168,0,0.180130255108,0.579314323,17,5,26.035,9819.6854818808,0,0,0.182136488768,0,0,0,143.4, -9.2, 0,0,0,1024,1024,1338,1024,0,0,48,0,0,0,0,99,4.34,4.339,4.342,4.343,4.33,4.341,0,32,9819.6854818808,0,10,Assisted_Takeoff,
3800,2023-10-10 00:43:11,38.4981510720084,-112.064392443191,0,,,9819.6854818808,0.656168,0,0.18501312928,0.58429135728,17,5,26.035,9819.6854818808,0,0,0.18501312928,0,0,0,143.5, -9.1, 0,0,0,1024,1024,1379,1024,0,0,54,0,0,0,0,99,4.34,4.339,4.342,4.343,4.33,4.341,0,32,9819.6854818808,0,10,Assisted_Takeoff,
3900,2023-10-10 00:43:11,38.498151048881,-112.064392423796,0,,,9819.6854818808,0.656168,0,0.175296265452,0.59438322112,17,5,26.035,9819.6854818808,0,0,0.18501312928,0,0,0,143.5, -9, 0.1,0,0,1024,1024,1403,1024,0,0,57,0,0,0,0,99,4.34,4.339,4.342,4.343,4.33,4.341,0,32,9819.6854818808,0,10,Assisted_Takeoff,
4000,2023-10-10 00:43:12,38.4981510469017,-112.064392436193,0,,,9819.6854818808,0.656168,0,0.17753773534,0.59799542596,17,5,26.035,9819.6854818808,0,0,0.18501312928,0,0,0,143.6, -8.5, 0.1,0,0,1024,1024,1427,1024,0,0,61,0,0,0,0,99,4.34,4.339,4.342,4.343,4.33,4.341,0,32,9819.6854818808,0,10,Assisted_Takeoff,
4100,2023-10-10 00:43:12,38.4981511583696,-112.064392409778,0,,,9819.6854818808,0.656168,0,0.200963589108,0.63936025668,17,5,26.035,9819.6854818808,0,0,0.200963589108,0,0,0,143.7, -6.8, 0.2,0,0,1024,1024,1441,1024,0,0,63,0,0,0,0,99,4.34,4.339,4.342,4.343,4.33,4.341,0,32,9819.6854818808,0,10,Assisted_Takeoff,
4200,2023-10-10 00:43:12,38.4981511059691,-112.064392373825,0,,,9819.6854818808,0.656168,0,0.17977198738,0.66105973244,17,5,26.035,9819.6854818808,0,0,0.200963589108,0,0,-0.223694,143.6, -3, 0.3,0,0,1024,1024,1446,1024,0,0,64,0,0,0,0,99,4.34,4.339,4.342,4.343,4.33,4.341,0,32,9819.6854818808,0,10,Assisted_Takeoff,
4300,2023-10-10 00:43:12,38.4981509515541,-112.064392438734,0,,,9819.6854818808,0.656168,0.223694,0.158253613988,0.72036747712,17,5,26.035,9819.6854818808,0,0.223694,0.200963589108,-0.223694,0,-0.447388,143.1, 2.2, 0.7,0,0,1024,1024,1446,1024,0,0,64,0,0,0,0,99,4.34,4.339,4.342,4.343,4.33,4.341,0,32,9819.6854818808,0,6,P-GPS,
4400,2023-10-10 00:43:12,38.4981508605586,-112.064392410331,0,,,9819.6854818808,0.984252,0.223694,0.1369996763,0.7545439874,17,5,26.035,9819.6854818808,0,0.223694,0.200963589108,-0.223694,0,-0.894776,142.4, 6.2, 0.6,0,0,1024,1024,1446,1024,0,0,64,0,0,0,0,99,4.34,4.339,4.342,4.343,4.33,4.341,0,32,9819.6854818808,0,6,P-GPS,
4500,2023-10-10 00:43:12,38.4981508175868,-112.064392426252,0.328084,,,9820.0135658808,0.984252,0,0.137073823284,0.7708661664,17,5,26.035,9820.0135658808,0.328084,0.223694,0.200963589108,0,0,-1.11847,141.8, 7.1, 0.1,0,0,1038,1024,1450,1024,2,0,65,0,0,0,0,99,4.34,4.339,4.342,4.343,4.33,4.341,0,32,9820.0135658808,0.328084,6,P-GPS,
4600,2023-10-10 00:43:12,38.4981508504903,-112.064392565047,0.328084,,,9820.0135658808,1.312336,0.223694,0.178391737992,0.81227692888,17,5,26.035,9820.0135658808,0.328084,0.223694,0.200963589108,0,-0.223694,-1.565858,141.5, 5.7, -0.4,0,0,1057,1024,1450,1024,5,0,65,0,0,0,0,99,4.34,4.339,4.342,4.343,4.33,4.341,0,32,9820.0135658808,0.328084,6,P-GPS,
4700,2023-10-10 00:43:12,38.4981508393155,-112.064392766957,0.656168,,,9820.3416498808,1.64042,0.3131716,0.23414862954,0.87007548716,17,5,26.035,9820.3416498808,0.656168,0.3131716,0.23414862954,0.223694,-0.223694,-2.013246,141.3, 3.1, -0.8,0,0,1071,1024,1453,1024,7,0,65,0,0,0,0,99,4.34,4.339,4.342,4.343,4.33,4.341,0,32,9820.3416498808,0.656168,6,P-GPS,
4800,2023-10-10 00:43:12,38.4981509824382,-112.064393016501,0.984252,,,9820.6697338808,1.968504,0.4921268,0.31542159802,0.958415385,17,5,26.035,9820.6697338808,0.984252,0.4921268,0.31542159802,0.223694,-0.447388,-2.460634,141.2, 0.5, -0.8,0,0,1075,1024,1454,1024,8,0,65,0,0,0,0,99,4.34,4.339,4.342,4.343,4.33,4.341,0,32,9820.6697338808,0.984252,6,P-GPS,
4900,2023-10-10 00:43:12,38.4981512113326,-112.064393530842,1.312336,,,9820.9978178808,2.296588,0.4921268,0.48150592092,1.12736552164,17,5,26.035,9820.9978178808,1.312336,0.4921268,0.48150592092,0.223694,-0.447388,-2.908022,141.2, -1, -0.4,0,0,1094,1024,1454,1024,11,0,65,0,0,0,0,99,4.34,4.339,4.342,4.343,4.33,4.341,0,32,9820.9978178808,1.312336,6,P-GPS,
5000,2023-10-10 00:43:13,38.4981513635055,-112.06439378383,1.968504,,,9821.6539858808,2.624672,0.3131716,0.569471803,1.21847444844,17,5,26.035,9821.6539858808,1.968504,0.4921268,0.569471803,0.223694,-0.223694,-3.579104,141.3, -2, -0.3,0,0,1125,1024,1455,1024,15,0,65,0,0,0,0,99,4.34,4.339,4.342,4.343,4.33,4.341,0,32,9821.6539858808,1.968504,6,P-GPS,
5100,2023-10-10 00:43:13,38.4981514209681,-112.064393766552,2.624672,,,9822.3101538808,3.28084,0.3131716,0.5737697034,1.24001316304,17,5,26.035,9822.3101538808,2.624672,0.4921268,0.5737697034,0.223694,-0.223694,-4.026492,141.4, -2.4, -0.2,0,0,1142,1024,1449,1024,18,0,64,0,0,0,0,99,4.34,4.339,4.342,4.343,4.33,4.341,0,32,9822.3101538808,2.624672,6,P-GPS,
5200,2023-10-10 00:43:13,38.4981515057848,-112.06439393258,3.28084,,,9822.9663218808,3.937008,0.223694,0.62996393092,1.29662733808,17,5,26.035,9822.9663218808,3.28084,0.4921268,0.62996393092,0,-0.223694,-4.47388,141.5, -2.7, -0.3,0,0,1182,1024,1440,1024,24,0,63,0,0,0,0,99,4.34,4.339,4.342,4.343,4.33,4.341,0,32,9822.9663218808,3.28084,6,P-GPS,
5300,2023-10-10 00:43:13,38.4981515214638,-112.064394019454,3.937008,,,9823.6224898808,4.593176,0.223694,0.65474739628,1.32208337564,17,5,24.97,9823.6224898808,3.937008,0.4921268,0.65474739628,0,-0.223694,-4.921268,141.6, -3.1, -0.4,0,0,1191,1024,1444,1024,25,0,64,0,0,0,0,99,4.158,4.158,4.167,4.164,4.159,4.164,0,32,9823.6224898808,3.937008,6,P-GPS,
5400,2023-10-10 00:43:13,38.4981515178558,-112.064394083662,4.593176,,,9824.2786578808,5.249344,0,0.6707185254,1.34046264132,17,5,24.97,9824.2786578808,4.593176,0.4921268,0.6707185254,0,0,-5.368656,141.8, -3.8, -0.4,0,0,1199,1024,1447,1024,27,0,64,0,0,0,0,99,4.158,4.158,4.167,4.164,4.159,4.164,0,32,9824.2786578808,4.593176,6,P-GPS,
5500,2023-10-10 00:43:13,38.4981513562576,-112.064394055564,5.249344,,,9824.9348258808,5.905512,0,0.64034450868,1.3999672364,17,5,24.97,9824.9348258808,5.249344,0.4921268,0.6707185254,0,0,-5.59235,141.8, -4.7, -0.4,0,0,1214,1024,1453,1024,29,0,65,0,0,0,0,99,4.158,4.158,4.167,4.164,4.159,4.164,0,32,9824.9348258808,5.249344,6,P-GPS,
5600,2023-10-10 00:43:13,38.4981512248104,-112.064393985627,6.233596,,,9825.9190778808,6.56168,0.223694,0.60590225036,1.45191605696,17,5,24.97,9825.9190778808,6.233596,0.4921268,0.6707185254,-0.223694,0,-5.816044,142, -5.4, -0.3,0,0,1234,1024,1449,1024,32,0,64,0,0,0,0,99,4.158,4.158,4.167,4.164,4.159,4.164,0,32,9825.9190778808,6.233596,6,P-GPS,
5700,2023-10-10 00:43:13,38.4981511630125,-112.064393913333,7.217848,,,9826.9033298808,7.217848,0.4921268,0.57974411304,1.48248692408,17,5,24.97,9826.9033298808,7.217848,0.4921268,0.6707185254,-0.447388,0.223694,-6.039738,142.1, -5.9, -0.1,0,0,1239,1024,1449,1024,33,0,64,0,0,0,0,99,4.158,4.158,4.167,4.164,4.159,4.164,0,32,9826.9033298808,7.217848,6,P-GPS,
5800,2023-10-10 00:43:13,38.4981508900617,-112.064393695641,8.2021,,,9827.8875818808,7.874016,0.4921268,0.49945211572,1.59987866012,17,5,24.97,9827.8875818808,8.2021,0.4921268,0.6707185254,-0.447388,0.223694,-6.263432,142.2, -6.4, 0,0,0,1251,1024,1450,1024,34,0,65,0,0,0,0,99,4.158,4.158,4.167,4.164,4.159,4.164,0,32,9827.8875818808,8.2021,6,P-GPS,
5900,2023-10-10 00:43:13,38.4981506353703,-112.064393478755,9.186352,,,9828.8718338808,8.530184,0.8052984,0.43591864912,1.7115486112,17,5,24.97,9828.8718338808,9.186352,0.8052984,0.6707185254,-0.671082,0.447388,-6.263432,142.4, -6.8, 0,0,0,1256,1024,1450,1024,35,0,65,0,0,0,0,99,4.158,4.158,4.167,4.164,4.159,4.164,0,32,9828.8718338808,9.186352,6,P-GPS,
6000,2023-10-10 00:43:14,38.4981501980055,-112.06439310513,10.170604,,,9829.8560858808,9.186352,1.11847,0.38202429044,1.90350071708,17,5,24.97,9829.8560858808,10.170604,1.11847,0.6707185254,-0.894776,0.671082,-6.487126,142.5, -7.2, -0.1,0,0,1253,1024,1447,1024,35,0,64,0,0,0,0,99,4.158,4.158,4.167,4.164,4.159,4.164,0,32,9829.8560858808,10.170604,6,P-GPS,
6100,2023-10-10 00:43:14,38.4981496735892,-112.064392525245,10.826772,,,9830.5122538808,9.514436,1.2974252,0.42024607644,2.15653222124,17,5,24.97,9830.5122538808,10.826772,1.2974252,0.6707185254,-1.11847,0.671082,-6.487126,142.6, -7.5, -0.2,0,0,1252,1024,1445,1024,35,0,64,0,0,0,0,99,4.158,4.158,4.167,4.164,4.159,4.164,0,32,9830.5122538808,10.826772,6,P-GPS,
6200,2023-10-10 00:43:14,38.4981490558385,-112.064391965349,11.811024,,,9831.4965058808,10.170604,1.6105968,0.61312009836,2.43286425108,17,5,24.97,9831.4965058808,11.811024,1.6105968,0.6707185254,-1.342164,0.894776,-6.263432,142.7, -7.7, -0.3,0,0,1241,1024,1436,1024,33,0,62,0,0,0,0,99,4.158,4.158,4.167,4.164,4.159,4.164,0,32,9831.4965058808,11.811024,6,P-GPS,
6300,2023-10-10 00:43:14,38.4981485370632,-112.064391551337,12.795276,,,9832.4807578808,10.498688,1.9237684,0.81073165324,2.65602370704,17,5,24.97,9832.4807578808,12.795276,1.9237684,0.81073165324,-1.565858,1.11847,-6.263432,142.8, -7.7, -0.3,0,0,1247,1024,1450,1024,34,0,65,0,0,0,0,99,4.158,4.158,4.167,4.164,4.159,4.164,0,32,9832.4807578808,12.795276,6,P-GPS,
6400,2023-10-10 00:43:14,38.4981477575091,-112.064390829819,13.779528,,,9833.4650098808,10.826772,2.23694,1.1335138158,3.00722122484,17,5,25.237,9833.4650098808,13.779528,2.23694,1.1335138158,-1.789552,1.342164,-6.263432,142.9, -7.5, -0.3,0,0,1257,1024,1466,1024,35,0,67,0,0,0,0,99,4.202,4.205,4.214,4.207,4.202,4.207,0,32,9833.4650098808,13.779528,6,P-GPS,
6500,2023-10-10 00:43:14,38.498146819745,-112.064390103277,14.76378,,,9834.4492618808,11.154856,2.5501116,1.52389440572,3.4073491904,17,5,25.237,9834.4492618808,14.76378,2.5501116,1.52389440572,-2.013246,1.565858,-6.039738,142.9, -7.2, -0.2,0,0,1258,1024,1471,1024,35,0,68,0,0,0,0,99,4.202,4.205,4.214,4.207,4.202,4.207,0,32,9834.4492618808,14.76378,6,P-GPS,
6600,2023-10-10 00:43:14,38.4981458632992,-112.064389217249,15.748032,,,9835.4335138808,11.154856,2.7290668,1.94248037712,3.8383531412,17,5,25.237,9835.4335138808,15.748032,2.7290668,1.94248037712,-2.23694,1.565858,-6.039738,142.9, -6.8, 0,0,0,1262,1024,1471,1024,36,0,68,0,0,0,0,99,4.202,4.205,4.214,4.207,4.202,4.207,0,32,9835.4335138808,15.748032,6,P-GPS,
6700,2023-10-10 00:43:14,38.4981447175765,-112.06438808325,16.4042,,,9836.0896818808,11.48294,3.0422384,2.45885178472,4.367126124,17,5,25.237,9836.0896818808,16.4042,3.0422384,2.45885178472,-2.460634,1.789552,-6.039738,142.9, -6.5, 0.1,0,0,1270,1024,1473,1024,37,0,68,0,0,0,0,99,4.202,4.205,4.214,4.207,4.202,4.207,0,32,9836.0896818808,16.4042,6,P-GPS,
6800,2023-10-10 00:43:14,38.498143586971,-112.064387034009,17.388452,,,9837.0739338808,11.811024,3.2211936,2.963172667,4.8769358516,17,5,25.237,9837.0739338808,17.388452,3.2211936,2.963172667,-2.684328,1.789552,-6.039738,142.9, -6.5, 0.1,0,0,1285,1024,1497,1024,40,0,72,0,0,0,0,99,4.202,4.205,4.214,4.207,4.202,4.207,0,32,9837.0739338808,17.388452,6,P-GPS,
6900,2023-10-10 00:43:14,38.49814243721,-112.064385940412,18.372704,,,9838.0581858808,12.139108,3.5343652,3.4814305576,5.3999017476,17,5,25.237,9838.0581858808,18.372704,3.5343652,3.4814305576,-2.908022,2.013246,-6.039738,142.8, -6.7, 0,0,0,1289,1024,1503,1024,40,0,73,0,0,0,0,99,4.202,4.205,4.214,4.207,4.202,4.207,0,32,9838.0581858808,18.372704,6,P-GPS,
7000,2023-10-10 00:43:15,38.498141148209,-112.064384757099,19.356956,,,9839.0424378808,9.186352,3.8475368,4.0576772952,5.979002816,17,5,25.237,9839.0424378808,19.356956,3.8475368,4.0576772952,-3.131716,2.23694,-6.263432,142.8, -7, -0.3,0,0,1297,1024,1515,1024,41,0,74,0,0,0,0,99,4.202,4.205,4.214,4.207,4.202,4.207,0,32,9839.0424378808,19.356956,6,P-GPS,
7100,2023-10-10 00:43:15,38.4981395869526,-112.064383751379,20.341208,,,9840.0266898808,10.170604,4.026492,4.6944555308,6.6168965372,17,5,25.237,9840.0266898808,20.341208,4.026492,4.6944555308,-3.35541,2.23694,-6.487126,142.8, -7.2, -0.5,0,0,1297,1024,1533,1024,41,0,77,0,0,0,0,99,4.202,4.205,4.214,4.207,4.202,4.207,0,32,9840.0266898808,20.341208,6,P-GPS,
7200,2023-10-10 00:43:15,38.4981381090709,-112.064382430083,21.32546,,,9841.0109418808,10.826772,4.3396636,5.3503282552,7.2750002328,17,5,25.237,9841.0109418808,21.32546,4.3396636,5.3503282552,-3.579104,2.460634,-6.487126,142.9, -7.4, -0.6,0,0,1286,1024,1518,1024,40,0,75,0,0,0,0,99,4.202,4.205,4.214,4.207,4.202,4.207,0,32,9841.0109418808,21.32546,6,P-GPS,
7300,2023-10-10 00:43:15,38.4981363812769,-112.06438093367,22.309712,,,9841.9951938808,5.249344,4.3396636,6.1105645,8.0365488136,17,5,25.237,9841.9951938808,22.309712,4.3396636,6.1105645,-3.802798,2.684328,-6.71082,142.8, -7.4, -0.3,0,0,1316,1024,1563,1024,44,0,82,0,0,0,0,99,4.202,4.205,4.214,4.207,4.202,4.207,0,32,9841.9951938808,22.309712,6,P-GPS,
7400,2023-10-10 00:43:15,38.4981347119307,-112.064379427221,23.293964,,,9842.9794458808,6.56168,4.9660068,6.8543965448,8.7821853204,17,5,25.237,9842.9794458808,23.293964,4.9660068,6.8543965448,-4.026492,2.908022,-6.934514,142.9, -7.4, -0.2,0,0,1324,1024,1559,1024,45,0,81,0,0,0,0,99,4.202,4.205,4.214,4.207,4.202,4.207,0,32,9842.9794458808,23.293964,6,P-GPS,
7500,2023-10-10 00:43:15,38.4981328893035,-112.064377892435,24.278216,,,9843.9636978808,7.545932,4.9660068,7.650426754,9.5786092304,17,5,25.237,9843.9636978808,24.278216,4.9660068,7.650426754,-4.250186,2.908022,-7.158208,142.9, -7.2, 0,0,0,1335,1024,1565,1024,47,0,82,0,0,0,0,99,4.202,4.205,4.214,4.207,4.202,4.207,0,32,9843.9636978808,24.278216,6,P-GPS,
7600,2023-10-10 00:43:15,38.4981310279704,-112.064376229434,25.262468,,,9844.9479498808,8.530184,5.4581336,8.4778217936,10.4072509892,17,5,25.237,9844.9479498808,25.262468,5.4581336,8.4778217936,-4.47388,3.131716,-7.605596,142.9, -7.4, 0,0,0,1332,1024,1566,1024,47,0,82,0,0,0,0,99,4.202,4.205,4.214,4.207,4.202,4.207,0,32,9844.9479498808,25.262468,6,P-GPS,
7700,2023-10-10 00:43:15,38.4981289279168,-112.06437444165,26.574804,,,9846.2602858808,9.84252,5.7713052,9.3981630304,11.3279531184,18,5,25.237,9846.2602858808,26.574804,5.7713052,9.3981630304,-4.697574,3.35541,-7.82929,142.9, -8.1, -0.3,0,0,1349,1024,1562,1024,49,0,82,0,0,0,0,99,4.202,4.205,4.214,4.207,4.202,4.207,0,32,9846.2602858808,26.574804,6,P-GPS,
7800,2023-10-10 00:43:15,38.4981268636223,-112.064372606923,27.88714,,,9847.5726218808,10.826772,5.9502604,10.3146984928,12.245407216,18,5,25.237,9847.5726218808,27.88714,5.9502604,10.3146984928,-4.921268,3.35541,-8.052984,143, -8.8, -0.6,0,0,1349,1024,1566,1024,49,0,82,0,0,0,0,99,4.202,4.205,4.214,4.207,4.202,4.207,0,32,9847.5726218808,27.88714,6,P-GPS,
7900,2023-10-10 00:43:15,38.4981247006671,-112.064370702653,28.871392,,,9848.5568738808,11.48294,5.9502604,11.2724084972,13.20374058,18,5,25.237,9848.5568738808,28.871392,5.9502604,11.2724084972,-5.368656,3.579104,-8.052984,143, -9.5, -0.7,0,0,1342,1024,1580,1024,48,0,84,0,0,0,0,99,4.202,4.205,4.214,4.207,4.202,4.207,0,32,9848.5568738808,28.871392,6,P-GPS,
8000,2023-10-10 00:43:16,38.4981224283001,-112.064368661026,30.183728,,,9849.8692098808,11.48294,6.7555588,12.2850069548,14.2172576728,18,5,25.237,9849.8692098808,30.183728,6.7555588,12.2850069548,-5.59235,3.802798,-8.276678,143, -10, -0.7,0,0,1345,1024,1579,1024,49,0,84,0,0,0,0,99,4.202,4.205,4.214,4.207,4.202,4.207,0,32,9849.8692098808,30.183728,6,P-GPS,
8100,2023-10-10 00:43:16,38.4981201525593,-112.064366711076,31.496064,,,9851.1815458808,11.48294,7.0687304,13.2845804776,15.2169624292,18,5,25.237,9851.1815458808,31.496064,7.0687304,13.2845804776,-5.816044,4.026492,-8.276678,143.1, -10, -0.6,0,0,1347,1024,1580,1024,49,0,84,0,0,0,0,99,4.202,4.205,4.214,4.207,4.202,4.207,0,32,9851.1815458808,31.496064,6,P-GPS,
8200,2023-10-10 00:43:16,38.4981176654193,-112.064364466984,32.480316,,,9852.1657978808,11.48294,7.381902,14.3945542664,16.3278220448,18,5,25.237,9852.1657978808,32.480316,7.381902,14.3945542664,-6.039738,4.250186,-8.500372,143.1, -9.5, -0.5,0,0,1352,1024,1582,1024,50,0,85,0,0,0,0,99,4.202,4.205,4.214,4.207,4.202,4.207,0,32,9852.1657978808,32.480316,6,P-GPS,
8300,2023-10-10 00:43:16,38.4981146886767,-112.064361946386,33.792652,,,9853.4781338808,11.48294,7.381902,15.6974414472,17.630742034,18,5,25.237,9853.4781338808,33.792652,7.381902,15.6974414472,-6.263432,4.47388,-8.500372,143.2, -9, -0.6,0,0,1367,1024,1587,1024,52,0,85,0,0,0,0,99,4.202,4.205,4.214,4.207,4.202,4.207,0,32,9853.4781338808,33.792652,6,P-GPS,
8400,2023-10-10 00:43:16,38.4981119632539,-112.064359495355,35.104988,,,9854.7904698808,11.48294,8.0082452,16.9126645832,18.8467197632,18,5,25.04,9854.7904698808,35.104988,8.0082452,16.9126645832,-6.487126,4.697574,-8.724066,143.3, -8.8, -0.6,0,0,1378,1024,1584,1024,54,0,85,0,0,0,0,99,4.161,4.167,4.191,4.17,4.174,4.177,0,32,9854.7904698808,35.104988,6,P-GPS,
8500,2023-10-10 00:43:16,38.4981095320133,-112.064357013686,36.417324,,,9856.1028058808,11.48294,8.0082452,18.043307664,19.9820544452,19,5,25.04,9856.1028058808,36.417324,8.0082452,18.043307664,-6.71082,4.921268,-8.724066,143.3, -9.1, -0.6,0,0,1372,1024,1557,1024,53,0,81,0,0,0,0,99,4.161,4.167,4.191,4.17,4.174,4.177,0,32,9856.1028058808,36.417324,6,P-GPS,
8600,2023-10-10 00:43:16,38.4981066503863,-112.064354385971,37.72966,,,9857.4151418808,11.48294,8.500372,19.3342525872,21.2736883448,19,5,25.04,9857.4151418808,37.72966,8.500372,19.3342525872,-6.934514,4.921268,-8.724066,143.4, -9.8, -0.6,0,0,1372,1024,1510,1024,53,0,74,0,0,0,0,99,4.161,4.167,4.191,4.17,4.174,4.177,0,32,9857.4151418808,37.72966,6,P-GPS,
8700,2023-10-10 00:43:16,38.4981038640143,-112.064351579631,39.041996,,,9858.7274778808,11.48294,8.8135436,20.6249022348,22.5681437668,20,5,25.04,9858.7274778808,39.041996,8.8135436,20.6249022348,-7.158208,5.144962,-8.724066,143.4, -10.5, -0.5,0,0,1386,1024,1513,1024,55,0,74,0,0,0,0,99,4.161,4.167,4.191,4.17,4.174,4.177,0,32,9858.7274778808,39.041996,6,P-GPS,
8800,2023-10-10 00:43:16,38.4981008071839,-112.064348739425,40.354332,,,9860.0398138808,11.48294,8.8135436,22.0030518852,23.9471136272,20,5,25.04,9860.0398138808,40.354332,8.8135436,22.0030518852,-7.381902,5.368656,-8.500372,143.5, -11.1, -0.4,0,0,1394,1024,1524,1024,56,0,76,0,0,0,0,99,4.161,4.167,4.191,4.17,4.174,4.177,0,32,9860.0398138808,40.354332,6,P-GPS,
8900,2023-10-10 00:43:16,38.4980974825799,-112.064345864417,41.666668,,,9861.3521498808,11.48294,9.618842,23.4677172864,25.4117790284,19,5,25.04,9861.3521498808,41.666668,9.618842,23.4677172864,-7.82929,5.59235,-8.276678,143.5, -11.6, -0.5,0,0,1423,1024,1522,1024,60,0,75,0,0,0,0,99,4.161,4.167,4.191,4.17,4.174,4.177,0,32,9861.3521498808,41.666668,6,P-GPS,
9000,2023-10-10 00:43:17,38.4980942062369,-112.064342834652,42.979004,,,9862.6644858808,11.48294,9.9320136,24.9426517168,26.8873696268,19,5,25.04,9862.6644858808,42.979004,9.9320136,24.9426517168,-8.052984,5.816044,-8.052984,143.6, -11.6, -0.6,0,0,1427,1024,1522,1024,61,0,75,0,0,0,0,99,4.161,4.167,4.191,4.17,4.174,4.177,0,32,9862.6644858808,42.979004,6,P-GPS,
9100,2023-10-10 00:43:17,38.4980906599837,-112.064339564208,43.963256,,,9863.6487378808,11.48294,10.2451852,26.5376976996,28.4830061608,20,5,25.04,9863.6487378808,43.963256,10.2451852,26.5376976996,-8.276678,6.039738,-7.82929,143.6, -11.5, -0.4,0,0,1432,1024,1519,1024,62,0,75,0,0,0,0,99,4.161,4.167,4.191,4.17,4.174,4.177,0,32,9863.6487378808,43.963256,6,P-GPS,
9200,2023-10-10 00:43:17,38.4980871575646,-112.06433630779,45.275592,,,9864.9610738808,11.48294,10.5583568,28.1173893512,30.0633867888,20,5,25.04,9864.9610738808,45.275592,10.5583568,28.1173893512,-8.500372,6.263432,-7.605596,143.6, -11.6, -0.3,0,0,1454,1024,1522,1041,65,0,75,3,0,0,0,99,4.161,4.167,4.191,4.17,4.174,4.177,0,32,9864.9610738808,45.275592,6,P-GPS,
9300,2023-10-10 00:43:17,38.4980832532836,-112.064332995074,46.259844,,,9865.9453258808,11.48294,10.8715284,29.8271663088,31.7733277884,21,5,25.04,9865.9453258808,46.259844,10.8715284,29.8271663088,-8.724066,6.487126,-7.605596,143.6, -11.9, -0.2,0,0,1454,1024,1522,1041,65,0,75,3,0,0,0,99,4.161,4.167,4.191,4.17,4.174,4.177,0,32,9865.9453258808,46.259844,6,P-GPS,
9400,2023-10-10 00:43:17,38.4980795094904,-112.06432953245,47.57218,,,9867.2576618808,11.48294,10.8715284,31.512796284,33.45964674,21,5,25.004,9867.2576618808,47.57218,10.8715284,31.512796284,-9.171454,6.71082,-7.381902,143.6, -12.1, -0.2,0,0,1453,1024,1522,1101,65,0,75,12,0,0,0,99,4.169,4.163,4.172,4.175,4.164,4.161,0,32,9867.2576618808,47.57218,6,P-GPS,
9500,2023-10-10 00:43:17,38.4980760436224,-112.064326261092,48.556432,,,9868.2419138808,11.48294,11.6768268,33.08399056,35.031497184,21,5,25.004,9868.2419138808,48.556432,11.6768268,33.08399056,-9.395148,6.934514,-7.381902,143.5, -12.4, 0,0,0,1441,1024,1516,1133,63,0,75,17,0,0,0,99,4.169,4.163,4.172,4.175,4.164,4.161,0,32,9868.2419138808,48.556432,6,P-GPS,
9600,2023-10-10 00:43:17,38.4980721065836,-112.064322605999,49.540684,,,9869.2261658808,11.48294,11.6768268,34.858925,36.807087792,21,5,25.004,9869.2261658808,49.540684,11.6768268,34.858925,-9.618842,7.158208,-7.381902,143.5, -12.6, 0.9,0,0,1432,1024,1490,1169,62,0,71,22,0,0,0,99,4.169,4.163,4.172,4.175,4.164,4.161,0,32,9869.2261658808,49.540684,6,P-GPS,
9700,2023-10-10 00:43:17,38.498067987521,-112.064318728141,50.85302,,,9870.5385018808,11.48294,12.3479088,36.724738708,38.673885752,21,5,25.004,9870.5385018808,50.85302,12.3479088,36.724738708,-10.06623,7.158208,-7.158208,143.9, -12.4, 2.7,0,0,1434,1024,1490,1180,62,0,71,24,0,0,0,99,4.169,4.163,4.172,4.175,4.164,4.161,0,32,9870.5385018808,50.85302,6,P-GPS,
9800,2023-10-10 00:43:17,38.4980637806277,-112.064314897423,51.837272,,,9871.5227538808,11.48294,12.6610804,38.609581288,40.558728332,21,5,25.004,9871.5227538808,51.837272,12.6610804,38.609581288,-10.289924,7.381902,-7.158208,144.6, -12, 5.2,0,0,1435,1024,1491,1162,62,0,71,21,0,0,0,99,4.169,4.163,4.172,4.175,4.164,4.161,0,32,9871.5227538808,51.837272,6,P-GPS,
9900,2023-10-10 00:43:17,38.498058827691,-112.064310711155,52.821524,,,9872.5070058808,11.48294,13.0189908,40.775591856,42.725395068,21,5,25.004,9872.5070058808,52.821524,13.0189908,40.775591856,-10.737312,7.381902,-6.934514,145.4, -11.6, 7.6,0,0,1442,1024,1490,1171,63,0,71,22,0,0,0,99,4.169,4.163,4.172,4.175,4.164,4.161,0,32,9872.5070058808,52.821524,6,P-GPS,
10000,2023-10-10 00:43:18,38.498054252597,-112.064306867494,53.805776,,,9873.4912578808,11.48294,13.3992706,42.772967248,44.723098544,21,5,25.004,9873.4912578808,53.805776,13.3992706,42.772967248,-11.1847,7.381902,-6.934514,146.5, -11.4, 8.8,0,0,1447,1024,1489,1183,64,0,70,24,0,0,0,99,4.169,4.163,4.172,4.175,4.164,4.161,0,32,9873.4912578808,53.805776,6,P-GPS,
10100,2023-10-10 00:43:18,38.4980496689485,-112.06430340871,54.790028,,,9874.4755098808,11.48294,13.6677034,44.710303268,46.665355824,21,5,25.004,9874.4755098808,54.790028,13.6677034,44.710303268,-11.632088,7.158208,-6.71082,147.5, -11.2, 8.2,0,0,1449,1024,1490,1196,64,0,71,26,0,0,0,99,4.169,4.163,4.172,4.175,4.164,4.161,0,32,9874.4755098808,54.790028,6,P-GPS,
10200,2023-10-10 00:43:18,38.4980447740434,-112.064299717604,55.77428,,,9875.4597618808,11.48294,13.8466586,46.779529056,48.738846704,21,5,25.004,9875.4597618808,55.77428,13.8466586,46.779529056,-11.855782,7.158208,-6.71082,148.5, -11.2, 7.8,0,0,1449,1024,1485,1190,64,0,70,25,0,0,0,99,4.169,4.163,4.172,4.175,4.164,4.161,0,32,9875.4597618808,55.77428,6,P-GPS,
10300,2023-10-10 00:43:18,38.4980391406817,-112.06429580795,56.758532,,,9876.4440138808,11.48294,14.1150914,49.107285036,51.07775754,21,5,25.004,9876.4440138808,56.758532,14.1150914,49.107285036,-12.30317,6.934514,-6.71082,149.6, -11.1, 8.2,0,0,1459,1024,1490,1177,66,0,71,23,0,0,0,99,4.169,4.163,4.172,4.175,4.164,4.161,0,32,9876.4440138808,56.758532,6,P-GPS,
10400,2023-10-10 00:43:18,38.4980338785092,-112.064292228467,58.070868,,,9877.7563498808,11.48294,14.5177406,51.270999016,53.25295446,21,5,25.088,9877.7563498808,58.070868,14.5177406,51.270999016,-12.750558,6.934514,-6.71082,150.7, -10.9, 8.3,0,0,1459,1024,1476,1180,66,0,68,24,0,0,0,99,4.183,4.181,4.185,4.181,4.176,4.182,0,32,9877.7563498808,58.070868,6,P-GPS,
10500,2023-10-10 00:43:18,38.4980283230281,-112.064288775007,59.05512,,,9878.7406018808,11.48294,14.8085428,53.505251056,55.50689154,21,5,25.088,9878.7406018808,59.05512,14.8085428,53.505251056,-13.197946,6.71082,-6.71082,151.8, -10.9, 8.1,0,0,1466,1024,1482,1178,67,0,69,23,0,0,0,99,4.183,4.181,4.185,4.181,4.176,4.182,0,32,9878.7406018808,59.05512,6,P-GPS,
10600,2023-10-10 00:43:18,38.4980227386212,-112.064285376833,60.039372,,,9879.7248538808,11.48294,14.8980204,55.741143516,57.763781376,21,5,25.088,9879.7248538808,60.039372,14.8980204,55.741143516,-13.42164,6.487126,-6.487126,152.9, -11, 8,0,0,1466,1024,1482,1178,67,0,69,23,0,0,0,99,4.183,4.181,4.185,4.181,4.176,4.182,0,32,9879.7248538808,60.039372,6,P-GPS,
10700,2023-10-10 00:43:18,38.4980173145737,-112.064282172179,61.023624,,,9880.7091058808,11.48294,15.211192,57.899608152,59.943899556,21,5,25.088,9880.7091058808,61.023624,15.211192,57.899608152,-13.869028,6.263432,-6.487126,154, -11, 7.9,0,0,1471,1024,1480,1168,68,0,69,22,0,0,0,99,4.183,4.181,4.185,4.181,4.176,4.182,0,32,9880.7091058808,61.023624,6,P-GPS,
10800,2023-10-10 00:43:18,38.4980114735849,-112.064278950697,62.007876,,,9881.6933578808,11.48294,15.4125166,60.19029064,62.265093856,21,5,25.088,9881.6933578808,62.007876,15.4125166,60.19029064,-14.092722,6.263432,-6.487126,155, -11.1, 8.1,0,0,1478,1024,1480,1155,69,0,69,20,0,0,0,99,4.183,4.181,4.185,4.181,4.176,4.182,0,32,9881.6933578808,62.007876,6,P-GPS,
10900,2023-10-10 00:43:18,38.4980061822982,-112.064276326515,62.992128,,,9882.6776098808,11.48294,15.7480576,62.223099104,64.335960064,21,5,25.088,9882.6776098808,62.992128,15.7480576,62.223099104,-14.54011,6.039738,-6.487126,156.1, -11.4, 7.8,0,0,1474,1024,1480,1149,68,0,69,19,0,0,0,99,4.183,4.181,4.185,4.181,4.176,4.182,0,32,9882.6776098808,62.992128,6,P-GPS,
11000,2023-10-10 00:43:19,38.498000117147,-112.064273343532,63.648296,,,9883.3337778808,11.48294,15.8599046,64.55216742,66.707023132,21,5,25.088,9883.3337778808,63.648296,15.8599046,64.55216742,-14.763804,5.816044,-6.487126,157, -11.8, 6.6,0,0,1481,1024,1479,1156,69,0,69,20,0,0,0,99,4.183,4.181,4.185,4.181,4.176,4.182,0,32,9883.3337778808,63.648296,6,P-GPS,
11100,2023-10-10 00:43:19,38.4979934511896,-112.064270236168,64.632548,,,9884.3180298808,11.48294,16.1954456,67.090225244,69.295933976,21,5,25.088,9884.3180298808,64.632548,16.1954456,67.090225244,-15.211192,5.59235,-6.487126,157.8, -12.3, 5.6,0,0,1485,1024,1480,1163,70,0,69,21,0,0,0,99,4.183,4.181,4.185,4.181,4.176,4.182,0,32,9884.3180298808,64.632548,6,P-GPS,
11200,2023-10-10 00:43:19,38.4979870708599,-112.064267371571,65.6168,,,9885.3022818808,11.48294,16.6204642,69.506891988,71.76345374,21,5,25.088,9885.3022818808,65.6168,16.6204642,69.506891988,-15.65858,5.59235,-6.487126,158.7, -12.5, 5.2,0,0,1486,1024,1482,1163,70,0,69,21,0,0,0,99,4.183,4.181,4.185,4.181,4.176,4.182,0,32,9885.3022818808,65.6168,6,P-GPS,
11300,2023-10-10 00:43:19,38.4979804058616,-112.064264726107,66.601052,,,9886.2865338808,11.48294,16.8441582,71.985238524,74.309713664,21,5,25.088,9886.2865338808,66.601052,16.8441582,71.985238524,-15.882274,5.59235,-6.487126,159.6, -12.5, 5.6,0,0,1493,1024,1480,1162,71,0,69,21,0,0,0,99,4.183,4.181,4.185,4.181,4.176,4.182,0,32,9886.2865338808,66.601052,6,P-GPS,
11400,2023-10-10 00:43:19,38.4979737337731,-112.064261988244,67.585304,,,9887.2707858808,11.48294,17.1796992,74.4832701,76.866472276,21,5,25.023,9887.2707858808,67.585304,17.1796992,74.4832701,-16.329662,5.368656,-6.487126,160.5, -12.4, 6.5,0,0,1515,1024,1453,1176,74,0,65,23,0,0,0,99,4.169,4.169,4.178,4.166,4.167,4.174,0,32,9887.2707858808,67.585304,6,P-GPS,
11500,2023-10-10 00:43:19,38.4979666804254,-112.064259037374,68.569556,,,9888.2550378808,11.48294,17.336285,77.136157324,79.574149528,21,5,25.023,9888.2550378808,68.569556,17.336285,77.136157324,-16.553356,5.144962,-6.487126,161.4, -12.5, 7.3,0,0,1510,1024,1456,1181,74,0,65,24,0,0,0,99,4.169,4.169,4.178,4.166,4.167,4.174,0,32,9888.2550378808,68.569556,6,P-GPS,
11600,2023-10-10 00:43:19,38.4979597075014,-112.064256455753,69.553808,,,9889.2392898808,11.48294,17.6941954,79.7162099,82.223099744,21,5,25.023,9889.2392898808,69.553808,17.6941954,79.7162099,-17.000744,4.921268,-6.263432,162.3, -12.7, 8.5,0,0,1507,1024,1462,1181,73,0,66,24,0,0,0,99,4.169,4.169,4.178,4.166,4.167,4.174,0,32,9889.2392898808,69.553808,6,P-GPS,
11700,2023-10-10 00:43:19,38.4979527724602,-112.064254188696,70.53806,,,9890.2235418808,11.48294,18.0744752,82.245081372,84.834648384,21,5,25.023,9890.2235418808,70.53806,18.0744752,82.245081372,-17.448132,4.697574,-6.263432,163.3, -12.7, 9.6,0,0,1493,1024,1466,1178,71,0,67,23,0,0,0,99,4.169,4.169,4.178,4.166,4.167,4.174,0,32,9890.2235418808,70.53806,6,P-GPS,
11800,2023-10-10 00:43:19,38.4979455439648,-112.064251897348,71.522312,,,9891.2077938808,11.48294,18.231061,84.87697122,87.552168156,21,5,25.023,9891.2077938808,71.522312,18.231061,84.87697122,-17.671826,4.47388,-6.263432,164.5, -12.3, 10.1,0,0,1493,1024,1462,1177,71,0,66,23,0,0,0,99,4.169,4.169,4.178,4.166,4.167,4.174,0,32,9891.2077938808,71.522312,6,P-GPS,
11900,2023-10-10 00:43:19,38.4979382055717,-112.064250018632,72.17848,,,9891.8639618808,11.48294,18.566602,87.494753456,90.282483204,21,5,25.023,9891.8639618808,72.17848,18.566602,87.494753456,-18.119214,4.026492,-6.039738,165.6, -11.5, 9.9,0,0,1468,1024,1469,1173,67,0,67,23,0,0,0,99,4.169,4.169,4.178,4.166,4.167,4.174,0,32,9891.8639618808,72.17848,6,P-GPS,
12000,2023-10-10 00:43:20,38.4979307160074,-112.064248094761,73.162732,,,9892.8482138808,11.48294,18.7231878,90.174543568,93.069884868,21,5,25.023,9892.8482138808,73.162732,18.7231878,90.174543568,-18.342908,3.802798,-6.039738,166.8, -10.8, 9.5,0,0,1469,1024,1475,1147,67,0,68,19,0,0,0,99,4.169,4.169,4.178,4.166,4.167,4.174,0,32,9892.8482138808,73.162732,6,P-GPS,
12100,2023-10-10 00:43:20,38.4979230451471,-112.064246369355,73.8189,,,9893.5043818808,11.48294,18.8574042,92.894031844,95.911748476,21,5,25.023,9893.5043818808,73.8189,18.8574042,92.894031844,-18.566602,3.35541,-6.039738,168, -10.3, 9,0,0,1490,1024,1448,1143,71,0,64,18,0,0,0,99,4.169,4.169,4.178,4.166,4.167,4.174,0,32,9893.5043818808,73.8189,6,P-GPS,
12200,2023-10-10 00:43:20,38.4979153467995,-112.064244787926,74.803152,,,9894.4886338808,11.48294,19.0587288,95.6118797,98.75656484,21,5,25.023,9894.4886338808,74.803152,19.0587288,95.6118797,-18.790296,3.131716,-6.263432,169.1, -9.8, 7.8,0,0,1487,1024,1446,1142,70,0,64,18,0,0,0,99,4.169,4.169,4.178,4.166,4.167,4.174,0,32,9894.4886338808,74.803152,6,P-GPS,
12300,2023-10-10 00:43:20,38.4979080583288,-112.064243804178,75.787404,,,9895.4728858808,11.48294,19.0587288,98.127955896,101.43044944,21,5,25.023,9895.4728858808,75.787404,19.0587288,98.127955896,-19.01399,2.684328,-6.263432,170.1, -10.2, 6.2,0,0,1486,1024,1448,1144,70,0,64,18,0,0,0,99,4.169,4.169,4.178,4.166,4.167,4.174,0,32,9895.4728858808,75.787404,6,P-GPS,
12400,2023-10-10 00:43:20,38.4979002560606,-112.064242524019,76.771656,,,9896.4571378808,11.48294,19.3942698,100.858270944,104.300528272,21,5,25.031,9896.4571378808,76.771656,19.3942698,100.858270944,-19.237684,2.460634,-6.039738,170.7, -11.4, 5.5,0,0,1489,1024,1447,1154,70,0,64,20,0,0,0,99,4.166,4.171,4.181,4.167,4.168,4.178,0,32,9896.4571378808,76.771656,6,P-GPS,
12500,2023-10-10 00:43:20,38.4978924281034,-112.064241221934,77.427824,,,9897.1133058808,11.48294,19.5955944,103.606958696,107.180449624,21,5,25.031,9897.1133058808,77.427824,19.5955944,103.606958696,-19.461378,2.23694,-6.039738,171.5, -12.5, 5.3,0,0,1480,1024,1483,1093,69,0,70,10,0,0,0,99,4.166,4.171,4.181,4.167,4.168,4.178,0,32,9897.1133058808,77.427824,6,P-GPS,
12600,2023-10-10 00:43:20,38.4978844580688,-112.064240111311,78.412076,,,9898.0975578808,11.48294,19.8192884,106.38779868,110.105646568,21,5,25.031,9898.0975578808,78.412076,19.8192884,106.38779868,-19.685072,2.23694,-5.816044,172.2, -13, 5.6,0,0,1504,1024,1468,1094,73,0,67,11,0,0,0,99,4.166,4.171,4.181,4.167,4.168,4.178,0,32,9898.0975578808,78.412076,6,P-GPS,
12700,2023-10-10 00:43:20,38.4978765899683,-112.064239337429,79.068244,,,9898.7537258808,11.48294,19.8192884,109.103678032,112.984911752,20,5,25.031,9898.7537258808,79.068244,19.8192884,109.103678032,-19.908766,2.013246,-5.816044,173, -12.4, 6,0,0,1493,1024,1455,1099,71,0,65,11,0,0,0,99,4.166,4.171,4.181,4.167,4.168,4.178,0,32,9898.7537258808,79.068244,6,P-GPS,
12800,2023-10-10 00:43:20,38.4978684246458,-112.064238460513,80.052496,,,9899.7379778808,11.48294,20.4456316,111.93897996,115.97441316,20,5,25.031,9899.7379778808,80.052496,20.4456316,111.93897996,-20.356154,1.789552,-6.039738,173.6, -11.2, 4.2,0,0,1474,1024,1463,1120,68,0,67,15,0,0,0,99,4.166,4.171,4.181,4.167,4.168,4.178,0,32,9899.7379778808,80.052496,6,P-GPS,
12900,2023-10-10 00:43:20,38.4978600370106,-112.064237644278,81.036748,,,9900.7222298808,11.48294,20.4232622,114.850397376,119.04363898,21,5,25.031,9900.7222298808,81.036748,20.4456316,114.850397376,-20.356154,1.565858,-6.039738,174.1, -11, 2.5,0,0,1476,1024,1455,1097,68,0,65,11,0,0,0,99,4.166,4.171,4.181,4.167,4.168,4.178,0,32,9900.7222298808,81.036748,6,P-GPS,
13000,2023-10-10 00:43:20,38.497851728155,-112.064236891109,81.692916,,,9901.3783978808,11.48294,20.4232622,117.73622424,122.082681072,21,5,25.031,9901.3783978808,81.692916,20.4456316,117.73622424,-20.579848,1.565858,-6.039738,174.5, -11.1, 2.6,0,0,1490,1024,1436,1087,71,0,62,10,0,0,0,99,4.166,4.171,4.181,4.167,4.168,4.178,0,32,9901.3783978808,81.692916,6,P-GPS,
13100,2023-10-10 00:43:21,38.4978433500761,-112.064235910699,82.677168,,,9902.3626498808,11.48294,20.8482808,120.677169216,125.152234976,20,5,25.031,9902.3626498808,82.677168,20.8482808,120.677169216,-20.803542,1.342164,-6.039738,174.9, -11.2, 2.1,0,0,1484,1024,1423,1070,70,0,60,7,0,0,0,99,4.166,4.171,4.181,4.167,4.168,4.178,0,32,9902.3626498808,82.677168,6,P-GPS,
13200,2023-10-10 00:43:21,38.4978349355872,-112.064235207892,83.66142,,,9903.3469018808,11.48294,21.0719748,123.607943588,128.228678644,20,5,25.031,9903.3469018808,83.66142,21.0719748,123.607943588,-21.027236,1.342164,-5.816044,175.3, -11.6, 1.6,0,0,1510,1024,1402,1034,74,0,57,2,0,0,0,99,4.166,4.171,4.181,4.167,4.168,4.178,0,32,9903.3469018808,83.66142,6,P-GPS,
13300,2023-10-10 00:43:21,38.497826366656,-112.064234548184,84.317588,,,9904.0030698808,11.48294,21.0719748,126.593836072,131.360896592,20,5,25.031,9904.0030698808,84.317588,21.0719748,126.593836072,-21.027236,1.342164,-5.816044,175.5, -12, 0.7,0,0,1480,1024,1439,1030,69,0,63,1,0,0,0,99,4.166,4.171,4.181,4.167,4.168,4.178,0,32,9904.0030698808,84.317588,6,P-GPS,
13400,2023-10-10 00:43:21,38.4978178393753,-112.064233875062,85.30184,,,9904.9873218808,11.48294,21.0719748,129.573823044,134.478022676,20,5,24.966,9904.9873218808,85.30184,21.0719748,129.573823044,-21.25093,1.342164,-5.59235,175.7, -12.6, -0.9,0,0,1466,1024,1459,1024,67,0,66,0,0,0,0,99,4.136,4.173,4.184,4.121,4.175,4.177,0,32,9904.9873218808,85.30184,6,P-GPS,
13500,2023-10-10 00:43:21,38.4978090578761,-112.064233080709,85.958008,,,9905.6434898808,11.48294,21.5193628,132.65912498,137.689965036,21,5,24.966,9905.6434898808,85.958008,21.5193628,132.65912498,-21.474624,1.342164,-5.368656,175.6, -12.7, -1.8,0,0,1493,1024,1449,1024,71,0,64,0,0,0,0,99,4.136,4.173,4.184,4.121,4.175,4.177,0,32,9905.6434898808,85.958008,6,P-GPS,
13600,2023-10-10 00:43:21,38.4978003769408,-112.064232318962,86.94226,,,9906.6277418808,11.48294,21.5417322,135.712930852,140.86450582,21,5,24.966,9906.6277418808,86.94226,21.5417322,135.712930852,-21.474624,1.565858,-5.59235,175.5, -11.4, -1.6,0,0,1499,1024,1418,1036,72,0,60,2,0,0,0,99,4.136,4.173,4.184,4.121,4.175,4.177,0,32,9906.6277418808,86.94226,6,P-GPS,
13700,2023-10-10 00:43:21,38.4977917108708,-112.064231524959,87.598428,,,9907.2839098808,11.48294,21.7654262,138.76968948,144.034453428,21,5,24.966,9907.2839098808,87.598428,21.7654262,138.76968948,-21.698318,1.565858,-5.59235,175.4, -10.7, -1.1,0,0,1506,1024,1399,1024,73,0,57,0,0,0,0,99,4.136,4.173,4.184,4.121,4.175,4.177,0,32,9907.2839098808,87.598428,6,P-GPS,
13800,2023-10-10 00:43:21,38.4977829603697,-112.064230685364,88.58268,,,9908.2681618808,11.48294,21.7654262,141.864833936,147.2358971,21,5,24.966,9908.2681618808,88.58268,21.7654262,141.864833936,-21.698318,1.565858,-5.59235,175.4, -11, -0.8,0,0,1517,1024,1410,1024,75,0,58,0,0,0,0,99,4.136,4.173,4.184,4.121,4.175,4.177,0,32,9908.2681618808,88.58268,6,P-GPS,
13900,2023-10-10 00:43:21,38.4977743221467,-112.064229822486,89.238848,,,9908.9243298808,11.48294,21.7654262,144.92782616,150.397314524,21,5,24.966,9908.9243298808,89.238848,21.7654262,144.92782616,-21.698318,1.789552,-5.368656,175.4, -11.9, -0.6,0,0,1522,1024,1417,1024,75,0,60,0,0,0,0,99,4.136,4.173,4.184,4.121,4.175,4.177,0,32,9908.9243298808,89.238848,6,P-GPS,
14000,2023-10-10 00:43:22,38.4977655240352,-112.064228927276,90.2231,,,9909.9085818808,11.48294,21.9891202,148.053482428,153.617458984,21,5,24.966,9909.9085818808,90.2231,21.9891202,148.053482428,-21.922012,1.789552,-5.368656,175.3, -12.9, -0.3,0,0,1539,1024,1387,1024,78,0,55,0,0,0,0,99,4.136,4.173,4.184,4.121,4.175,4.177,0,32,9909.9085818808,90.2231,6,P-GPS,
14100,2023-10-10 00:43:22,38.4977575698936,-112.064228569374,90.879268,,,9910.5647498808,11.48294,21.9891202,150.842852596,156.521330468,20,5,24.966,9910.5647498808,90.879268,21.9891202,150.842852596,-21.922012,1.789552,-5.368656,175.3, -13.7, 0,0,0,1536,1024,1381,1024,78,0,54,0,0,0,0,99,4.136,4.173,4.184,4.121,4.175,4.177,0,32,9910.5647498808,90.879268,6,P-GPS,
14200,2023-10-10 00:43:22,38.4977487220482,-112.064227675466,91.86352,,,9911.5490018808,11.48294,21.9891202,153.993443248,159.759519548,20,5,24.966,9911.5490018808,91.86352,21.9891202,153.993443248,-21.922012,1.789552,-5.144962,175.3, -14.6, 0,0,0,1549,1024,1371,1038,80,0,53,2,0,0,0,99,4.136,4.173,4.184,4.121,4.175,4.177,0,32,9911.5490018808,91.86352,6,P-GPS,
14300,2023-10-10 00:43:22,38.4977396173126,-112.064226657823,92.519688,,,9912.2051698808,11.48294,22.2128142,157.247708444,163.094165324,21,5,24.966,9912.2051698808,92.519688,22.2128142,157.247708444,-22.145706,1.789552,-4.921268,175.3, -15.5, 0.1,0,0,1550,1024,1356,1036,80,0,50,2,0,0,0,99,4.136,4.173,4.184,4.121,4.175,4.177,0,32,9912.2051698808,92.519688,6,P-GPS,
14400,2023-10-10 00:43:22,38.4977306038929,-112.064225730763,93.175856,,,9912.8613378808,11.48294,22.4365082,160.465556316,166.393378028,21,5,24.952,9912.8613378808,93.175856,22.4365082,160.465556316,-22.3694,1.789552,-4.697574,175.3, -15.9, 0.1,0,0,1555,1024,1347,1031,80,0,49,1,0,0,0,99,4.18,4.132,4.165,4.167,4.14,4.168,0,32,9912.8613378808,93.175856,6,P-GPS,
14500,2023-10-10 00:43:22,38.4977216340075,-112.06422501243,93.832024,,,9913.5175058808,11.48294,22.6602022,163.654204712,169.672249524,21,5,24.952,9913.5175058808,93.832024,22.6602022,163.654204712,-22.593094,1.789552,-4.47388,175.4, -16, 0,0,0,1569,1024,1347,1024,83,0,49,0,0,0,0,99,4.18,4.132,4.165,4.167,4.14,4.168,0,32,9913.5175058808,93.832024,6,P-GPS,
14600,2023-10-10 00:43:22,38.4977124682691,-112.064224082909,94.488192,,,9914.1736738808,11.48294,22.8838962,166.93242004,173.026908424,21,5,24.952,9914.1736738808,94.488192,22.8838962,166.93242004,-22.816788,1.789552,-4.250186,175.5, -16, 0,0,0,1588,1024,1317,1024,85,0,44,0,0,0,0,99,4.18,4.132,4.165,4.167,4.14,4.168,0,32,9914.1736738808,94.488192,6,P-GPS,
14700,2023-10-10 00:43:22,38.497702943638,-112.064222985109,95.14436,,,9914.8298418808,11.48294,23.1075902,170.352367656,176.516081764,20,5,24.952,9914.8298418808,95.14436,23.1075902,170.352367656,-23.040482,1.789552,-4.250186,175.5, -15.9, 0,0,0,1569,1024,1327,1024,83,0,46,0,0,0,0,99,4.18,4.132,4.165,4.167,4.14,4.168,0,32,9914.8298418808,95.14436,6,P-GPS,
14800,2023-10-10 00:43:22,38.4976935919453,-112.064222022719,95.800528,,,9915.4860098808,11.48294,23.3312842,173.7040738,179.938982136,20,5,24.952,9915.4860098808,95.800528,23.3312842,173.7040738,-23.264176,1.789552,-4.026492,175.5, -16, 0,0,0,1550,1024,1337,1024,80,0,47,0,0,0,0,99,4.18,4.132,4.165,4.167,4.14,4.168,0,32,9915.4860098808,95.800528,6,P-GPS,
14900,2023-10-10 00:43:22,38.497684513207,-112.064221067682,96.456696,,,9916.1421778808,11.48294,23.5549782,176.96194792,183.26280114,20,5,24.952,9916.1421778808,96.456696,23.5549782,176.96194792,-23.48787,1.789552,-3.802798,175.5, -16.6, -0.2,0,0,1574,1024,1307,1024,83,0,43,0,0,0,0,99,4.18,4.132,4.165,4.167,4.14,4.168,0,32,9916.1421778808,96.456696,6,P-GPS,
15000,2023-10-10 00:43:23,38.4976750320417,-112.064220074514,96.78478,,,9916.4702618808,11.48294,24.0247356,180.366475588,186.733601776,20,5,24.952,9916.4702618808,96.78478,24.0247356,180.366475588,-23.935258,2.013246,-3.802798,175.4, -16.4, -0.1,0,0,1565,1024,1323,1024,82,0,45,0,0,0,0,99,4.18,4.132,4.165,4.167,4.14,4.168,0,32,9916.4702618808,96.78478,6,P-GPS,
15100,2023-10-10 00:43:23,38.4976650764859,-112.064218905475,97.440948,,,9917.1264298808,11.48294,24.2484296,183.953746044,190.381239688,20,5,24.952,9917.1264298808,97.440948,24.2484296,183.953746044,-24.158952,2.013246,-3.579104,175.4, -16.2, 0,0,0,1570,1024,1309,1024,83,0,43,0,0,0,0,99,4.18,4.132,4.165,4.167,4.14,4.168,0,32,9917.1264298808,97.440948,6,P-GPS,
15200,2023-10-10 00:43:23,38.4976553947065,-112.064217866759,98.097116,,,9917.7825978808,11.48294,24.4721236,187.437013872,193.925859224,20,5,24.952,9917.7825978808,98.097116,24.4721236,187.437013872,-24.382646,2.013246,-3.579104,175.4, -16, 0.1,0,0,1588,1024,1292,1024,85,0,41,0,0,0,0,99,4.18,4.132,4.165,4.167,4.14,4.168,0,32,9917.7825978808,98.097116,6,P-GPS,
15300,2023-10-10 00:43:23,38.49764447845,-112.064216690521,98.4252,,,9918.1106818808,11.48294,24.6958176,191.367788276,197.922906596,20,5,24.952,9918.1106818808,98.4252,24.6958176,191.367788276,-24.60634,2.013246,-3.35541,175.4, -15.8, 0.1,0,0,1573,1024,1326,1024,83,0,46,0,0,0,0,99,4.18,4.132,4.165,4.167,4.14,4.168,0,32,9918.1106818808,98.4252,6,P-GPS,
15400,2023-10-10 00:43:23,38.4976345382391,-112.064215617831,98.753284,,,9918.4387658808,11.48294,24.9195116,194.949481304,201.562342408,20,5,24.952,9918.4387658808,98.753284,24.9195116,194.949481304,-24.830034,2.013246,-3.131716,175.4, -16.1, 0,0,0,1573,1024,1322,1024,83,0,45,0,0,0,0,99,4.18,4.132,4.165,4.167,4.14,4.168,0,32,9918.4387658808,98.753284,6,P-GPS,
15500,2023-10-10 00:43:23,38.4976244085802,-112.064214307168,99.409452,,,9919.0949338808,11.48294,25.1432056,198.617460424,205.27723754,20,5,25.08,9919.0949338808,99.409452,25.1432056,198.617460424,-25.053728,2.013246,-3.131716,175.3, -15.9, 0,0,0,1576,1024,1310,1024,84,0,43,0,0,0,0,99,4.163,4.181,4.202,4.156,4.183,4.195,0,32,9919.0949338808,99.409452,6,P-GPS,
15600,2023-10-10 00:43:23,38.497614280497,-112.064213184411,99.737536,,,9919.4230178808,11.48294,25.1432056,202.272972352,208.98622716,20,5,25.08,9919.4230178808,99.737536,25.1432056,202.272972352,-25.277422,2.013246,-3.131716,175.2, -15.2, 0.2,0,0,1574,1024,1304,1024,83,0,42,0,0,0,0,99,4.163,4.181,4.202,4.156,4.183,4.195,0,32,9919.4230178808,99.737536,6,P-GPS,
15700,2023-10-10 00:43:23,38.497604068873,-112.064211970687,100.06562,,,9919.7511018808,11.48294,25.3668996,205.966542024,212.72802518,20,5,25.08,9919.7511018808,100.06562,25.3668996,205.966542024,-25.277422,2.23694,-3.131716,175.2, -15.1, 0.3,0,0,1577,1024,1302,1024,84,0,42,0,0,0,0,99,4.163,4.181,4.202,4.156,4.183,4.195,0,32,9919.7511018808,100.06562,6,P-GPS,
15800,2023-10-10 00:43:23,38.497593799603,-112.064210815095,100.721788,,,9920.4072698808,11.48294,25.5905936,209.677828232,216.489180156,20,5,25.08,9920.4072698808,100.721788,25.5905936,209.677828232,-25.501116,2.23694,-3.131716,175.2, -15.3, 0.3,0,0,1572,1024,1285,1024,83,0,40,0,0,0,0,99,4.163,4.181,4.202,4.156,4.183,4.195,0,32,9920.4072698808,100.721788,6,P-GPS,
15900,2023-10-10 00:43:23,38.4975833500645,-112.064209820363,101.049872,,,9920.7353538808,11.48294,25.8142876,213.443576384,220.312343008,21,5,25.08,9920.7353538808,101.049872,25.8142876,213.443576384,-25.72481,2.23694,-3.131716,175.2, -15.9, 0.5,0,0,1534,1024,1289,1024,77,0,40,0,0,0,0,99,4.163,4.181,4.202,4.156,4.183,4.195,0,32,9920.7353538808,101.049872,6,P-GPS,
16000,2023-10-10 00:43:24,38.4975729216252,-112.064208663928,101.70604,,,9921.3915218808,11.48294,26.0379816,217.215230048,224.131568852,21,5,25.08,9921.3915218808,101.70604,26.0379816,217.215230048,-25.948504,2.23694,-2.908022,175.2, -16.2, 0.5,0,0,1556,1024,1293,1024,81,0,41,0,0,0,0,99,4.163,4.181,4.202,4.156,4.183,4.195,0,32,9921.3915218808,101.70604,6,P-GPS,
16100,2023-10-10 00:43:24,38.4975622262257,-112.064207412764,102.034124,,,9921.7196058808,11.48294,26.2616756,221.08924592,228.049876064,21,5,25.08,9921.7196058808,102.034124,26.2616756,221.08924592,-26.172198,2.23694,-2.908022,175.1, -15.7, 0.6,0,0,1551,1024,1320,1024,80,0,45,0,0,0,0,99,4.163,4.181,4.202,4.156,4.183,4.195,0,32,9921.7196058808,102.034124,6,P-GPS,
16200,2023-10-10 00:43:24,38.4975516149492,-112.064206214752,102.362208,,,9922.0476898808,11.48294,26.2616756,224.931437644,231.936687212,21,5,25.08,9922.0476898808,102.362208,26.2616756,224.931437644,-26.172198,2.23694,-2.908022,175.1, -14.7, 0.8,0,0,1570,1024,1291,1024,83,0,40,0,0,0,0,99,4.163,4.181,4.202,4.156,4.183,4.195,0,32,9922.0476898808,102.362208,6,P-GPS,
16300,2023-10-10 00:43:24,38.4975407700739,-112.064205169613,102.690292,,,9922.3757738808,11.48294,26.4853696,228.847776352,235.904535108,21,5,25.08,9922.3757738808,102.690292,26.4853696,228.847776352,-26.395892,2.23694,-2.908022,175.2, -13.7, 0.9,0,0,1581,1024,1289,1024,84,0,40,0,0,0,0,99,4.163,4.181,4.202,4.156,4.183,4.195,0,32,9922.3757738808,102.690292,6,P-GPS,
16400,2023-10-10 00:43:24,38.4975300141168,-112.064203980705,103.34646,,,9923.0319418808,11.48294,26.7090636,232.744101936,239.843511612,21,5,25.08,9923.0319418808,103.34646,26.7090636,232.744101936,-26.619586,2.23694,-2.908022,175.3, -13.5, 0.8,0,0,1583,1024,1289,1024,85,0,40,0,0,0,0,99,4.163,4.181,4.202,4.156,4.183,4.195,0,32,9923.0319418808,103.34646,6,P-GPS,
16500,2023-10-10 00:43:24,38.4975192773409,-112.064202821032,103.674544,,,9923.3600258808,11.48294,26.7090636,236.632881588,243.774942184,21,5,25.023,9923.3600258808,103.674544,26.7090636,236.632881588,-26.619586,2.23694,-2.908022,175.4, -14.1, 0.7,0,0,1595,1024,1293,1024,87,0,41,0,0,0,0,99,4.173,4.167,4.173,4.177,4.164,4.169,0,32,9923.3600258808,103.674544,6,P-GPS,
16600,2023-10-10 00:43:24,38.4975084365073,-112.064201627506,104.002628,,,9923.6881098808,11.48294,26.9327576,240.562015572,247.744758584,21,5,25.023,9923.6881098808,104.002628,26.9327576,240.562015572,-26.84328,2.23694,-2.908022,175.3, -14.8, 0.5,0,0,1573,1024,1294,1024,83,0,41,0,0,0,0,99,4.173,4.167,4.173,4.177,4.164,4.169,0,32,9923.6881098808,104.002628,6,P-GPS,
16700,2023-10-10 00:43:24,38.4974974185908,-112.064200536764,104.330712,,,9924.0161938808,11.48294,26.9327576,244.549220424,251.77658286,21,5,25.023,9924.0161938808,104.330712,26.9327576,244.549220424,-26.84328,2.23694,-2.908022,175.3, -15.2, 0.7,0,0,1573,1024,1294,1024,83,0,41,0,0,0,0,99,4.173,4.167,4.173,4.177,4.164,4.169,0,32,9924.0161938808,104.330712,6,P-GPS,
16800,2023-10-10 00:43:24,38.4974864378719,-112.064199327482,104.98688,,,9924.6723618808,11.48294,27.1564516,248.5318321,255.797908448,21,5,25.023,9924.6723618808,104.98688,27.1564516,248.5318321,-27.066974,2.23694,-2.908022,175.3, -14.9, 0.8,0,0,1597,1024,1266,1024,87,0,37,0,0,0,0,99,4.173,4.167,4.173,4.177,4.164,4.169,0,32,9924.6723618808,104.98688,6,P-GPS,
16900,2023-10-10 00:43:24,38.4974755189438,-112.064198212844,105.314964,,,9925.0004458808,11.48294,27.3801456,252.487868972,259.794299652,21,5,25.023,9925.0004458808,105.314964,27.3801456,252.487868972,-27.290668,2.23694,-2.908022,175.4, -14.8, 0.7,0,0,1604,1024,1266,1024,88,0,37,0,0,0,0,99,4.173,4.167,4.173,4.177,4.164,4.169,0,32,9925.0004458808,105.314964,6,P-GPS,
