time(millisecond),datetime(utc),latitude,longitude,height_above_takeoff(feet),height_above_ground_at_drone_location(feet),ground_elevation_at_drone_location(feet),altitude_above_seaLevel(feet),height_sonar(feet),speed(mph),distance(feet),mileage(feet),satellites,gpslevel,voltage(v),max_altitude(feet),max_ascent(feet),max_speed(mph),max_distance(feet), xSpeed(mph), ySpeed(mph), zSpeed(mph), compass_heading(degrees), pitch(degrees), roll(degrees),isPhoto,isVideo,rc_elevator,rc_aileron,rc_throttle,rc_rudder,rc_elevator(percent),rc_aileron(percent),rc_throttle(percent),rc_rudder(percent),gimbal_heading(degrees),gimbal_pitch(degrees),gimbal_roll(degrees),battery_percent,voltageCell1,voltageCell2,voltageCell3,voltageCell4,voltageCell5,voltageCell6,current(A),battery_temperature(f),altitude(feet),ascent(feet),flycStateRaw,flycState,message
0,2023-10-08 20:28:59,38.4982482926341,-112.064396815394,0,Available with any HD 360 subscription,Available with any HD 360 subscription,9821.5910282017,0.656168,0,0,0,22,5,0,9821.5910282017,0,0,0,0,0,0,92.1, -2, 0.2,0,0,364,364,364,1684,-100,-100,-100,100,0,0,0,58,,,,,,,0,32,9821.5910282017,0,41,Motors_Started,
100,2023-10-08 20:29:00,38.4982482639203,-112.064396947299,0,,,9821.5910282017,0.656168,0,0.039094161356,0.039094161356,22,5,0,9821.5910282017,0,0,0.039094161356,0,0,0,92, -2, 0.2,0,0,364,364,364,1684,-100,-100,-100,100,0,0,0,58,,,,,,,0,32,9821.5910282017,0,41,Motors_Started,
200,2023-10-08 20:29:00,38.4982482736895,-112.064396966517,0,,,9821.5910282017,0.656168,0,0.043701773052,0.045637468652,22,5,0,9821.5910282017,0,0,0.043701773052,0,0,0,92.1, -2, 0.2,0,0,364,364,364,1684,-100,-100,-100,100,0,0,0,58,,,,,,,0,32,9821.5910282017,0,41,Motors_Started,
300,2023-10-08 20:29:00,38.4982484110476,-112.064396920144,0,,,9821.5910282017,0.656168,0,0.052546589608,0.097472444064,22,5,0,9821.5910282017,0,0,0.052546589608,0,0,0,92.1, -2, 0.2,0,0,364,364,364,1684,-100,-100,-100,100,0,0,0,58,,,,,,,0,32,9821.5910282017,0,41,Motors_Started,
400,2023-10-08 20:29:00,38.4982484320252,-112.064396933376,0,,,9821.5910282017,0.656168,0,0.061002626624,0.106007877408,22,5,0,9821.5910282017,0,0,0.061002626624,0,0,0,92.1, -2, 0.2,0,0,364,364,364,1684,-100,-100,-100,100,0,0,0,58,,,,,,,0,32,9821.5910282017,0,41,Motors_Started,
500,2023-10-08 20:29:00,38.4982482296864,-112.064396898524,0,,,9821.5910282017,0.656168,0,0.033028872448,0.18049869344,22,5,0,9821.5910282017,0,0,0.061002626624,0,0,0,92.1, -2, 0.2,0,0,364,364,364,1684,-100,-100,-100,100,0,0,0,58,,,,,,,0,32,9821.5910282017,0,41,Motors_Started,
600,2023-10-08 20:29:00,38.498248230972,-112.0643969063,0,,,9821.5910282017,0.656168,0,0.034350066716,0.182768050468,22,5,0,9821.5910282017,0,0,0.061002626624,0,0,0,92.1, -2, 0.2,0,0,757,750,799,1155,-40,-42,-34,20,0,0,0,58,,,,,,,0,32,9821.5910282017,0,41,Motors_Started,
700,2023-10-08 20:29:00,38.4982483822002,-112.064396880093,0,,,9821.5910282017,0.656168,0,0.037538715112,0.238448826528,22,5,0,9821.5910282017,0,0,0.061002626624,0,0,0,92, -2, 0.2,0,0,1024,1024,1024,1024,0,0,0,0,0,0,0,58,,,,,,,0,32,9821.5910282017,0,41,Motors_Started,
800,2023-10-08 20:29:00,38.4982483972633,-112.064396882625,0,,,9821.5910282017,0.656168,0,0.042729003992,0.243991805708,22,5,0,9821.5910282017,0,0,0.061002626624,0,0,0,92.1, -2, 0.2,0,0,1024,1024,1024,1024,0,0,0,0,0,0,0,58,,,,,,,0,32,9821.5910282017,0,41,Motors_Started,"Setting new Return-To-Home altitude to 61m (200 ft). Data Recorder File Index is 32. Setting new Maximum Flight Altitude to 500m (1640 ft)"
900,2023-10-08 20:29:00,38.4982482054083,-112.064396862829,0,,,9821.5910282017,0.656168,0,0.03458661528,0.314217857824,22,5,0,9821.5910282017,0,0,0.061002626624,0,0,0,92.4, -2, 0.2,0,0,1024,1024,1024,1024,0,0,0,0,0,0,0,58,,,,,,,0,32,9821.5910282017,0,41,Motors_Started,
1000,2023-10-08 20:29:00,38.4982482019774,-112.064396862312,0,,,9821.5910282017,0.656168,0,0.035686352848,0.315478356552,22,5,0,9821.5910282017,0,0,0.061002626624,0,0,0,92.3, -1.9, 0.2,0,0,1024,1024,1024,1024,0,0,0,0,0,0,0,58,,,,,,,0,32,9821.5910282017,0,41,Motors_Started,
1100,2023-10-08 20:29:01,38.4982482019614,-112.064396847928,0,,,9821.5910282017,0.656168,0,0.034361549656,0.319585640148,22,5,0,9821.5910282017,0,0,0.061002626624,0,0,0,92.2, -1.9, 0.2,0,0,1024,1024,1024,1024,0,0,0,0,0,0,0,58,,,,,,,0,32,9821.5910282017,0,41,Motors_Started,
1200,2023-10-08 20:29:01,38.4982481988817,-112.064396844681,0,,,9821.5910282017,0.656168,0,0.035212927636,0.321042333108,22,5,0,9821.5910282017,0,0,0.061002626624,0,0,0,92.1, -1.9, 0.2,0,0,1024,1024,1024,1024,0,0,0,0,0,0,0,58,,,,,,,0,32,9821.5910282017,0,41,Motors_Started,
1300,2023-10-08 20:29:01,38.4982482175124,-112.064396859274,0,,,9821.5910282017,0.656168,0,0.03013615582,0.32901575856,22,5,0,9821.5910282017,0,0,0.061002626624,0,0,0,92, -2, 0.2,0,0,1024,1024,1024,1024,0,0,0,0,0,0,0,58,,,,,,,0,32,9821.5910282017,0,41,Motors_Started,
1400,2023-10-08 20:29:01,38.4982482145163,-112.064396855138,0,,,9821.5910282017,0.656168,0,0.0306774616116,0.33062337016,22,5,0,9821.5910282017,0,0,0.061002626624,0,0,0,92, -2, 0.2,0,0,1024,1024,1024,1024,0,0,0,0,0,0,0,58,,,,,,,0,32,9821.5910282017,0,41,Motors_Started,
1500,2023-10-08 20:29:01,38.4982483943445,-112.064397031215,0,,,9821.5910282017,0.656168,0,0.071936025924,0.41328413396,22,5,0,9821.5910282017,0,0,0.071936025924,0,0,0,92, -1.9, 0.2,0,0,1024,1024,1024,1024,0,0,0,0,0,0,0,58,,,,,,,0,32,9821.5910282017,0,41,Motors_Started,
1600,2023-10-08 20:29:01,38.4982484086289,-112.064397040316,0,,,9821.5910282017,0.656168,0,0.07691437254,0.41910762496,22,5,0,9821.5910282017,0,0,0.07691437254,0,0,0,92, -1.9, 0.2,0,0,1024,1024,1024,1024,0,0,0,0,0,0,0,58,,,,,,,0,32,9821.5910282017,0,41,Motors_Started,
1700,2023-10-08 20:29:01,38.4982481990053,-112.064396818562,0,,,9821.5910282017,0.656168,0,0.034172245188,0.51839896672,22,5,0,9821.5910282017,0,0,0.07691437254,0,0,0,91.9, -1.9, 0.2,0,0,1024,1024,1024,1024,0,0,0,0,0,0,0,58,,,,,,,0,32,9821.5910282017,0,41,Motors_Started,
1800,2023-10-08 20:29:01,38.4982481946082,-112.064396806996,0,,,9821.5910282017,0.656168,0,0.035845145504,0.52207022668,22,5,0,9821.5910282017,0,0,0.07691437254,0,0,0,91.9, -2, 0.2,0,0,1024,1024,1024,1024,0,0,0,0,0,0,0,58,,,,,,,0,32,9821.5910282017,0,41,Motors_Started,
1900,2023-10-08 20:29:01,38.4982482081239,-112.064396825764,0,,,9821.5910282017,0.656168,0,0.0309753618836,0.52935369148,22,5,0,9821.5910282017,0,0,0.07691437254,0,0,0,91.9, -1.9, 0.2,0,0,1024,1024,1024,1024,0,0,0,0,0,0,0,58,,,,,,,0,32,9821.5910282017,0,41,Motors_Started,
2000,2023-10-08 20:29:02,38.4982482054458,-112.064396815438,0,,,9821.5910282017,0.656168,0,0.0318105981308,0.53245736612,22,5,0,9821.5910282017,0,0,0.07691437254,0,0,0,91.9, -1.9, 0.2,0,0,1024,1024,1024,1024,0,0,0,0,0,0,0,58,,,,,,,0,32,9821.5910282017,0,10,Assisted_Takeoff,
2100,2023-10-08 20:29:02,38.4982483796803,-112.064396832112,0,,,9821.5910282017,0.656168,0,0.0321155522088,0.59620736816,22,5,0,9821.5910282017,0,0,0.07691437254,0,0,0,91.8, -1.9, 0.2,0,0,1024,1024,1024,1024,0,0,0,0,0,0,0,58,,,,,,,0,32,9821.5910282017,0,10,Assisted_Takeoff,
2200,2023-10-08 20:29:02,38.4982483933532,-112.064396822279,0,,,9821.5910282017,0.656168,0,0.036799869944,0.60192915312,22,5,0,9821.5910282017,0,0,0.07691437254,0,0,0,91.8, -1.9, 0.2,0,0,1024,1024,1024,1024,0,0,0,0,0,0,0,58,,,,,,,0,32,9821.5910282017,0,10,Assisted_Takeoff,
2300,2023-10-08 20:29:02,38.4982482169891,-112.064396839584,0,,,9821.5910282017,0.656168,0,0.0284501977608,0.66646655676,22,5,0,9821.5910282017,0,0,0.07691437254,0,0,0,91.8, -1.9, 0.2,0,0,1024,1024,1033,1024,0,0,1,0,0,0,0,58,,,,,,,0,32,9821.5910282017,0,10,Assisted_Takeoff,
2400,2023-10-08 20:29:02,38.4982482146934,-112.064396830261,0,,,9821.5910282017,0.656168,0,0.0287517069568,0.66925527076,22,5,0,9821.5910282017,0,0,0.07691437254,0,0,0,91.8, -2, 0.2,0,0,1024,1024,1089,1024,0,0,10,0,0,0,0,58,,,,,,,0,32,9821.5910282017,0,10,Assisted_Takeoff,
2500,2023-10-08 20:29:02,38.4982482215491,-112.064396844556,0,,,9821.5910282017,0.656168,0,0.0272392397168,0.67404529716,22,5,0,9821.5910282017,0,0,0.07691437254,0,0,0,91.8, -2, 0.2,0,0,1024,1024,1105,1024,0,0,12,0,0,0,0,58,,,,,,,0,32,9821.5910282017,0,10,Assisted_Takeoff,
2600,2023-10-08 20:29:02,38.4982482201798,-112.064396837205,0,,,9821.5910282017,0.656168,0,0.0271585638612,0.67620080904,22,5,0,9821.5910282017,0,0,0.07691437254,0,0,0,91.8, -1.9, 0.2,0,0,1024,1024,1138,1024,0,0,17,0,0,0,0,58,,,,,,,0,32,9821.5910282017,0,10,Assisted_Takeoff,
2700,2023-10-08 20:29:02,38.49824822862,-112.064396851915,0,,,9821.5910282017,0.656168,0,0.0255777895324,0.68141078296,22,5,0,9821.5910282017,0,0,0.07691437254,0,0,0,91.8, -1.9, 0.2,0,0,1024,1024,1183,1024,0,0,24,0,0,0,0,58,,,,,,,0,32,9821.5910282017,0,10,Assisted_Takeoff,
2800,2023-10-08 20:29:02,38.4982482299078,-112.064396846242,0,,,9821.5910282017,0.656168,0,0.0245221792624,0.68309713472,22,5,0,9821.5910282017,0,0,0.07691437254,0,0,0,91.8, -1.9, 0.2,0,0,1024,1024,1224,1024,0,0,30,0,0,0,0,58,,,,,,,0,32,9821.5910282017,0,10,Assisted_Takeoff,
2900,2023-10-08 20:29:02,38.4982482352252,-112.064396860118,0,,,9821.5910282017,0.656168,0,0.02453166089,0.68750986452,22,5,0,9821.5910282017,0,0,0.07691437254,0,0,0,91.7, -1.9, 0.2,0,0,1024,1024,1261,1024,0,0,36,0,0,0,0,58,,,,,,,0,32,9821.5910282017,0,10,Assisted_Takeoff,
3000,2023-10-08 20:29:03,38.4982482377545,-112.064396855061,0,,,9821.5910282017,0.656168,0,0.02300442987,0.689222463,22,5,0,9821.5910282017,0,0,0.07691437254,0,0,0,91.7, -1.9, 0.2,0,0,1024,1024,1289,1024,0,0,40,0,0,0,0,58,,,,,,,0,32,9821.5910282017,0,10,Assisted_Takeoff,
3100,2023-10-08 20:29:03,38.4982482420563,-112.06439686639,0,,,9821.5910282017,0.656168,0,0.0235065952404,0.69281826364,22,5,0,9821.5910282017,0,0,0.07691437254,0,0,0,91.7, -1.8, 0.2,0,0,1024,1024,1325,1024,0,0,46,0,0,0,0,58,,,,,,,0,32,9821.5910282017,0,10,Assisted_Takeoff,
3200,2023-10-08 20:29:03,38.498248245487,-112.064396862692,0,,,9821.5910282017,0.656168,0,0.0218699482064,0.6944554028,22,5,0,9821.5910282017,0,0,0.07691437254,0,0,0,91.7, -1.8, 0.2,0,0,1024,1024,1324,1024,0,0,45,0,0,0,0,58,,,,,,,0,32,9821.5910282017,0,10,Assisted_Takeoff,
3300,2023-10-08 20:29:03,38.4982482465651,-112.064396868207,0,,,9821.5910282017,0.656168,0,0.0225815952108,0.6960794186,22,5,0,9821.5910282017,0,0,0.07691437254,0,0,0,91.7, -1.8, 0.2,0,0,1024,1024,1322,1024,0,0,45,0,0,0,0,58,,,,,,,0,32,9821.5910282017,0,10,Assisted_Takeoff,
3400,2023-10-08 20:29:03,38.4982482489427,-112.064396867831,0,,,9821.5910282017,0.656168,0,0.021869915398,0.69695212204,22,5,0,9821.5910282017,0,0,0.07691437254,0,0,0,91.7, -1.6, 0.3,0,0,1024,1024,1329,1024,0,0,46,0,0,0,0,58,,,,,,,0,32,9821.5910282017,0,10,Assisted_Takeoff,
3500,2023-10-08 20:29:03,38.4982482431805,-112.064396713766,0,,,9821.5910282017,0.656168,0,0.034170932852,0.7409941182,22,5,0,9821.5910282017,0,0,0.07691437254,0,0,0,91.6, -1.5, 0.4,0,0,1024,1024,1356,1024,0,0,50,0,0,0,0,58,,,,,,,0,32,9821.5910282017,0,10,Assisted_Takeoff,
3600,2023-10-08 20:29:03,38.4982482454091,-112.064396696015,0,,,9821.5910282017,0.656168,0,0.038194555028,0.7461286328,22,5,0,9821.5910282017,0,0,0.07691437254,0,0,0,91.6, -1.4, 0.4,0,0,1024,1024,1356,1024,0,0,50,0,0,0,0,58,,,,,,,0,32,9821.5910282017,0,10,Assisted_Takeoff,
3700,2023-10-08 20:29:03,38.4982482429866,-112.064396734654,0,,,9821.5910282017,0.656168,0,0.029319390702,0.75719490612,22,5,0,9821.5910282017,0,0,0.07691437254,0,0,0,91.4, -1.1, 0.5,0,0,1024,1024,1387,1024,0,0,55,0,0,0,0,58,,,,,,,0,32,9821.5910282017,0,10,Assisted_Takeoff,
3800,2023-10-08 20:29:03,38.4982482455295,-112.064396750442,0,,,9821.5910282017,0.656168,0,0.0252849745624,0.76179792464,22,5,0,9821.5910282017,0,0,0.07691437254,0,0,0,91.3, -0.2, 0.6,0,0,1024,1024,1409,1024,0,0,58,0,0,0,0,58,,,,,,,0,32,9821.5910282017,0,10,Assisted_Takeoff,
3900,2023-10-08 20:29:03,38.4982482523561,-112.064396840392,0,,,9821.5910282017,0.656168,0,0.0163372380556,0.78760173124,22,5,0,9821.5910282017,0,0,0.07691437254,0,0,0,91, 1.6, 0.5,0,0,1024,1024,1417,1024,0,0,60,0,0,0,0,58,,,,,,,0,32,9821.5910282017,0,10,Assisted_Takeoff,
4000,2023-10-08 20:29:03,38.4982482466035,-112.064396933748,0,,,9821.5910282017,0.656168,0.223694,0.0377378621,0.81434385808,22,5,0,9821.5910282017,0,0.223694,0.07691437254,0,-0.223694,-0.223694,90, 5.9, 0.1,0,0,1024,1024,1422,1024,0,0,60,0,0,0,0,58,,,,,,,0,32,9821.5910282017,0,10,Assisted_Takeoff,
4100,2023-10-08 20:29:04,38.4982480609094,-112.064397157989,0,,,9821.5910282017,0.984252,0.447388,0.129295935896,0.907562365,22,5,0,9821.5910282017,0,0.447388,0.129295935896,0,-0.447388,-0.671082,89, 8.5, -0.1,0,0,1024,1024,1442,1024,0,0,63,0,0,0,0,58,,,,,,,0,32,9821.5910282017,0,6,P-GPS,
4200,2023-10-08 20:29:04,38.498247998434,-112.064397516144,0,,,9821.5910282017,0.984252,0.671082,0.227065624064,1.01233927124,22,5,0,9821.5910282017,0,0.671082,0.227065624064,0,-0.671082,-0.894776,88.2, 7.1, 0,0,0,1024,1024,1450,1024,0,0,65,0,0,0,0,58,,,,,,,0,32,9821.5910282017,0,6,P-GPS,
4300,2023-10-08 20:29:04,38.4982479710102,-112.064397968763,0.328084,,,9821.9191122017,0.984252,0.9171454,0.34961615292,1.14196854048,22,5,0,9821.9191122017,0.328084,0.9171454,0.34961615292,-0.223694,-0.894776,-1.342164,87.8, 3.3, 0.4,0,0,1024,1024,1469,1024,0,0,67,0,0,0,0,58,,,,,,,0,32,9821.9191122017,0.328084,6,P-GPS,
4400,2023-10-08 20:29:04,38.4982478509066,-112.064398515252,0.656168,,,9822.2471962017,1.312336,0.9171454,0.51143702424,1.30404859816,22,5,0,9822.2471962017,0.656168,0.9171454,0.51143702424,-0.223694,-0.894776,-1.789552,87.6, -0.6, 0.6,0,0,1024,1024,1510,1024,0,0,74,0,0,0,0,58,,,,,,,0,32,9822.2471962017,0.656168,6,P-GPS,
4500,2023-10-08 20:29:04,38.4982475864796,-112.064399239411,0.984252,,,9822.5752802017,1.64042,0.9171454,0.73855317324,1.53222445848,22,5,0,9822.5752802017,0.984252,0.9171454,0.73855317324,-0.223694,-0.894776,-2.23694,87.6, -2.5, 0.2,0,0,1024,1024,1533,1024,0,0,77,0,0,0,0,58,,,,,,,0,32,9822.5752802017,0.984252,6,P-GPS,
4600,2023-10-08 20:29:04,38.4982473974666,-112.064399691296,1.312336,,,9822.9033642017,1.968504,0.9171454,0.88375330912,1.67853023744,22,5,0,9822.9033642017,1.312336,0.9171454,0.88375330912,-0.447388,-0.671082,-2.684328,87.7, -2.5, -0.4,0,0,1024,1024,1537,1024,0,0,78,0,0,0,0,58,,,,,,,0,32,9822.9033642017,1.312336,6,P-GPS,
4700,2023-10-08 20:29:04,38.4982475332367,-112.064400011077,1.64042,,,9823.2314482017,2.624672,0.8052984,0.95363520112,1.78241147436,22,5,0,9823.2314482017,1.64042,0.9171454,0.95363520112,-0.447388,-0.671082,-3.131716,87.7, -2.1, -0.9,0,0,1024,1024,1543,1024,0,0,79,0,0,0,0,58,,,,,,,0,32,9823.2314482017,1.64042,6,P-GPS,
4800,2023-10-08 20:29:04,38.4982473421033,-112.064400329898,2.296588,,,9823.8876162017,2.952756,0.6263432,1.06176840668,1.89708667488,22,5,0,9823.8876162017,2.296588,0.9171454,1.06176840668,-0.447388,-0.447388,-3.579104,87.8, -2.1, -1.4,0,0,1024,1024,1577,1024,0,0,84,0,0,0,0,58,,,,,,,0,32,9823.8876162017,2.296588,6,P-GPS,
4900,2023-10-08 20:29:04,38.4982470510052,-112.064400410992,2.624672,,,9824.2157002017,3.608924,0.6263432,1.12218835612,2.00578746576,22,5,0,9824.2157002017,2.624672,0.9171454,1.12218835612,-0.447388,-0.447388,-4.250186,87.8, -2.3, -2,0,0,1024,1024,1595,1024,0,0,87,0,0,0,0,58,,,,,,,0,32,9824.2157002017,2.624672,6,P-GPS,
5000,2023-10-08 20:29:04,38.4982468636587,-112.064400576041,3.28084,,,9824.8718682017,4.265092,0.4921268,1.19369426392,2.08881568364,22,5,0,9824.8718682017,3.28084,0.9171454,1.19369426392,-0.447388,-0.223694,-4.921268,88, -2.6, -2.6,0,0,1024,1024,1601,1024,0,0,87,0,0,0,0,58,,,,,,,0,32,9824.8718682017,3.28084,6,P-GPS,
5100,2023-10-08 20:29:05,38.4982466090646,-112.064400740264,4.265092,,,9825.8561202017,4.92126,0.223694,1.27800529024,2.19286752424,22,5,0,9825.8561202017,4.265092,0.9171454,1.27800529024,-0.223694,0,-5.368656,88, -2.4, -2.7,0,0,1024,1024,1614,1024,0,0,89,0,0,0,0,58,,,,,,,0,32,9825.8561202017,4.265092,6,P-GPS,
5200,2023-10-08 20:29:05,38.4982464609152,-112.064400731265,4.92126,,,9826.5122882017,5.905512,0.223694,1.30263783696,2.2469816992,22,5,0,9826.5122882017,4.92126,0.9171454,1.30263783696,-0.223694,0,-6.039738,88.1, -1.8, -2.3,0,0,1024,1024,1628,1024,0,0,92,0,0,0,0,58,,,,,,,0,32,9826.5122882017,4.92126,6,P-GPS,
5300,2023-10-08 20:29:05,38.4982460239889,-112.064400828546,5.905512,,,9827.4965402017,6.889764,0.223694,1.41359256492,2.40879600884,22,5,0,9827.4965402017,5.905512,0.9171454,1.41359256492,-0.223694,0,-6.71082,88.2, -0.6, -1.7,0,0,1024,1024,1624,1024,0,0,91,0,0,0,0,58,,,,,,,0,32,9827.4965402017,5.905512,6,P-GPS,
5400,2023-10-08 20:29:05,38.4982458559528,-112.064400718644,6.889764,,,9828.4807922017,7.874016,0.223694,1.42567589864,2.47766740212,22,5,0,9828.4807922017,6.889764,0.9171454,1.42567589864,-0.223694,0,-7.605596,88.4, 0.5, -1.2,0,0,1024,1024,1611,1024,0,0,89,0,0,0,0,58,,,,,,,0,32,9828.4807922017,6.889764,6,P-GPS,
5500,2023-10-08 20:29:05,38.4982456781581,-112.064400716999,8.2021,,,9829.7931282017,8.858268,0.223694,1.46664702856,2.54253945144,22,5,0,9829.7931282017,8.2021,0.9171454,1.46664702856,-0.223694,0,-8.276678,88.5, 1.1, -1.4,0,0,1024,1024,1610,1024,0,0,89,0,0,0,0,58,,,,,,,0,32,9829.7931282017,8.2021,6,P-GPS,
5600,2023-10-08 20:29:05,38.4982454573987,-112.064400627761,9.514436,,,9831.1054642017,10.170604,0.447388,1.5016896806,2.6270178006,22,5,0,9831.1054642017,9.514436,0.9171454,1.5016896806,-0.447388,0,-8.724066,88.6, 0.4, -2.4,0,0,1024,1024,1608,1024,0,0,88,0,0,0,0,58,,,,,,,0,32,9831.1054642017,9.514436,6,P-GPS,
5700,2023-10-08 20:29:05,38.4982452744467,-112.064400681509,10.826772,,,9832.4178002017,11.154856,0.447388,1.55925529924,2.69550861644,22,5,0,9832.4178002017,10.826772,0.9171454,1.55925529924,-0.447388,0,-9.171454,88.6, -0.8, -3.5,0,0,1024,1024,1606,1024,0,0,88,0,0,0,0,58,,,,,,,0,32,9832.4178002017,10.826772,6,P-GPS,
5800,2023-10-08 20:29:05,38.498245065992,-112.064400560282,12.139108,,,9833.7301362017,12.467192,0.3131716,1.59038719,2.7790683304,22,5,0,9833.7301362017,12.139108,0.9171454,1.59038719,-0.223694,0.223694,-9.618842,88.6, -1.7, -4.2,0,0,1024,1024,1601,1024,0,0,87,0,0,0,0,58,,,,,,,0,32,9833.7301362017,12.139108,6,P-GPS,
5900,2023-10-08 20:29:05,38.49824476483,-112.064400324701,13.779528,,,9835.3705562017,13.779528,0.3131716,1.63118771624,2.90790363636,22,5,0,9835.3705562017,13.779528,0.9171454,1.63118771624,-0.223694,0.223694,-9.842536,88.6, -1.9, -4.9,0,0,1024,1024,1593,1024,0,0,86,0,0,0,0,58,,,,,,,0,32,9835.3705562017,13.779528,6,P-GPS,
6000,2023-10-08 20:29:06,38.4982446084865,-112.06440008683,15.091864,,,9836.6828922017,14.76378,0.4921268,1.6368766928,2.99660114576,23,5,0,9836.6828922017,15.091864,0.9171454,1.6368766928,-0.223694,0.447388,-10.06623,88.7, -1.3, -5.4,0,0,1024,1024,1581,1024,0,0,84,0,0,0,0,58,,,,,,,0,32,9836.6828922017,15.091864,6,P-GPS,
6100,2023-10-08 20:29:06,38.498244736071,-112.064399745438,16.732284,,,9838.3233122017,16.076116,0.447388,1.5439468998,3.1046260836,23,5,0,9838.3233122017,16.732284,0.9171454,1.6368766928,0,0.447388,-10.06623,88.8, -0.5, -5.4,0,0,1024,1024,1567,1024,0,0,82,0,0,0,0,58,,,,,,,0,32,9838.3233122017,16.732284,6,P-GPS,
6200,2023-10-08 20:29:06,38.4982446912046,-112.064399451028,18.04462,,,9839.6356482017,17.388452,0.447388,1.5142388936,3.1902724118,23,5,0,9839.6356482017,18.04462,0.9171454,1.6368766928,0,0.447388,-10.06623,89, -0.1, -4.5,0,0,1024,1024,1557,1076,0,0,81,8,0,0,0,58,,,,,,,0,32,9839.6356482017,18.04462,6,P-GPS,
6300,2023-10-08 20:29:06,38.4982445017523,-112.064399466542,19.68504,,,9841.2760682017,16.732284,0.447388,1.57671592972,3.25953422504,23,5,0,9841.2760682017,19.68504,0.9171454,1.6368766928,0,0.447388,-9.842536,89.4, 0, -3.3,0,0,1024,1024,1557,1076,0,0,81,8,0,0,0,58,,,,,,,0,32,9841.2760682017,19.68504,6,P-GPS,
6400,2023-10-08 20:29:06,38.4982444769846,-112.06439919054,20.997376,,,9842.5884042017,18.04462,0.447388,1.54854991832,3.3388452512,23,5,0,9842.5884042017,20.997376,0.9171454,1.6368766928,0,0.447388,-9.842536,89.8, 0.3, -2.5,0,0,1024,1024,1526,1158,0,0,76,20,0,0,0,58,,,,,,,0,32,9842.5884042017,20.997376,6,P-GPS,
6500,2023-10-08 20:29:06,38.4982443908665,-112.064398816429,22.637796,,,9844.2288242017,19.68504,0.447388,1.53394689948,3.4501969608,23,5,0,9844.2288242017,22.637796,0.9171454,1.6368766928,0,0.447388,-9.618842,90.1, 0.8, -2.6,0,0,1024,1024,1519,1201,0,0,75,27,0,0,0,58,,,,,,,0,32,9844.2288242017,22.637796,6,P-GPS,
6600,2023-10-08 20:29:06,38.4982443565492,-112.064398544094,23.950132,,,9845.5411602017,20.997376,0.447388,1.51854335568,3.5289699292,23,5,0,9845.5411602017,23.950132,0.9171454,1.6368766928,0,0.447388,-9.171454,90.6, 0.9, -3.2,0,0,1024,1024,1504,1261,0,0,73,36,0,0,0,58,,,,,,,0,32,9845.5411602017,23.950132,6,P-GPS,
6700,2023-10-08 20:29:06,38.4982443158423,-112.064398135214,25.262468,,,9846.8534962017,22.309712,0.447388,1.49907485112,3.64665366,23,5,0,9846.8534962017,25.262468,0.9171454,1.6368766928,0,0.447388,-8.724066,91.5, 1.1, -3.6,0,0,1024,1024,1505,1258,0,0,73,35,0,0,0,58,,,,,,,0,32,9846.8534962017,25.262468,6,P-GPS,
6800,2023-10-08 20:29:06,38.4982443059037,-112.064397873955,26.574804,,,9848.1658322017,23.622048,0.447388,1.4856299688,3.7213583868,23,5,0,9848.1658322017,26.574804,0.9171454,1.6368766928,0,0.447388,-8.500372,92.8, 1.5, -3.6,0,0,1024,1024,1505,1247,0,0,73,34,0,0,0,58,,,,,,,0,32,9848.1658322017,26.574804,6,P-GPS,
6900,2023-10-08 20:29:06,38.4982442024578,-112.064397563402,27.559056,,,9849.1500842017,24.934384,0.447388,1.50750660992,3.8177166576,23,5,0,9849.1500842017,27.559056,0.9171454,1.6368766928,0,0.447388,-8.052984,94.4, 1.6, -3.3,0,0,1024,1024,1509,1238,0,0,73,32,0,0,0,58,,,,,,,0,32,9849.1500842017,27.559056,6,P-GPS,
7000,2023-10-08 20:29:07,38.4982442188985,-112.064397335564,28.871392,,,9850.4624202017,25.918636,0.223694,1.49370411604,3.8830709904,23,5,0,9850.4624202017,28.871392,0.9171454,1.6368766928,0,0.223694,-7.605596,96.2, 1.7, -2.8,0,0,1024,1024,1512,1245,0,0,74,33,0,0,0,58,,,,,,,0,32,9850.4624202017,28.871392,6,P-GPS,
7100,2023-10-08 20:29:07,38.4982442821697,-112.064397273393,29.855644,,,9851.4466722017,26.574804,0.223694,1.46904860344,3.9121720412,23,5,0,9851.4466722017,29.855644,0.9171454,1.6368766928,0,0.223694,-7.381902,98, 2.1, -2.5,0,0,1024,1024,1515,1245,0,0,74,33,0,0,0,58,,,,,,,0,32,9851.4466722017,29.855644,6,P-GPS,
7200,2023-10-08 20:29:07,38.4982443291752,-112.064397110119,31.16798,,,9852.7590082017,26.574804,0.223694,1.44851382588,3.9618439588,23,5,0,9852.7590082017,31.16798,0.9171454,1.6368766928,0.223694,0.223694,-7.158208,99.7, 2.6, -2.3,0,0,1024,1024,1516,1245,0,0,75,33,0,0,0,58,,,,,,,0,32,9852.7590082017,31.16798,6,P-GPS,
7300,2023-10-08 20:29:07,38.4982443841358,-112.064397040658,32.152232,,,9853.7432602017,26.574804,0.223694,1.42746395644,3.9900591828,23,5,0,9853.7432602017,32.152232,0.9171454,1.6368766928,0.223694,0,-6.934514,101.4, 2.7, -2.2,0,0,1024,1024,1523,1245,0,0,76,33,0,0,0,58,,,,,,,0,32,9853.7432602017,32.152232,6,P-GPS,
7400,2023-10-08 20:29:07,38.4982444662456,-112.06439696506,33.136484,,,9854.7275122017,26.574804,0.223694,1.39670936228,4.0270014412,23,5,0,9854.7275122017,33.136484,0.9171454,1.6368766928,0.223694,0,-6.934514,103.1, 2.2, -1.8,0,0,1024,1024,1525,1221,0,0,76,30,0,0,0,58,,,,,,,0,32,9854.7275122017,33.136484,6,P-GPS,
7500,2023-10-08 20:29:07,38.4982444980718,-112.064396911467,34.120736,,,9855.7117642017,26.574804,0.223694,1.38471461124,4.0461943552,23,5,0,9855.7117642017,34.120736,0.9171454,1.6368766928,0.223694,0,-6.71082,104.8, 1.4, -1.3,0,0,1024,1024,1530,1218,0,0,77,29,0,0,0,58,,,,,,,0,32,9855.7117642017,34.120736,6,P-GPS,
7600,2023-10-08 20:29:07,38.4982445794949,-112.06439687634,35.104988,,,9856.6960162017,26.574804,0.223694,1.35484912472,4.0775591856,23,5,0,9856.6960162017,35.104988,0.9171454,1.6368766928,0.223694,0,-6.934514,106.3, 0.2, -0.6,0,0,1053,1024,1536,1217,4,0,78,29,0,0,0,58,,,,,,,0,32,9856.6960162017,35.104988,6,P-GPS,
7700,2023-10-08 20:29:07,38.498244665483,-112.064397151898,36.08924,,,9857.6802682017,26.574804,0.223694,1.32684715532,4.1622704744,23,5,0,9857.6802682017,36.08924,0.9171454,1.6368766928,0.223694,0,-6.934514,107.8, -0.5, -0.5,0,0,1066,1024,1534,1214,6,0,77,29,0,0,0,58,,,,,,,0,32,9857.6802682017,36.08924,6,P-GPS,
7800,2023-10-08 20:29:07,38.4982446972848,-112.064397091668,37.401576,,,9858.9926042017,26.574804,0,1.31413061948,4.1830053832,23,5,0,9858.9926042017,37.401576,0.9171454,1.6368766928,0,0,-7.158208,109.2, -0.7, -1,0,0,1090,1024,1534,1209,10,0,77,28,0,0,0,58,,,,,,,0,32,9858.9926042017,37.401576,6,P-GPS,
7900,2023-10-08 20:29:07,38.4982445923314,-112.064396847867,38.385828,,,9859.9768562017,26.574804,0.223694,1.35008534504,4.262467328,23,5,0,9859.9768562017,38.385828,0.9171454,1.6368766928,0,0.223694,-7.158208,110.5, -0.4, -1.4,0,0,1101,1024,1535,1204,12,0,77,27,0,0,0,58,,,,,,,0,32,9859.9768562017,38.385828,6,P-GPS,
8000,2023-10-08 20:29:07,38.4982445745355,-112.064396692202,39.37008,,,9860.9611082017,26.574804,0.223694,1.35700135576,4.3073820276,23,5,0,9860.9611082017,39.37008,0.9171454,1.6368766928,0,0.223694,-7.381902,111.8, 0.2, -1.6,0,0,1108,1024,1535,1192,13,0,77,25,0,0,0,58,,,,,,,0,32,9860.9611082017,39.37008,6,P-GPS,
8100,2023-10-08 20:29:08,38.4982445037568,-112.06439681614,40.682416,,,9862.2734442017,26.574804,0.223694,1.38236881064,4.3511812416,23,5,0,9862.2734442017,40.682416,0.9171454,1.6368766928,0,0.223694,-7.381902,113.1, 1, -1.5,0,0,1110,1024,1536,1188,13,0,78,25,0,0,0,58,,,,,,,0,32,9862.2734442017,40.682416,6,P-GPS,
8200,2023-10-08 20:29:08,38.4982444686726,-112.064396635774,41.666668,,,9863.2576962017,26.574804,0.223694,1.3961122494,4.4042652328,23,5,0,9863.2576962017,41.666668,0.9171454,1.6368766928,0,0.223694,-7.605596,114.2, 1.3, -1.1,0,0,1119,1024,1538,1189,14,0,78,25,0,0,0,58,,,,,,,0,32,9863.2576962017,41.666668,6,P-GPS,
8300,2023-10-08 20:29:08,38.4982445861747,-112.064396286012,42.65092,,,9864.2419482017,26.574804,0.223694,1.36072182832,4.5129266536,23,5,0,9864.2419482017,42.65092,0.9171454,1.6368766928,0,0.223694,-7.605596,115.2, 1.2, -0.8,0,0,1122,1024,1559,1190,15,0,81,25,0,0,0,58,,,,,,,0,32,9864.2419482017,42.65092,6,P-GPS,
8400,2023-10-08 20:29:08,38.4982445571673,-112.064396086631,43.963256,,,9865.5542842017,26.574804,0.223694,1.37867786564,4.5708334796,23,5,0,9865.5542842017,43.963256,0.9171454,1.6368766928,0,0.223694,-7.605596,116.3, 0.7, -0.7,0,0,1115,1024,1562,1184,14,0,82,24,0,0,0,58,,,,,,,0,32,9865.5542842017,43.963256,6,P-GPS,
8500,2023-10-08 20:29:08,38.4982446229892,-112.064395723584,44.947508,,,9866.5385362017,26.574804,0.223694,1.37468508336,4.6772639292,23,5,0,9866.5385362017,44.947508,0.9171454,1.6368766928,0,0.223694,-7.82929,117.3, 0, -0.6,0,0,1120,1024,1552,1131,15,0,80,16,0,0,0,58,,,,,,,0,32,9866.5385362017,44.947508,6,P-GPS,
8600,2023-10-08 20:29:08,38.4982445819364,-112.064395477881,46.259844,,,9867.8508722017,26.574804,0.447388,1.40668311588,4.7489830916,23,5,0,9867.8508722017,46.259844,0.9171454,1.6368766928,0,0.447388,-7.82929,118.3, -0.3, -0.7,0,0,1117,1024,1546,1131,14,0,79,16,0,0,0,58,,,,,,,0,32,9867.8508722017,46.259844,6,P-GPS,
8700,2023-10-08 20:29:08,38.4982445042655,-112.06439526436,47.244096,,,9868.8351242017,26.574804,0.447388,1.45140424592,4.8162403116,23,5,0,9868.8351242017,47.244096,0.9171454,1.6368766928,0,0.447388,-8.052984,119.1, -0.6, -1.2,0,0,1119,1024,1532,1136,14,0,77,17,0,0,0,58,,,,,,,0,32,9868.8351242017,47.244096,6,P-GPS,
8800,2023-10-08 20:29:08,38.498244434313,-112.064394951908,48.556432,,,9870.1474602017,26.574804,0.671082,1.50491474632,4.9090224668,23,5,0,9870.1474602017,48.556432,0.9171454,1.6368766928,0,0.671082,-8.052984,119.8, -0.6, -1.6,0,0,1127,1024,1540,1084,16,0,78,9,0,0,0,58,,,,,,,0,32,9870.1474602017,48.556432,6,P-GPS,
8900,2023-10-08 20:29:08,38.4982443633822,-112.064394512667,49.868768,,,9871.4597962017,26.574804,0.671082,1.577181809,5.037073652,23,5,0,9871.4597962017,49.868768,0.9171454,1.6368766928,0,0.671082,-8.052984,120.5, -0.5, -1.5,0,0,1127,1024,1540,1084,16,0,78,9,0,0,0,58,,,,,,,0,32,9871.4597962017,49.868768,6,P-GPS,
9000,2023-10-08 20:29:09,38.4982442874259,-112.064394109624,50.85302,,,9872.4440482017,26.574804,0.671082,1.65297249384,5.1554791676,23,5,0,9872.4440482017,50.85302,0.9171454,1.65297249384,0,0.671082,-7.82929,121.1, -0.5, -1.2,0,0,1165,1024,1556,1024,21,0,81,0,0,0,0,58,,,,,,,0,32,9872.4440482017,50.85302,6,P-GPS,
9100,2023-10-08 20:29:09,38.4982443095057,-112.064393749161,52.165356,,,9873.7563842017,26.574804,0.894776,1.69660766584,5.258694394,23,5,0,9873.7563842017,52.165356,0.9171454,1.69660766584,0,0.894776,-7.82929,121.5, -0.6, -0.5,0,0,1170,1024,1573,1024,22,0,83,0,0,0,0,58,,,,,,,0,32,9873.7563842017,52.165356,6,P-GPS,
9200,2023-10-08 20:29:09,38.4982442157018,-112.064393294333,53.149608,,,9874.7406362017,26.574804,0.894776,1.79538391572,5.3930119836,23,5,0,9874.7406362017,53.149608,0.9171454,1.79538391572,0,0.894776,-7.82929,121.5, -0.7, 0.1,0,0,1170,1024,1596,1024,22,0,87,0,0,0,0,58,,,,,,,0,32,9874.7406362017,53.149608,6,P-GPS,
9300,2023-10-08 20:29:09,38.498244132429,-112.064392652849,54.461944,,,9876.0529722017,26.574804,0.894776,1.92784454988,5.5786747192,23,5,0,9876.0529722017,54.461944,0.9171454,1.92784454988,-0.223694,0.894776,-7.82929,121.5, -1.1, 0.3,0,0,1168,1024,1614,1024,22,0,89,0,0,0,0,58,,,,,,,0,32,9876.0529722017,54.461944,6,P-GPS,
9400,2023-10-08 20:29:09,38.4982439643796,-112.064392143899,55.446196,,,9877.0372242017,26.574804,0.9171454,2.06713589292,5.7364175064,23,5,0,9877.0372242017,55.446196,0.9171454,2.06713589292,-0.223694,0.894776,-8.052984,121.4, -1.6, 0.1,0,0,1169,1024,1618,1024,22,0,90,0,0,0,0,58,,,,,,,0,32,9877.0372242017,55.446196,6,P-GPS,
9500,2023-10-08 20:29:09,38.4982436865948,-112.064391642551,56.758532,,,9878.3495602017,26.574804,1.2079476,2.237368838,5.9118112128,23,5,0,9878.3495602017,56.758532,1.2079476,2.237368838,-0.447388,1.11847,-8.276678,121.3, -1.9, -0.3,0,0,1170,1024,1647,1024,22,0,94,0,0,0,0,58,,,,,,,0,32,9878.3495602017,56.758532,6,P-GPS,
9600,2023-10-08 20:29:09,38.49824343108,-112.064391046294,58.070868,,,9879.6618962017,26.574804,1.2079476,2.42069889636,6.1059385156,23,5,0,9879.6618962017,58.070868,1.2079476,2.42069889636,-0.447388,1.11847,-8.500372,121.1, -1.7, -0.7,0,0,1172,1024,1653,1024,22,0,95,0,0,0,0,58,,,,,,,0,32,9879.6618962017,58.070868,6,P-GPS,
9700,2023-10-08 20:29:09,38.4982431361604,-112.064390450015,59.383204,,,9880.9742322017,26.574804,1.4092722,2.61591543804,6.3073492832,23,5,0,9880.9742322017,59.383204,1.4092722,2.61591543804,-0.447388,1.342164,-8.94776,121.1, -1.3, -1,0,0,1177,1024,1651,1024,23,0,95,0,0,0,0,58,,,,,,,0,32,9880.9742322017,59.383204,6,P-GPS,
9800,2023-10-08 20:29:09,38.4982428267423,-112.0643897532,60.69554,,,9882.2865682017,26.574804,1.4987498,2.8360893296,6.536089448,23,5,0,9882.2865682017,60.69554,1.4987498,2.8360893296,-0.671082,1.342164,-9.171454,121, -1, -0.8,0,0,1187,1024,1651,1024,25,0,95,0,0,0,0,58,,,,,,,0,32,9882.2865682017,60.69554,6,P-GPS,
9900,2023-10-08 20:29:09,38.4982424689497,-112.064388897731,62.007876,,,9883.5989042017,26.574804,1.4987498,3.10256899692,6.8130579608,23,5,0,9883.5989042017,62.007876,1.4987498,3.10256899692,-0.671082,1.342164,-9.618842,121, -1.3, -0.3,0,0,1187,1024,1651,1024,25,0,95,0,0,0,0,58,,,,,,,0,32,9883.5989042017,62.007876,6,P-GPS,
10000,2023-10-08 20:29:09,38.4982420952877,-112.064388110273,63.320212,,,9884.9112402017,26.574804,1.7000744,3.360236328,7.0760172868,24,5,0,9884.9112402017,63.320212,1.7000744,3.360236328,-0.671082,1.565858,-9.842536,120.9, -1.7, -0.3,0,0,1199,1024,1657,1024,27,0,96,0,0,0,0,58,,,,,,,0,32,9884.9112402017,63.320212,6,P-GPS,
10100,2023-10-08 20:29:10,38.498241753302,-112.064387337756,64.960632,,,9886.5516602017,26.574804,1.8119214,3.6078085144,7.3294621768,24,5,0,9886.5516602017,64.960632,1.8119214,3.6078085144,-0.894776,1.565858,-10.06623,120.9, -2, -0.5,0,0,1204,1024,1659,1024,27,0,96,0,0,0,0,58,,,,,,,0,32,9886.5516602017,64.960632,6,P-GPS,
10200,2023-10-08 20:29:10,38.4982412866,-112.06438646475,66.272968,,,9887.8639962017,26.574804,1.8119214,3.9075788652,7.6313322652,25,5,0,9887.8639962017,66.272968,1.8119214,3.9075788652,-0.894776,1.565858,-10.06623,121, -2.6, -0.9,0,0,1206,1024,1668,1024,28,0,98,0,0,0,0,58,,,,,,,0,32,9887.8639962017,66.272968,6,P-GPS,
10300,2023-10-08 20:29:10,38.4982408296071,-112.064385577526,67.913388,,,9889.5044162017,26.574804,2.1027236,4.2084318932,7.9346131148,25,5,0,9889.5044162017,67.913388,2.1027236,4.2084318932,-1.11847,1.789552,-10.289924,121.4, -3.3, -1.2,0,0,1207,1024,1675,1024,28,0,99,0,0,0,0,58,,,,,,,0,32,9889.5044162017,67.913388,6,P-GPS,
10400,2023-10-08 20:29:10,38.4982402811805,-112.064384558556,69.553808,,,9891.1448362017,26.574804,2.3040482,4.559875474,8.287729924,25,5,0,9891.1448362017,69.553808,2.3040482,4.559875474,-1.11847,2.013246,-10.513618,121.8, -3.9, -1.6,0,0,1207,1024,1676,1024,28,0,99,0,0,0,0,58,,,,,,,0,32,9891.1448362017,69.553808,6,P-GPS,
10500,2023-10-08 20:29:10,38.4982396215931,-112.064383564169,70.866144,,,9892.4571722017,26.574804,2.6172198,4.932086772,8.659941222,25,5,0,9892.4571722017,70.866144,2.6172198,4.932086772,-1.342164,2.23694,-10.513618,122.2, -4.1, -1.9,0,0,1208,1024,1679,1024,28,0,99,0,0,0,0,58,,,,,,,0,32,9892.4571722017,70.866144,6,P-GPS,
10600,2023-10-08 20:29:10,38.4982389767181,-112.064382323232,72.506564,,,9894.0975922017,26.574804,2.908022,5.3550526648,9.0852693196,25,5,0,9894.0975922017,72.506564,2.908022,5.3550526648,-1.565858,2.460634,-10.737312,122.3, -3.7, -1.7,0,0,1210,1024,1679,1024,28,0,99,0,0,0,0,58,,,,,,,0,32,9894.0975922017,72.506564,6,P-GPS,
10700,2023-10-08 20:29:10,38.498238226056,-112.064381117014,74.146984,,,9895.7380122017,26.574804,3.1093466,5.7950461172,9.5253283888,25,5,0,9895.7380122017,74.146984,3.1093466,5.7950461172,-1.565858,2.684328,-10.961006,122.2, -2.7, -2,0,0,1211,1024,1682,1024,28,0,100,0,0,0,0,58,,,,,,,0,32,9895.7380122017,74.146984,6,P-GPS,
10800,2023-10-08 20:29:10,38.4982375058181,-112.06437968845,75.787404,,,9897.3784322017,26.574804,3.1093466,6.2773624056,10.0105318164,25,5,0,9897.3784322017,75.787404,3.1093466,6.2773624056,-1.565858,2.684328,-10.961006,122, -1.9, -2.2,0,0,1214,1024,1682,1024,29,0,100,0,0,0,0,58,,,,,,,0,32,9897.3784322017,75.787404,6,P-GPS,
10900,2023-10-08 20:29:10,38.4982367143021,-112.064378024827,77.427824,,,9899.0188522017,26.574804,3.1093466,6.8288716096,10.5664701544,25,5,0,9899.0188522017,77.427824,3.1093466,6.8288716096,-1.565858,2.908022,-10.961006,121.9, -2, -1.5,0,0,1220,1024,1683,1024,30,0,100,0,0,0,0,58,,,,,,,0,32,9899.0188522017,77.427824,6,P-GPS,
11000,2023-10-08 20:29:10,38.498235944709,-112.064376463209,79.068244,,,9900.6592722017,26.574804,3.4225182,7.3531170332,11.0934058668,25,5,0,9900.6592722017,79.068244,3.4225182,7.3531170332,-1.789552,2.908022,-11.1847,121.9, -2.6, -0.8,0,0,1221,1024,1684,1024,30,0,100,0,0,0,0,58,,,,,,,0,32,9900.6592722017,79.068244,6,P-GPS,
11100,2023-10-08 20:29:11,38.4982352172257,-112.064375166933,80.708664,,,9902.2996922017,26.574804,3.6014734,7.8083007748,11.548884884,25,5,0,9902.2996922017,80.708664,3.6014734,7.8083007748,-1.789552,3.131716,-11.1847,121.8, -3.2, -0.8,0,0,1223,1024,1684,1024,30,0,100,0,0,0,0,58,,,,,,,0,32,9902.2996922017,80.708664,6,P-GPS,
11200,2023-10-08 20:29:11,38.4982343439459,-112.064373502142,82.349084,,,9903.9401122017,26.574804,3.914645,8.3793637852,12.1211618052,25,5,0,9903.9401122017,82.349084,3.914645,8.3793637852,-2.013246,3.35541,-11.1847,121.8, -3.3, -1.5,0,0,1225,1024,1684,1024,30,0,100,0,0,0,0,58,,,,,,,0,32,9903.9401122017,82.349084,6,P-GPS,
11300,2023-10-08 20:29:11,38.4982332950133,-112.064371606916,83.989504,,,9905.5805322017,26.574804,4.026492,9.0417653812,12.783957102,25,5,0,9905.5805322017,83.989504,4.026492,9.0417653812,-2.23694,3.35541,-11.1847,121.7, -3.1, -2.1,0,0,1227,1024,1684,1024,31,0,100,0,0,0,0,58,,,,,,,0,32,9905.5805322017,83.989504,6,P-GPS,
11400,2023-10-08 20:29:11,38.4982323170215,-112.064369752354,85.629924,,,9907.2209522017,26.574804,4.2278166,9.6793310184,13.4225069912,25,5,0,9907.2209522017,85.629924,4.2278166,9.6793310184,-2.23694,3.579104,-11.1847,121.7, -2.6, -2.6,0,0,1233,1024,1684,1024,32,0,100,0,0,0,0,58,,,,,,,0,32,9907.2209522017,85.629924,6,P-GPS,
11500,2023-10-08 20:29:11,38.4982312685588,-112.064367853549,87.270344,,,9908.8613722017,26.574804,4.4067718,10.3425856328,14.0860568812,25,5,0,9908.8613722017,87.270344,4.4067718,10.3425856328,-2.23694,3.802798,-10.961006,121.6, -2.1, -2.6,0,0,1234,1024,1684,1024,32,0,100,0,0,0,0,58,,,,,,,0,32,9908.8613722017,87.270344,6,P-GPS,
11600,2023-10-08 20:29:11,38.498230216086,-112.064365833702,89.238848,,,9910.8298762017,26.574804,4.5186188,11.0344163636,14.7789374808,25,5,0,9910.8298762017,89.238848,4.5186188,11.0344163636,-2.460634,3.802798,-11.1847,121.6, -1.8, -2.1,0,0,1234,1024,1684,1024,32,0,100,0,0,0,0,58,,,,,,,0,32,9910.8298762017,89.238848,6,P-GPS,
11700,2023-10-08 20:29:11,38.4982292193775,-112.064364042934,90.879268,,,9912.4702962017,26.574804,4.7199434,11.6617129716,15.4063981308,25,5,0,9912.4702962017,90.879268,4.7199434,11.6617129716,-2.460634,4.026492,-10.961006,121.6, -1.8, -1.7,0,0,1234,1024,1684,1024,32,0,100,0,0,0,0,58,,,,,,,0,32,9912.4702962017,90.879268,6,P-GPS,
11800,2023-10-08 20:29:11,38.4982281005725,-112.064361923501,92.519688,,,9914.1107162017,26.574804,4.8317904,12.3909780868,16.1363850308,25,5,0,9914.1107162017,92.519688,4.8317904,12.3909780868,-2.684328,4.026492,-10.961006,121.5, -1.9, -1.7,0,0,1235,1024,1684,1024,32,0,100,0,0,0,0,58,,,,,,,0,32,9914.1107162017,92.519688,6,P-GPS,
11900,2023-10-08 20:29:11,38.498226827779,-112.064359612682,94.160108,,,9915.7511362017,26.574804,5.033115,13.1976382176,16.943242012,25,5,0,9915.7511362017,94.160108,5.033115,13.1976382176,-2.684328,4.250186,-10.961006,121.4, -2, -1.9,0,0,1242,1024,1684,1024,33,0,100,0,0,0,0,58,,,,,,,0,32,9915.7511362017,94.160108,6,P-GPS,
12000,2023-10-08 20:29:12,38.4982256235837,-112.064357355851,95.800528,,,9917.3915562017,26.574804,5.3462866,13.9770673764,17.7231961052,25,5,0,9917.3915562017,95.800528,5.3462866,13.9770673764,-2.908022,4.47388,-10.961006,121.3, -2, -2.2,0,0,1256,1024,1661,1024,35,0,97,0,0,0,0,58,,,,,,,0,32,9917.3915562017,95.800528,6,P-GPS,
12100,2023-10-08 20:29:12,38.4982242813722,-112.064355262467,97.440948,,,9919.0319762017,26.574804,5.3462866,14.7487537528,18.4959323504,25,5,0,9919.0319762017,97.440948,5.3462866,14.7487537528,-2.908022,4.47388,-11.1847,121.3, -1.9, -2.3,0,0,1256,1024,1648,1024,35,0,95,0,0,0,0,58,,,,,,,0,32,9919.0319762017,97.440948,6,P-GPS,
12200,2023-10-08 20:29:12,38.4982230120767,-112.064352890246,99.081368,,,9920.6723962017,26.574804,5.5252418,15.5687997108,19.3164704344,25,5,0,9920.6723962017,99.081368,5.5252418,15.5687997108,-2.908022,4.697574,-11.1847,121.3, -1.9, -2.2,0,0,1256,1024,1617,1024,35,0,90,0,0,0,0,58,,,,,,,0,32,9920.6723962017,99.081368,6,P-GPS,
12300,2023-10-08 20:29:12,38.4982217161878,-112.064350394248,100.721788,,,9922.3128162017,26.574804,5.6370888,16.4231304468,20.171752614,25,5,0,9922.3128162017,100.721788,5.6370888,16.4231304468,-3.131716,4.697574,-10.961006,121.3, -2.2, -2.2,0,0,1257,1024,1615,1024,35,0,90,0,0,0,0,58,,,,,,,0,32,9922.3128162017,100.721788,6,P-GPS,
12400,2023-10-08 20:29:12,38.4982203902374,-112.064347897454,102.362208,,,9923.9532362017,26.574804,5.6370888,17.2841869048,21.0333340064,25,5,0,9923.9532362017,102.362208,5.6370888,17.2841869048,-3.131716,4.921268,-10.737312,121.4, -2.8, -2.3,0,0,1258,1024,1618,1024,35,0,90,0,0,0,0,58,,,,,,,0,32,9923.9532362017,102.362208,6,P-GPS,
12500,2023-10-08 20:29:12,38.4982189561834,-112.064345537711,104.002628,,,9925.5936562017,26.574804,5.8384134,18.1369100292,21.8864180232,25,5,0,9925.5936562017,104.002628,5.8384134,18.1369100292,-3.131716,4.921268,-10.513618,121.5, -3.4, -2.5,0,0,1262,1024,1614,1024,36,0,89,0,0,0,0,58,,,,,,,0,32,9925.5936562017,104.002628,6,P-GPS,
12600,2023-10-08 20:29:12,38.4982175543756,-112.06434292455,105.643048,,,9927.2340762017,26.574804,5.8384134,19.0411423416,22.7910440364,25,5,0,9927.2340762017,105.643048,5.8384134,19.0411423416,-3.35541,5.144962,-10.289924,121.5, -3.6, -2.6,0,0,1262,1024,1614,1024,36,0,89,0,0,0,0,58,,,,,,,0,32,9927.2340762017,105.643048,6,P-GPS,
12700,2023-10-08 20:29:12,38.4982163257779,-112.064340527738,106.955384,,,9928.5464122017,26.574804,6.151585,19.858268352,23.6091542988,25,5,0,9928.5464122017,106.955384,6.151585,19.858268352,-3.35541,5.144962,-10.06623,121.6, -3.4, -2.7,0,0,1278,1024,1544,1024,38,0,79,0,0,0,0,58,,,,,,,0,32,9928.5464122017,106.955384,6,P-GPS,
12800,2023-10-08 20:29:12,38.4982148679894,-112.064337807691,108.595804,,,9930.1868322017,26.574804,6.4423872,20.7992788808,24.5504929116,25,5,0,9930.1868322017,108.595804,6.4423872,20.7992788808,-3.579104,5.368656,-9.842536,121.7, -3.5, -2.7,0,0,1280,1024,1542,1024,39,0,78,0,0,0,0,58,,,,,,,0,32,9930.1868322017,108.595804,6,P-GPS,
12900,2023-10-08 20:29:12,38.4982131804364,-112.06433492121,109.90814,,,9931.4991682017,26.574804,6.4423872,21.8279534544,25.5792987188,25,5,0,9931.4991682017,109.90814,6.4423872,21.8279534544,-3.579104,5.368656,-9.395148,121.8, -4.1, -2.7,0,0,1279,1024,1551,1024,39,0,80,0,0,0,0,58,,,,,,,0,32,9931.4991682017,109.90814,6,P-GPS,
13000,2023-10-08 20:29:13,38.4982116381183,-112.064332063701,111.54856,,,9933.1395882017,26.574804,6.7555588,22.8188655596,26.5704404828,25,5,0,9933.1395882017,111.54856,6.7555588,22.8188655596,-3.802798,5.59235,-9.171454,122, -4.9, -2.8,0,0,1311,1024,1560,1024,43,0,81,0,0,0,0,58,,,,,,,0,32,9933.1395882017,111.54856,6,P-GPS,
13100,2023-10-08 20:29:13,38.4982101929517,-112.064329377096,112.860896,,,9934.4519242017,26.574804,6.7555588,23.7494758256,27.501313216,25,5,0,9934.4519242017,112.860896,6.7555588,23.7494758256,-3.802798,5.816044,-8.724066,122.1, -5.1, -3,0,0,1310,1024,1576,1024,43,0,84,0,0,0,0,58,,,,,,,0,32,9934.4519242017,112.860896,6,P-GPS,
13200,2023-10-08 20:29:13,38.4982085841076,-112.064326358006,114.173232,,,9935.7642602017,26.574804,7.0687304,24.7920283524,28.5442594436,25,5,0,9935.7642602017,114.173232,7.0687304,24.7920283524,-4.026492,5.816044,-8.500372,122.1, -4.9, -2.9,0,0,1311,1024,1571,1030,43,0,83,1,0,0,0,58,,,,,,,0,32,9935.7642602017,114.173232,6,P-GPS,
13300,2023-10-08 20:29:13,38.4982067132187,-112.064323102817,115.157484,,,9936.7485122017,26.574804,7.2476856,25.9451779956,29.6974747036,25,5,0,9936.7485122017,115.157484,7.2476856,25.9451779956,-4.026492,6.039738,-8.276678,122, -4.8, -2.8,0,0,1311,1024,1563,1080,43,0,82,8,0,0,0,58,,,,,,,0,32,9936.7485122017,115.157484,6,P-GPS,
13400,2023-10-08 20:29:13,38.4982050112413,-112.064319884211,116.46982,,,9938.0608482017,26.574804,7.4490102,27.0538722568,30.8066282824,25,5,0,9938.0608482017,116.46982,7.4490102,27.0538722568,-4.026492,6.263432,-8.276678,121.9, -5, -2.4,0,0,1310,1024,1560,1101,43,0,81,12,0,0,0,58,,,,,,,0,32,9938.0608482017,116.46982,6,P-GPS,
13500,2023-10-08 20:29:13,38.4982032659459,-112.064316641173,117.782156,,,9939.3731842017,26.574804,7.7621818,28.1774615316,31.930447216,25,5,0,9939.3731842017,117.782156,7.7621818,28.1774615316,-4.250186,6.487126,-8.276678,121.8, -5.4, -1.8,0,0,1320,1024,1562,1114,45,0,82,14,0,0,0,58,,,,,,,0,32,9939.3731842017,117.782156,6,P-GPS,
13600,2023-10-08 20:29:13,38.4982014545248,-112.064313242883,118.766408,,,9940.3574362017,26.574804,7.7621818,29.3511492332,33.104331768,25,5,0,9940.3574362017,118.766408,7.7621818,29.3511492332,-4.47388,6.487126,-8.052984,121.9, -5.6, -1.2,0,0,1320,1024,1562,1114,45,0,82,14,0,0,0,58,,,,,,,0,32,9940.3574362017,118.766408,6,P-GPS,
13700,2023-10-08 20:29:13,38.4981998233891,-112.064310161482,120.078744,,,9941.6697722017,26.574804,8.1872004,30.4130259076,34.16666776,25,5,0,9941.6697722017,120.078744,8.1872004,30.4130259076,-4.697574,6.71082,-8.052984,122.1, -5.3, -0.9,0,0,1323,1024,1560,1139,45,0,81,17,0,0,0,58,,,,,,,0,32,9941.6697722017,120.078744,6,P-GPS,
13800,2023-10-08 20:29:13,38.4981978894615,-112.06430662504,121.39108,,,9942.9821082017,26.574804,8.1872004,31.644850094,35.39862318,25,5,0,9942.9821082017,121.39108,8.1872004,31.644850094,-4.921268,6.934514,-8.052984,122.4, -5, -0.7,0,0,1324,1024,1569,1148,45,0,83,19,0,0,0,57,,,,,,,0,32,9942.9821082017,121.39108,6,P-GPS,
13900,2023-10-08 20:29:13,38.4981956082914,-112.064302790256,122.375332,,,9943.9663602017,26.574804,8.500372,33.019686096,36.773951308,25,5,0,9943.9663602017,122.375332,8.500372,33.019686096,-4.921268,6.934514,-8.052984,122.8, -4.7, -0.1,0,0,1326,1024,1566,1161,46,0,82,21,0,0,0,57,,,,,,,0,32,9943.9663602017,122.375332,6,P-GPS,
14000,2023-10-08 20:29:13,38.4981935035705,-112.064299101084,123.687668,,,9945.2786962017,26.574804,8.8135436,34.323163828,38.077757124,25,5,0,9945.2786962017,123.687668,8.8135436,34.323163828,-5.144962,7.158208,-8.052984,123.2, -4.6, 0.2,0,0,1326,1024,1562,1188,46,0,82,25,0,0,0,57,,,,,,,0,32,9945.2786962017,123.687668,6,P-GPS,
14100,2023-10-08 20:29:14,38.4981915393984,-112.064295807683,125.000004,,,9946.5910322017,26.574804,8.94776,35.504922396,39.259843776,25,5,0,9946.5910322017,125.000004,8.94776,35.504922396,-5.368656,7.158208,-8.276678,123.6, -4.5, 0.4,0,0,1326,1024,1562,1188,46,0,82,25,0,0,0,57,,,,,,,0,32,9946.5910322017,125.000004,6,P-GPS,
14200,2023-10-08 20:29:14,38.4981892964022,-112.064292080458,125.984256,,,9947.5752842017,26.574804,9.0819764,36.846785956,40.602363504,25,5,0,9947.5752842017,125.984256,9.0819764,36.846785956,-5.59235,7.158208,-8.276678,124.2, -4.6, 0.7,0,0,1320,1024,1557,1183,45,0,81,24,0,0,0,57,,,,,,,0,32,9947.5752842017,125.984256,6,P-GPS,
14300,2023-10-08 20:29:14,38.4981867771037,-112.064287999455,127.296592,,,9948.8876202017,26.574804,9.395148,38.329725636,42.08661552,25,5,0,9948.8876202017,127.296592,9.395148,38.329725636,-5.816044,7.381902,-8.276678,125, -4.7, 0.8,0,0,1318,1024,1558,1171,45,0,81,22,0,0,0,57,,,,,,,0,32,9948.8876202017,127.296592,6,P-GPS,
14400,2023-10-08 20:29:14,38.4981843685205,-112.064284205389,128.608928,,,9950.1999562017,26.574804,9.5293644,39.722442216,43.481628688,25,5,0,9950.1999562017,128.608928,9.5293644,39.722442216,-6.039738,7.381902,-8.276678,125.9, -4.9, 0.6,0,0,1319,1024,1559,1154,45,0,81,20,0,0,0,57,,,,,,,0,32,9950.1999562017,128.608928,6,P-GPS,
14500,2023-10-08 20:29:14,38.4981818821938,-112.064280484071,129.59318,,,9951.1842082017,26.574804,9.5293644,41.11548688,44.87861036,25,5,0,9951.1842082017,129.59318,9.5293644,41.11548688,-6.039738,7.381902,-8.276678,126.9, -5.5, 0.3,0,0,1318,1024,1566,1073,45,0,82,7,0,0,0,57,,,,,,,0,32,9951.1842082017,129.59318,6,P-GPS,
14600,2023-10-08 20:29:14,38.4981793378614,-112.064276644139,130.905516,,,9952.4965442017,26.574804,9.6859502,42.548557792,46.315290196,25,5,0,9952.4965442017,130.905516,9.6859502,42.548557792,-6.263432,7.381902,-8.276678,127.8, -6, 0,0,0,1319,1024,1569,1057,45,0,83,5,0,0,0,57,,,,,,,0,32,9952.4965442017,130.905516,6,P-GPS,
14700,2023-10-08 20:29:14,38.4981768351966,-112.06427287515,132.217852,,,9953.8088802017,26.574804,9.9991218,43.956366236,47.726707564,25,5,0,9953.8088802017,132.217852,9.9991218,43.956366236,-6.487126,7.605596,-8.276678,128.4, -6.4, -1.2,0,0,1316,1024,1561,1220,44,0,81,30,0,0,0,57,,,,,,,0,32,9953.8088802017,132.217852,6,P-GPS,
14800,2023-10-08 20:29:14,38.4981741774729,-112.06426892436,133.202104,,,9954.7931322017,26.574804,9.9991218,45.439962084,49.21424042,25,5,0,9954.7931322017,133.202104,9.9991218,45.439962084,-6.487126,7.605596,-8.276678,128.8, -6.6, -2.2,0,0,1314,1024,1515,1307,44,0,74,43,0,0,0,57,,,,,,,0,32,9954.7931322017,133.202104,6,P-GPS,
14900,2023-10-08 20:29:14,38.4981713348356,-112.064264937234,134.51444,,,9956.1054682017,26.574804,10.3122934,46.972442448,50.754266716,25,5,0,9956.1054682017,134.51444,10.3122934,46.972442448,-6.71082,7.82929,-8.276678,129.2, -6.7, -0.2,0,0,1310,1024,1513,1299,43,0,74,42,0,0,0,57,,,,,,,0,32,9956.1054682017,134.51444,6,P-GPS,
15000,2023-10-08 20:29:14,38.4981685542543,-112.064260831613,135.826776,,,9957.4178042017,26.574804,10.4912486,48.51870234,52.3047917,25,5,0,9957.4178042017,135.826776,10.4912486,48.51870234,-6.71082,8.052984,-8.052984,130.5, -6.7, 5.9,0,0,1308,1024,1515,1272,43,0,74,38,0,0,0,57,,,,,,,0,32,9957.4178042017,135.826776,6,P-GPS,
15100,2023-10-08 20:29:15,38.4981658323852,-112.064256837692,136.811028,,,9958.4020562017,26.574804,10.6030956,50.026904488,53.816930856,25,5,0,9958.4020562017,136.811028,10.6030956,50.026904488,-7.158208,7.82929,-7.82929,132.3, -6.1, 11.1,0,0,1325,1024,1515,1250,46,0,74,34,0,0,0,57,,,,,,,0,32,9958.4020562017,136.811028,6,P-GPS,
15200,2023-10-08 20:29:15,38.4981627421102,-112.064252861496,138.123364,,,9959.7143922017,26.574804,10.7596814,51.61253446,55.416996524,25,5,0,9959.7143922017,138.123364,10.7596814,51.61253446,-7.605596,7.605596,-7.82929,134.5, -5.1, 13.1,0,0,1342,1024,1516,1204,48,0,75,27,0,0,0,57,,,,,,,0,32,9959.7143922017,138.123364,6,P-GPS,
15300,2023-10-08 20:29:15,38.498159417072,-112.064249080198,139.107616,,,9960.6986442017,26.574804,11.0952224,53.2070227,57.041012324,25,5,0,9960.6986442017,139.107616,11.0952224,53.2070227,-8.276678,7.381902,-7.605596,136.8, -4, 12.9,0,0,1355,1024,1514,1192,50,0,74,25,0,0,0,57,,,,,,,0,32,9960.6986442017,139.107616,6,P-GPS,
15400,2023-10-08 20:29:15,38.498155931118,-112.064245453775,140.419952,,,9962.0109802017,26.574804,11.1399612,54.804463696,58.68110424,25,5,0,9962.0109802017,140.419952,11.1399612,54.804463696,-8.724066,6.934514,-7.605596,138.9, -3.4, 10,0,0,1356,1024,1511,1171,50,0,74,22,0,0,0,57,,,,,,,0,32,9962.0109802017,140.419952,6,P-GPS,
15500,2023-10-08 20:29:15,38.4981521949531,-112.064242048138,141.404204,,,9962.9952322017,26.574804,11.1847,56.411419128,60.355644976,25,5,0,9962.9952322017,141.404204,11.1847,56.411419128,-8.94776,6.71082,-7.381902,140.4, -4, 6.2,0,0,1358,1024,1496,1114,51,0,72,14,0,0,0,57,,,,,,,0,32,9962.9952322017,141.404204,6,P-GPS,
15600,2023-10-08 20:29:15,38.4981484572897,-112.064238682798,142.388456,,,9963.9794842017,26.574804,11.2294388,58.013781384,62.023952116,25,5,0,9963.9794842017,142.388456,11.2294388,58.013781384,-9.171454,6.487126,-7.381902,141.7, -5.3, 2.9,0,0,1359,1024,1489,1067,51,0,70,7,0,0,0,57,,,,,,,0,32,9963.9794842017,142.388456,6,P-GPS,
15700,2023-10-08 20:29:15,38.4981447500079,-112.064235459684,143.700792,,,9965.2918202017,26.574804,11.408394,59.581366736,63.65977894,25,5,0,9965.2918202017,143.700792,11.408394,59.581366736,-9.395148,6.487126,-7.158208,142.6, -6.7, -0.2,0,0,1358,1024,1485,1054,51,0,70,5,0,0,0,57,,,,,,,0,32,9965.2918202017,143.700792,6,P-GPS,
15800,2023-10-08 20:29:15,38.4981408674586,-112.064232094497,144.685044,,,9966.2760722017,26.574804,11.6097186,61.224411408,65.371721252,25,5,0,9966.2760722017,144.685044,11.6097186,61.224411408,-9.618842,6.487126,-6.934514,143.2, -7.9, -2.7,0,0,1360,1024,1471,1058,51,0,68,5,0,0,0,57,,,,,,,0,32,9966.2760722017,144.685044,6,P-GPS,
15900,2023-10-08 20:29:15,38.4981369749334,-112.064228659471,145.669296,,,9967.2603242017,26.574804,11.7215656,62.88878154,67.097443092,25,5,0,9967.2603242017,145.669296,11.7215656,62.88878154,-9.618842,6.71082,-6.934514,143.4, -8.5, -3.8,0,0,1364,1024,1458,1052,52,0,66,4,0,0,0,57,,,,,,,0,32,9967.2603242017,145.669296,6,P-GPS,
16000,2023-10-08 20:29:16,38.4981329705241,-112.064225087766,146.653548,,,9968.2445762017,26.574804,12.0347372,64.612534876,68.879267296,25,5,0,9968.2445762017,146.653548,12.0347372,64.612534876,-9.842536,6.934514,-6.71082,143.5, -8.6, -3.5,0,0,1365,1024,1424,1024,52,0,61,0,0,0,0,57,,,,,,,0,32,9968.2445762017,146.653548,6,P-GPS,
16100,2023-10-08 20:29:16,38.498129004614,-112.064221395246,147.6378,,,9969.2288282017,26.574804,12.3479088,66.356301336,70.669621684,25,5,0,9969.2288282017,147.6378,12.3479088,66.356301336,-10.06623,7.158208,-6.487126,143.5, -8, -2.5,0,0,1367,1024,1364,1024,52,0,52,0,0,0,0,57,,,,,,,0,32,9969.2288282017,147.6378,6,P-GPS,
16200,2023-10-08 20:29:16,38.498124871871,-112.06421761618,148.622052,,,9970.2130802017,26.574804,12.4821252,68.16109142,72.523952452,25,5,0,9970.2130802017,148.622052,12.4821252,68.16109142,-10.06623,7.381902,-6.263432,143.6, -7.5, -2.2,0,0,1369,1024,1259,1024,52,0,36,0,0,0,0,57,,,,,,,0,32,9970.2130802017,148.622052,6,P-GPS,
16300,2023-10-08 20:29:16,38.4981207432382,-112.06421378604,149.606304,,,9971.1973322017,26.574804,12.4821252,69.97867678,74.385172984,25,5,0,9971.1973322017,149.606304,12.4821252,69.97867678,-10.289924,7.605596,-6.039738,143.6, -7.5, -2.3,0,0,1369,1024,1259,1024,52,0,36,0,0,0,0,57,,,,,,,0,32,9971.1973322017,149.606304,6,P-GPS,
16400,2023-10-08 20:29:16,38.4981165007347,-112.064209868807,150.262472,,,9971.8535002017,26.574804,12.974252,71.844490488,76.294949948,25,5,0,9971.8535002017,150.262472,12.974252,71.844490488,-10.513618,7.605596,-5.368656,143.7, -7.8, -2.5,0,0,1375,1024,1248,1024,53,0,34,0,0,0,0,57,,,,,,,0,32,9971.8535002017,150.262472,6,P-GPS,
16500,2023-10-08 20:29:16,38.4981122127446,-112.064206032004,151.246724,,,9972.8377522017,26.574804,13.1084684,73.706695272,78.205054996,25,5,0,9972.8377522017,151.246724,13.1084684,73.706695272,-10.513618,7.82929,-4.697574,143.8, -8.1, -2.7,0,0,1377,1024,1239,1024,53,0,33,0,0,0,0,57,,,,,,,0,32,9972.8377522017,151.246724,6,P-GPS,
16600,2023-10-08 20:29:16,38.4981078626127,-112.064201984427,151.902892,,,9973.4939202017,26.574804,13.1084684,75.631236016,80.168309652,25,5,0,9973.4939202017,151.902892,13.1084684,75.631236016,-10.737312,7.82929,-4.250186,143.9, -8.2, -2.7,0,0,1376,1024,1250,1024,53,0,34,0,0,0,0,57,,,,,,,0,32,9973.4939202017,151.902892,6,P-GPS,
16700,2023-10-08 20:29:16,38.4981037453431,-112.064198265178,152.230976,,,9973.8220042017,26.574804,13.6005952,77.430776756,82.00787664,25,5,0,9973.8220042017,152.230976,13.6005952,77.430776756,-10.961006,8.052984,-3.579104,144, -7.9, -2.5,0,0,1375,1024,1259,1024,53,0,36,0,0,0,0,57,,,,,,,0,32,9973.8220042017,152.230976,6,P-GPS,
16800,2023-10-08 20:29:16,38.4980993096669,-112.064194102082,152.887144,,,9974.4781722017,26.574804,13.7795504,79.4045301,84.016078804,25,5,0,9974.4781722017,152.887144,13.7795504,79.4045301,-11.1847,8.052984,-3.131716,143.9, -7.1, -2.2,0,0,1368,1024,1276,1024,52,0,38,0,0,0,0,57,,,,,,,0,32,9974.4781722017,152.887144,6,P-GPS,
16900,2023-10-08 20:29:16,38.4980942684496,-112.064189717861,153.215228,,,9974.8062562017,26.574804,13.7795504,81.577430432,86.240816408,25,5,0,9974.8062562017,153.215228,13.7795504,81.577430432,-11.1847,8.276678,-2.684328,143.8, -6.1, -1.9,0,0,1369,1024,1269,1024,52,0,37,0,0,0,0,57,,,,,,,0,32,9974.8062562017,153.215228,6,P-GPS,
17000,2023-10-08 20:29:17,38.4980896823986,-112.064185421827,153.543312,,,9975.1343402017,26.574804,14.092722,83.620081416,88.315619624,25,5,0,9975.1343402017,153.543312,14.092722,83.620081416,-11.408394,8.276678,-2.460634,143.7, -5, -1.7,0,0,1368,1024,1234,1024,52,0,32,0,0,0,0,57,,,,,,,0,32,9975.1343402017,153.543312,6,P-GPS,
17100,2023-10-08 20:29:17,38.4980847842948,-112.064180903531,154.19948,,,9975.7905082017,26.574804,14.092722,85.78904474,90.519687936,25,5,0,9975.7905082017,154.19948,14.092722,85.78904474,-11.408394,8.276678,-2.460634,143.5, -4.2, -1.7,0,0,1368,1024,1214,1024,52,0,29,0,0,0,0,57,,,,,,,0,32,9975.7905082017,154.19948,6,P-GPS,
17200,2023-10-08 20:29:17,38.4980801081953,-112.064176514321,154.527564,,,9976.1185922017,26.574804,14.4058936,87.876971316,92.636813988,25,5,0,9976.1185922017,154.527564,14.4058936,87.876971316,-11.632088,8.500372,-2.23694,143.4, -4.2, -1.9,0,0,1365,1024,1222,1024,52,0,30,0,0,0,0,57,,,,,,,0,32,9976.1185922017,154.527564,6,P-GPS,
17300,2023-10-08 20:29:17,38.4980758136288,-112.064172579856,154.855648,,,9976.4466762017,26.574804,14.4058936,89.775921508,94.564635572,25,5,0,9976.4466762017,154.855648,14.4058936,89.775921508,-11.632088,8.500372,-2.013246,143.4, -4.5, -2.2,0,0,1365,1024,1222,1024,52,0,30,0,0,0,0,57,,,,,,,0,32,9976.4466762017,154.855648,6,P-GPS,
17400,2023-10-08 20:29:17,38.4980711290861,-112.064168153992,154.855648,,,9976.4466762017,26.574804,14.4058936,91.875659108,96.690291808,25,5,0,9976.4466762017,154.855648,14.4058936,91.875659108,-11.632088,8.500372,-1.789552,143.3, -4.8, -2.2,0,0,1364,1024,1237,1024,52,0,32,0,0,0,0,57,,,,,,,0,32,9976.4466762017,154.855648,6,P-GPS,
17500,2023-10-08 20:29:17,38.4980663978238,-112.064163773754,155.183732,,,9976.7747602017,26.574804,14.7190652,93.9796618,98.82218164,25,5,0,9976.7747602017,155.183732,14.7190652,93.9796618,-11.855782,8.724066,-1.789552,143.3, -5, -1.9,0,0,1364,1024,1236,1024,52,0,32,0,0,0,0,57,,,,,,,0,32,9976.7747602017,155.183732,6,P-GPS,
17600,2023-10-08 20:29:17,38.4980616522612,-112.064159257624,155.511816,,,9977.1028442017,26.574804,14.7190652,96.115816724,100.98097436,25,5,0,9977.1028442017,155.511816,14.7190652,96.115816724,-11.855782,8.724066,-1.565858,143.2, -5, -1.3,0,0,1355,1024,1237,1024,50,0,32,0,0,0,0,57,,,,,,,0,32,9977.1028442017,155.511816,6,P-GPS,
17700,2023-10-08 20:29:17,38.4980568911996,-112.064154701974,155.511816,,,9977.1028442017,26.574804,14.8980204,98.265095008,103.150921936,25,5,0,9977.1028442017,155.511816,14.8980204,98.265095008,-12.079476,8.724066,-1.565858,143.3, -4.6, -1.2,0,0,1349,1024,1205,1024,49,0,27,0,0,0,0,57,,,,,,,0,32,9977.1028442017,155.511816,6,P-GPS,
17800,2023-10-08 20:29:17,38.4980520658128,-112.064150117614,155.8399,,,9977.4309282017,26.574804,15.0322368,100.437667256,105.344819644,25,5,0,9977.4309282017,155.8399,15.0322368,100.437667256,-12.079476,8.94776,-1.565858,143.4, -4.2, -1.3,0,0,1344,1024,1036,1024,48,0,2,0,0,0,0,57,,,,,,,0,32,9977.4309282017,155.8399,6,P-GPS,
17900,2023-10-08 20:29:17,38.4980471887568,-112.064145607853,156.167984,,,9977.7590122017,26.574804,15.0322368,102.609583336,107.541342024,25,5,0,9977.7590122017,156.167984,15.0322368,102.609583336,-12.079476,8.94776,-1.565858,143.5, -3.8, -1.4,0,0,1344,1024,1036,1024,48,0,2,0,0,0,0,57,,,,,,,0,32,9977.7590122017,156.167984,6,P-GPS,
18000,2023-10-08 20:29:17,38.4980423099711,-112.06414098929,156.167984,,,9977.7590122017,26.574804,15.211192,104.80479338,109.756565192,25,5,0,9977.7590122017,156.167984,15.211192,104.80479338,-12.30317,8.94776,-1.565858,143.6, -4, -1.7,0,0,1349,1024,1024,1024,49,0,0,0,0,0,0,57,,,,,,,0,32,9977.7590122017,156.167984,6,P-GPS,
18100,2023-10-08 20:29:18,38.4980372704922,-112.064136404668,156.496068,,,9978.0870962017,26.574804,15.211192,107.036420748,112.013783112,25,5,0,9978.0870962017,156.496068,15.211192,107.036420748,-12.30317,8.94776,-1.11847,143.8, -5, -1.9,0,0,1337,1024,1024,1024,47,0,0,0,0,0,0,57,,,,,,,0,32,9978.0870962017,156.496068,6,P-GPS,
18200,2023-10-08 20:29:18,38.49803233889,-112.06413174479,156.496068,,,9978.0870962017,26.574804,15.211192,109.25525284,114.251644076,25,5,0,9978.0870962017,156.496068,15.211192,109.25525284,-12.30317,8.94776,-0.894776,144, -5.7, -1.9,0,0,1331,1024,1024,1024,47,0,0,0,0,0,0,57,,,,,,,0,32,9978.0870962017,156.496068,6,P-GPS,
18300,2023-10-08 20:29:18,38.4980274932088,-112.064126980161,156.824152,,,9978.4151802017,26.574804,15.3454084,111.47310068,116.482615276,25,5,0,9978.4151802017,156.824152,15.3454084,111.47310068,-12.30317,9.171454,-0.671082,144, -5.8, -2,0,0,1342,1024,1024,1024,48,0,0,0,0,0,0,57,,,,,,,0,32,9978.4151802017,156.824152,6,P-GPS,
18400,2023-10-08 20:29:18,38.498022503361,-112.064122236298,156.824152,,,9978.4151802017,26.574804,15.5243636,113.72539734,118.75164422,25,5,0,9978.4151802017,156.824152,15.5243636,113.72539734,-12.526864,9.171454,-0.447388,143.9, -5, -2.4,0,0,1347,1024,1024,1024,49,0,0,0,0,0,0,57,,,,,,,0,32,9978.4151802017,156.824152,6,P-GPS,
18500,2023-10-08 20:29:18,38.4980174167856,-112.064117532218,156.824152,,,9978.4151802017,26.574804,15.65858,115.996066704,121.042654792,25,5,0,9978.4151802017,156.824152,15.65858,115.996066704,-12.526864,9.395148,-0.223694,143.8, -4.3, -2.3,0,0,1353,1024,1024,1024,50,0,0,0,0,0,0,57,,,,,,,0,32,9978.4151802017,156.824152,6,P-GPS,
18600,2023-10-08 20:29:18,38.4980123856642,-112.064112720015,156.824152,,,9978.4151802017,26.574804,15.65858,118.273953916,123.335633868,25,5,0,9978.4151802017,156.824152,15.65858,118.273953916,-12.526864,9.395148,0,143.7, -3.8, -1.7,0,0,1336,1024,1024,1024,47,0,0,0,0,0,0,57,,,,,,,0,32,9978.4151802017,156.824152,6,P-GPS,
18700,2023-10-08 20:29:18,38.4980078454766,-112.064108173731,156.824152,,,9978.4151802017,26.574804,15.65858,120.370082592,125.439964644,25,5,0,9978.4151802017,156.824152,15.65858,120.370082592,-12.526864,9.395148,0,143.6, -3.9, -1.2,0,0,1343,1024,1024,1024,48,0,0,0,0,0,0,57,,,,,,,0,32,9978.4151802017,156.824152,6,P-GPS,
