time(millisecond),datetime(utc),latitude,longitude,height_above_takeoff(feet),height_above_ground_at_drone_location(feet),ground_elevation_at_drone_location(feet),altitude_above_seaLevel(feet),height_sonar(feet),speed(mph),distance(feet),mileage(feet),satellites,gpslevel,voltage(v),max_altitude(feet),max_ascent(feet),max_speed(mph),max_distance(feet), xSpeed(mph), ySpeed(mph), zSpeed(mph), compass_heading(degrees), pitch(degrees), roll(degrees),isPhoto,isVideo,rc_elevator,rc_aileron,rc_throttle,rc_rudder,rc_elevator(percent),rc_aileron(percent),rc_throttle(percent),rc_rudder(percent),gimbal_heading(degrees),gimbal_pitch(degrees),gimbal_roll(degrees),battery_percent,voltageCell1,voltageCell2,voltageCell3,voltageCell4,voltageCell5,voltageCell6,current(A),battery_temperature(f),altitude(feet),ascent(feet),flycStateRaw,flycState,message
0,,38.4981390034157,-112.064368252442,0,Available with any HD 360 subscription,Available with any HD 360 subscription,9818.9421665683,0.656168,0,0,0,17,5,0,9818.9421665683,0,0,0,0,0,0,144.8, -8.6, -0.6,0,0,364,364,364,1684,-100,-100,-100,100,0,0,0,99,,,,,,,0,32,9818.9421665683,0,6,P-GPS,
100,2023-10-09 20:53:30,38.4981389414593,-112.064368248674,0,,,9818.9421665683,0.656168,0,0.0226303484932,0.0226303484932,17,5,0,9818.9421665683,0,0,0.0226303484932,0,0,0,144.8, -8.6, -0.6,0,0,364,364,364,1684,-100,-100,-100,100,0,0,0,99,,,,,,,0,32,9818.9421665683,0,41,Motors_Started,
200,2023-10-09 20:53:30,38.4981389670531,-112.064368252339,0,,,9818.9421665683,0.656168,0,0.01326689675,0.0320267070616,17,5,0,9818.9421665683,0,0,0.0226303484932,0,0,0,144.8, -8.6, -0.6,0,0,364,364,364,1684,-100,-100,-100,100,0,0,0,99,,,,,,,0,32,9818.9421665683,0,41,Motors_Started,"Setting new Return-To-Home altitude to 61m (200 ft). Data Recorder File Index is 40. Setting new Maximum Flight Altitude to 500m (1640 ft)"
300,2023-10-09 20:53:30,38.4981390709257,-112.064368248186,0,,,9818.9421665683,0.656168,0,0.024660925986,0.069942915624,17,5,0,9818.9421665683,0,0,0.024660925986,0,0,0,144.8, -8.6, -0.6,0,0,364,364,364,1684,-100,-100,-100,100,0,0,0,99,,,,,,,0,32,9818.9421665683,0,41,Motors_Started,
400,2023-10-09 20:53:31,38.4981391048065,-112.064368251718,0,,,9818.9421665683,0.656168,0,0.03699311142,0.082345475076,17,5,0,9818.9421665683,0,0,0.03699311142,0,0,0,144.8, -8.6, -0.6,0,0,364,364,364,1684,-100,-100,-100,100,0,0,0,99,,,,,,,0,32,9818.9421665683,0,41,Motors_Started,
500,2023-10-09 20:53:31,38.4981390382338,-112.064368248492,0,,,9818.9421665683,0.656168,0,0.0127533140564,0.1066519063,17,5,0,9818.9421665683,0,0,0.03699311142,0,0,0,144.8, -8.6, -0.6,0,0,364,364,364,1684,-100,-100,-100,100,0,0,0,99,,,,,,,0,32,9818.9421665683,0,41,Motors_Started,
600,2023-10-09 20:53:31,38.4981390637551,-112.064368250189,0,,,9818.9421665683,0.656168,0,0.0220241804948,0.11597605358,17,5,0,9818.9421665683,0,0,0.03699311142,0,0,0,144.8, -8.6, -0.6,0,0,417,364,520,1648,-92,-100,-76,95,0,0,0,99,,,,,,,0,32,9818.9421665683,0,41,Motors_Started,
700,2023-10-09 20:53:31,38.4981391724533,-112.064368247334,0,,,9818.9421665683,0.656168,0,0.061690618772,0.1556430496,17,5,0,9818.9421665683,0,0,0.061690618772,0,0,0,144.8, -8.6, -0.7,0,0,913,1024,1024,1024,-17,0,0,0,0,0,0,99,,,,,,,0,32,9818.9421665683,0,41,Motors_Started,
800,2023-10-09 20:53:31,38.4981392020578,-112.064368245466,0,,,9818.9421665683,0.656168,0,0.07250164274,0.166457354408,17,5,0,9818.9421665683,0,0,0.07250164274,0,0,0,144.7, -8.7, -0.6,0,0,1024,1024,1024,1024,0,0,0,0,0,0,0,99,,,,,,,0,32,9818.9421665683,0,41,Motors_Started,
900,2023-10-09 20:53:31,38.4981391427008,-112.064368241381,0,,,9818.9421665683,0.656168,0,0.050916012128,0.188145019144,17,5,0,9818.9421665683,0,0,0.07250164274,0,0,0,144.9, -8.6, -0.7,0,0,1024,1024,1024,1024,0,0,0,0,0,0,0,99,,,,,,,0,32,9818.9421665683,0,41,Motors_Started,
1000,2023-10-09 20:53:31,38.4981391662163,-112.064368243639,0,,,9818.9421665683,0.656168,0,0.059450789304,0.19674869396,17,5,0,9818.9421665683,0,0,0.07250164274,0,0,0,145.1, -8.7, -0.7,0,0,1024,1024,1024,1024,0,0,0,0,0,0,0,99,,,,,,,0,32,9818.9421665683,0,41,Motors_Started,
1100,2023-10-09 20:53:31,38.4981392718299,-112.06436824039,0,,,9818.9421665683,0.656168,0,0.097991144868,0.235292986532,17,5,0,9818.9421665683,0,0,0.097991144868,0,0,0,145, -8.6, -0.7,0,0,1024,1024,1024,1024,0,0,0,0,0,0,0,99,,,,,,,0,32,9818.9421665683,0,41,Motors_Started,
1200,2023-10-09 20:53:31,38.4981393074115,-112.064368238364,0,,,9818.9421665683,0.656168,0,0.110985567856,0.248287737604,17,5,0,9818.9421665683,0,0,0.110985567856,0,0,0,144.8, -8.6, -0.7,0,0,1024,1024,1024,1024,0,0,0,0,0,0,0,99,,,,,,,0,32,9818.9421665683,0,41,Motors_Started,
1300,2023-10-09 20:53:31,38.498139225912,-112.064368242245,0,,,9818.9421665683,0.656168,0,0.081229989476,0.278043315984,17,5,0,9818.9421665683,0,0,0.110985567856,0,0,0,144.8, -8.6, -0.7,0,0,1024,1024,1024,1024,0,0,0,0,0,0,0,99,,,,,,,0,32,9818.9421665683,0,41,Motors_Started,
1400,2023-10-09 20:53:32,38.4981392500873,-112.064368242425,0,,,9818.9421665683,0.656168,0,0.090043309968,0.286863854324,17,5,0,9818.9421665683,0,0,0.110985567856,0,0,0,144.8, -8.7, -0.7,0,0,1024,1024,1024,1024,0,0,0,0,0,0,0,99,,,,,,,0,32,9818.9421665683,0,41,Motors_Started,
1500,2023-10-09 20:53:32,38.4981391995084,-112.064368233746,0,,,9818.9421665683,0.656168,0,0.071743112532,0.305483277492,17,5,0,9818.9421665683,0,0,0.110985567856,0,0,0,144.8, -8.7, -0.7,0,0,1024,1024,1024,1024,0,0,0,0,0,0,0,99,,,,,,,0,32,9818.9421665683,0,41,Motors_Started,
1600,2023-10-09 20:53:32,38.4981392177209,-112.064368231496,0,,,9818.9421665683,0.656168,0,0.078417653428,0.312159130724,17,5,0,9818.9421665683,0,0,0.110985567856,0,0,0,144.8, -8.6, -0.7,0,0,1024,1024,1024,1024,0,0,0,0,0,0,0,99,,,,,,,0,32,9818.9421665683,0,41,Motors_Started,
1700,2023-10-09 20:53:32,38.4981393413719,-112.064368234891,0,,,9818.9421665683,0.656168,0,0.123404859592,0.357283476,17,5,0,9818.9421665683,0,0,0.123404859592,0,0,0,144.8, -8.6, -0.7,0,0,1024,1024,1024,1024,0,0,0,0,0,0,0,99,,,,,,,0,32,9818.9421665683,0,41,Motors_Started,
1800,2023-10-09 20:53:32,38.4981393701129,-112.064368234028,0,,,9818.9421665683,0.656168,0,0.133892392736,0.36777232148,17,5,0,9818.9421665683,0,0,0.133892392736,0,0,0,144.8, -8.6, -0.7,0,0,1024,1024,1024,1024,0,0,0,0,0,0,0,99,,,,,,,0,32,9818.9421665683,0,41,Motors_Started,
1900,2023-10-09 20:53:32,38.498139321145,-112.064368232222,0,,,9818.9421665683,0.656168,0,0.116066932848,0.3856463378,17,5,0,9818.9421665683,0,0,0.133892392736,0,0,0,144.8, -8.6, -0.7,0,0,1024,1024,1024,1024,0,0,0,0,0,0,0,99,,,,,,,0,32,9818.9421665683,0,41,Motors_Started,
2000,2023-10-09 20:53:32,38.4981393433468,-112.064368226512,0,,,9818.9421665683,0.656168,0,0.124244426548,0.39390749292,17,5,0,9818.9421665683,0,0,0.133892392736,0,0,0,144.8, -8.6, -0.7,0,0,1024,1024,1024,1024,0,0,0,0,0,0,0,99,,,,,,,0,32,9818.9421665683,0,41,Motors_Started,
2100,2023-10-09 20:53:32,38.4981394555484,-112.06436822075,0,,,9818.9421665683,0.656168,0,0.16520833862,0.43487862284,17,5,0,9818.9421665683,0,0,0.16520833862,0,0,0,144.8, -8.6, -0.7,0,0,1024,1024,1024,1024,0,0,0,0,0,0,0,99,,,,,,,0,32,9818.9421665683,0,10,Assisted_Takeoff,
2200,2023-10-09 20:53:32,38.4981394859914,-112.0643682135,0,,,9818.9421665683,0.656168,0,0.176418312732,0.4461778358,17,5,0,9818.9421665683,0,0,0.176418312732,0,0,0,144.8, -8.6, -0.7,0,0,1024,1024,1024,1024,0,0,0,0,0,0,0,99,,,,,,,0,32,9818.9421665683,0,10,Assisted_Takeoff,
2300,2023-10-09 20:53:32,38.4981395789634,-112.064368214296,0,,,9818.9421665683,0.656168,0,0.21027067602,0.48009844056,17,5,0,9818.9421665683,0,0,0.21027067602,0,0,0,144.8, -8.6, -0.7,0,0,1024,1024,1024,1024,0,0,0,0,0,0,0,99,,,,,,,0,32,9818.9421665683,0,10,Assisted_Takeoff,
2400,2023-10-09 20:53:33,38.4981396173182,-112.064368205801,0,,,9818.9421665683,0.656168,0,0.224377631852,0.49430119692,17,5,0,9818.9421665683,0,0,0.224377631852,0,0,0,144.8, -8.6, -0.7,0,0,1024,1024,1024,1024,0,0,0,0,0,0,0,99,,,,,,,0,32,9818.9421665683,0,10,Assisted_Takeoff,
2500,2023-10-09 20:53:33,38.4981395465262,-112.064368212563,0,,,9818.9421665683,0.656168,0,0.198480321312,0.52020014788,17,5,0,9818.9421665683,0,0,0.224377631852,0,0,0,144.8, -8.6, -0.8,0,0,1024,1024,1024,1024,0,0,0,0,0,0,0,99,,,,,,,0,32,9818.9421665683,0,10,Assisted_Takeoff,
2600,2023-10-09 20:53:33,38.4981395768644,-112.064368203173,0,,,9818.9421665683,0.656168,0,0.2096948886,0.53159122436,17,5,0,9818.9421665683,0,0,0.224377631852,0,0,0,144.8, -8.6, -0.8,0,0,1024,1024,1024,1024,0,0,0,0,0,0,0,99,,,,,,,0,32,9818.9421665683,0,10,Assisted_Takeoff,
2700,2023-10-09 20:53:33,38.4981395246375,-112.06436821106,0,,,9818.9421665683,0.656168,0,0.190534126832,0.55077757668,17,5,0,9818.9421665683,0,0,0.224377631852,0,0,0,144.8, -8.6, -0.8,0,0,1024,1024,1024,1024,0,0,0,0,0,0,0,99,,,,,,,0,32,9818.9421665683,0,10,Assisted_Takeoff,
2800,2023-10-09 20:53:33,38.4981395479453,-112.064368201098,0,,,9818.9421665683,0.656168,0,0.199211620548,0.5597441124,17,5,0,9818.9421665683,0,0,0.224377631852,0,0,0,144.8, -8.6, -0.8,0,0,1024,1024,1024,1024,0,0,0,0,0,0,0,99,,,,,,,0,32,9818.9421665683,0,10,Assisted_Takeoff,
2900,2023-10-09 20:53:33,38.4981396559562,-112.064368212446,0,,,9818.9421665683,0.656168,0,0.238352697916,0.59928479608,17,5,0,9818.9421665683,0,0,0.238352697916,0,0,0,144.8, -8.6, -0.8,0,0,1024,1024,1024,1024,0,0,0,0,0,0,0,99,,,,,,,0,32,9818.9421665683,0,10,Assisted_Takeoff,
3000,2023-10-09 20:53:33,38.498139687557,-112.064368202068,0,,,9818.9421665683,0.656168,0,0.250022645796,0.61119096444,17,5,0,9818.9421665683,0,0,0.250022645796,0,0,0,144.8, -8.6, -0.8,0,0,1024,1024,1024,1024,0,0,0,0,0,0,0,99,,,,,,,0,32,9818.9421665683,0,10,Assisted_Takeoff,
3100,2023-10-09 20:53:33,38.498139631736,-112.064368211729,0,,,9818.9421665683,0.656168,0,0.229536752752,0.6317421462,17,5,0,9818.9421665683,0,0,0.250022645796,0,0,0,144.8, -8.5, -0.8,0,0,1024,1024,1049,1024,0,0,4,0,0,0,0,99,,,,,,,0,32,9818.9421665683,0,10,Assisted_Takeoff,
3200,2023-10-09 20:53:33,38.4981396569403,-112.064368201442,0,,,9818.9421665683,0.656168,0,0.238882225492,0.64139437748,17,5,0,9818.9421665683,0,0,0.250022645796,0,0,0,144.8, -8.6, -0.8,0,0,1024,1024,1049,1024,0,0,4,0,0,0,0,99,,,,,,,0,32,9818.9421665683,0,10,Assisted_Takeoff,
3300,2023-10-09 20:53:34,38.4981396099997,-112.064368210762,0,,,9818.9421665683,0.656168,0,0.221631568772,0.6587270552,17,5,0,9818.9421665683,0,0,0.250022645796,0,0,0,144.8, -8.6, -0.8,0,0,1024,1024,1117,1024,0,0,14,0,0,0,0,99,,,,,,,0,32,9818.9421665683,0,10,Assisted_Takeoff,
3400,2023-10-09 20:53:34,38.498139629043,-112.064368199512,0,,,9818.9421665683,0.656168,0,0.228759521756,0.66638125492,17,5,0,9818.9421665683,0,0,0.250022645796,0,0,0,144.8, -8.5, -0.8,0,0,1024,1024,1171,1024,0,0,22,0,0,0,0,99,,,,,,,0,32,9818.9421665683,0,10,Assisted_Takeoff,
3500,2023-10-09 20:53:34,38.4981397453091,-112.06436820943,0,,,9818.9421665683,0.656168,0,0.270957685836,0.70889766048,17,5,0,9818.9421665683,0,0,0.270957685836,0,0,0,144.8, -8.5, -0.8,0,0,1024,1024,1219,1024,0,0,30,0,0,0,0,99,,,,,,,0,32,9818.9421665683,0,10,Assisted_Takeoff,
3600,2023-10-09 20:53:34,38.4981397768195,-112.064368200577,0,,,9818.9421665683,0.656168,0,0.282564313504,0.72066603356,17,5,0,9818.9421665683,0,0,0.282564313504,0,0,0,144.8, -8.3, -0.8,0,0,1024,1024,1273,1024,0,0,38,0,0,0,0,99,,,,,,,0,32,9818.9421665683,0,10,Assisted_Takeoff,
3700,2023-10-09 20:53:34,38.4981397253892,-112.064368215414,0,,,9818.9421665683,0.656168,0,0.2636236961,0.73990487932,17,5,0,9818.9421665683,0,0,0.282564313504,0,0,0,144.8, -8.2, -0.8,0,0,1024,1024,1292,1024,0,0,41,0,0,0,0,99,,,,,,,0,32,9818.9421665683,0,10,Assisted_Takeoff,
3800,2023-10-09 20:53:34,38.4981397517891,-112.064368205637,0,,,9818.9421665683,0.656168,0,0.273370415572,0.74993112636,17,5,0,9818.9421665683,0,0,0.282564313504,0,0,0,144.7, -8.2, -0.8,0,0,1024,1024,1358,1024,0,0,51,0,0,0,0,99,,,,,,,0,32,9818.9421665683,0,10,Assisted_Takeoff,
3900,2023-10-09 20:53:34,38.4981397101747,-112.064368216832,0,,,9818.9421665683,0.656168,0,0.25806103188,0.76544949956,17,5,0,9818.9421665683,0,0,0.282564313504,0,0,0,144.7, -8.2, -0.8,0,0,1024,1024,1383,1024,0,0,54,0,0,0,0,99,,,,,,,0,32,9818.9421665683,0,10,Assisted_Takeoff,
4000,2023-10-09 20:53:34,38.498139727768,-112.064368207286,0,,,9818.9421665683,0.656168,0,0.264593840488,0.77242128456,17,5,0,9818.9421665683,0,0,0.282564313504,0,0,0,144.7, -8.1, -0.8,0,0,1024,1024,1416,1024,0,0,59,0,0,0,0,99,,,,,,,0,32,9818.9421665683,0,10,Assisted_Takeoff,
4100,2023-10-09 20:53:34,38.4981398343047,-112.064368212758,0,,,9818.9421665683,0.656168,0,0.303360902096,0.81132220444,17,5,0,9818.9421665683,0,0,0.303360902096,0,0,0,144.8, -8, -0.9,0,0,1024,1024,1415,1024,0,0,59,0,0,0,0,99,,,,,,,0,32,9818.9421665683,0,10,Assisted_Takeoff,
4200,2023-10-09 20:53:34,38.4981398629739,-112.064368204465,0,,,9818.9421665683,0.656168,0,0.313908474612,0.8220472704,17,5,0,9818.9421665683,0,0,0.313908474612,0,0,0,144.7, -7.9, -0.9,0,0,1024,1024,1435,1024,0,0,62,0,0,0,0,99,,,,,,,0,32,9818.9421665683,0,10,Assisted_Takeoff,
4300,2023-10-09 20:53:34,38.4981398214871,-112.064368216943,0,,,9818.9421665683,0.656168,0,0.29864502268,0.837598452,17,5,0,9818.9421665683,0,0,0.313908474612,0,0,0,144.6, -7.3, -0.8,0,0,1024,1024,1448,1024,0,0,64,0,0,0,0,99,,,,,,,0,32,9818.9421665683,0,10,Assisted_Takeoff,
4400,2023-10-09 20:53:35,38.4981398390392,-112.064368203749,0,,,9818.9421665683,0.656168,0,0.30519357932,0.84502627376,17,5,0,9818.9421665683,0,0,0.313908474612,0,0,0,144.4, -5.5, -0.8,0,0,1024,1024,1464,1024,0,0,67,0,0,0,0,99,,,,,,,0,32,9818.9421665683,0,10,Assisted_Takeoff,
4500,2023-10-09 20:53:35,38.4981397766699,-112.064368195221,0,,,9818.9421665683,0.656168,0,0.282594169148,0.8679134136,17,5,0,9818.9421665683,0,0,0.313908474612,0,0,-0.223694,143.8, -0.9, -0.8,0,0,1024,1024,1473,1024,0,0,68,0,0,0,0,99,,,,,,,0,32,9818.9421665683,0,10,Assisted_Takeoff,
4600,2023-10-09 20:53:35,38.4981397844908,-112.06436816282,0,,,9818.9421665683,0.656168,0,0.286121400232,0.87759517244,17,5,0,9818.9421665683,0,0,0.313908474612,0,0,-0.447388,143.1, 4.3, 0.3,0,0,1024,1024,1470,1024,0,0,68,0,0,0,0,99,,,,,,,0,32,9818.9421665683,0,6,P-GPS,
4700,2023-10-09 20:53:35,38.4981399563016,-112.064368209006,0,,,9818.9421665683,0.656168,0,0.34788058856,0.94165357344,17,5,0,9818.9421665683,0,0,0.34788058856,0,0,-0.894776,142.6, 6.9, 1.2,0,0,1024,1024,1464,1024,0,0,67,0,0,0,0,99,,,,,,,0,32,9818.9421665683,0,6,P-GPS,
4800,2023-10-09 20:53:35,38.4981401003301,-112.064368365362,0.328084,,,9819.2702505683,0.984252,0.3131716,0.40150591836,1.01060698772,17,5,0,9819.2702505683,0.328084,0.3131716,0.40150591836,0.223694,-0.223694,-1.11847,142.2, 6.4, 0.6,0,0,1024,1024,1454,1024,0,0,65,0,0,0,0,99,,,,,,,0,32,9819.2702505683,0.328084,6,P-GPS,
4900,2023-10-09 20:53:35,38.4981402028616,-112.064368816969,0.328084,,,9819.2702505683,1.312336,0.6263432,0.46636156348,1.14487536472,17,5,0,9819.2702505683,0.328084,0.6263432,0.46636156348,0.447388,-0.447388,-1.565858,141.9, 3.7, 0.2,0,0,1024,1024,1448,1024,0,0,64,0,0,0,0,99,,,,,,,0,32,9819.2702505683,0.328084,6,P-GPS,
5000,2023-10-09 20:53:35,38.498140476831,-112.064369158216,0.656168,,,9819.5983345683,1.64042,0.6263432,0.5965551372,1.28446854504,17,5,0,9819.5983345683,0.656168,0.6263432,0.5965551372,0.671082,-0.447388,-2.23694,141.6, 1.2, 0,0,0,1024,1024,1451,1024,0,0,65,0,0,0,0,99,,,,,,,0,32,9819.5983345683,0.656168,6,P-GPS,
5100,2023-10-09 20:53:35,38.4981407021122,-112.064369647776,0.984252,,,9819.9264185683,1.968504,0.8052984,0.73678808132,1.44663062372,17,5,0,9819.9264185683,0.984252,0.8052984,0.73678808132,0.671082,-0.447388,-2.684328,141.4, -0.5, -0.4,0,0,1024,1024,1451,1024,0,0,65,0,0,0,0,99,,,,,,,0,32,9819.9264185683,0.984252,6,P-GPS,
5200,2023-10-09 20:53:35,38.4981410218951,-112.064370018521,1.64042,,,9820.5825865683,2.296588,0.8052984,0.892552522,1.60417327968,17,5,0,9820.5825865683,1.64042,0.8052984,0.892552522,0.671082,-0.447388,-3.131716,141.4, -2.2, -0.8,0,0,1024,1024,1451,1024,0,0,65,0,0,0,0,99,,,,,,,0,32,9820.5825865683,1.64042,6,P-GPS,
5300,2023-10-09 20:53:35,38.4981416144315,-112.06437032269,1.968504,,,9820.9106705683,2.624672,0.8052984,1.12113848732,1.8371555706,17,5,0,9820.9106705683,1.968504,0.8052984,1.12113848732,0.671082,-0.447388,-3.579104,141.7, -3.4, -1.5,0,0,1042,1024,1450,1024,3,0,65,0,0,0,0,99,,,,,,,0,32,9820.9106705683,1.968504,6,P-GPS,"Home Point recorded. Return-to-Home Altitude:200.1 ft"
5400,2023-10-09 20:53:36,38.4981419774304,-112.064370603499,2.624672,,,9821.5668385683,3.28084,0.8052984,1.27594820356,1.99197512936,17,5,0,9821.5668385683,2.624672,0.8052984,1.27594820356,0.671082,-0.447388,-4.026492,141.8, -3.9, -0.6,0,0,1060,1024,1450,1024,5,0,65,0,0,0,0,99,,,,,,,0,32,9821.5668385683,2.624672,6,P-GPS,
5500,2023-10-09 20:53:36,38.4981423351662,-112.064370597945,3.28084,,,9822.2230065683,3.937008,0.7158208,1.387877341,2.12250334876,17,5,0,9822.2230065683,3.28084,0.8052984,1.387877341,0.671082,-0.223694,-4.697574,141.9, -4.2, 0.4,0,0,1076,1024,1449,1024,8,0,64,0,0,0,0,99,,,,,,,0,32,9822.2230065683,3.28084,6,P-GPS,
5600,2023-10-09 20:53:36,38.4981426700739,-112.064370796924,3.937008,,,9822.8791745683,4.593176,0.7158208,1.52234584924,2.25726057092,17,5,0,9822.8791745683,3.937008,0.8052984,1.52234584924,0.671082,-0.223694,-5.144962,142, -4.9, 0.7,0,0,1109,1024,1449,1024,13,0,64,0,0,0,0,99,,,,,,,0,32,9822.8791745683,3.937008,6,P-GPS,
5700,2023-10-09 20:53:36,38.498143103515,-112.064370890557,4.92126,,,9823.8634265683,5.577428,0.7158208,1.67487866252,2.41764443432,17,5,0,9823.8634265683,4.92126,0.8052984,1.67487866252,0.671082,-0.223694,-5.59235,142.2, -5.5, 0.6,0,0,1152,1024,1448,1024,19,0,64,0,0,0,0,99,,,,,,,0,32,9823.8634265683,4.92126,6,P-GPS,
5800,2023-10-09 20:53:36,38.4981433722531,-112.064371037092,5.577428,,,9824.5195945683,6.233596,0.7158208,1.7812828654,2.52424876844,17,5,0,9824.5195945683,5.577428,0.8052984,1.7812828654,0.671082,-0.223694,-5.816044,142.4, -6.2, 0.6,0,0,1180,1024,1448,1024,24,0,64,0,0,0,0,99,,,,,,,0,32,9824.5195945683,5.577428,6,P-GPS,
5900,2023-10-09 20:53:36,38.4981433439422,-112.06437106629,6.56168,,,9825.5038465683,6.889764,0.4921268,1.7758038626,2.53752304708,17,5,0,9825.5038465683,6.56168,0.8052984,1.7812828654,0.447388,-0.223694,-6.039738,142.6, -6.8, 0.7,0,0,1203,1024,1450,1024,27,0,65,0,0,0,0,99,,,,,,,0,32,9825.5038465683,6.56168,6,P-GPS,
6000,2023-10-09 20:53:36,38.4981434935434,-112.064371129588,7.545932,,,9826.4880985683,7.545932,0.447388,1.832677224,2.59501976808,17,5,0,9826.4880985683,7.545932,0.8052984,1.832677224,0.447388,0,-6.263432,142.8, -7.8, 0.9,0,0,1203,1024,1450,1024,27,0,65,0,0,0,0,99,,,,,,,0,32,9826.4880985683,7.545932,6,P-GPS,
6100,2023-10-09 20:53:36,38.4981435323053,-112.064371545492,8.530184,,,9827.4723505683,8.2021,0.223694,1.90117788236,2.7146162286,17,5,0,9827.4723505683,8.530184,0.8052984,1.90117788236,0.223694,0,-6.487126,142.9, -8.7, 0.8,0,0,1215,1024,1449,1024,29,0,64,0,0,0,0,99,,,,,,,0,32,9827.4723505683,8.530184,6,P-GPS,
6200,2023-10-09 20:53:36,38.498143540811,-112.064371536236,9.514436,,,9828.4566025683,8.530184,0,1.90256895852,2.71869103188,17,5,0,9828.4566025683,9.514436,0.8052984,1.90256895852,0,0,-6.487126,143, -9.6, 0.9,0,0,1216,1024,1445,1024,29,0,64,0,0,0,0,99,,,,,,,0,32,9828.4566025683,9.514436,6,P-GPS,
6300,2023-10-09 20:53:36,38.4981433748185,-112.064371316365,10.498688,,,9829.4408545683,8.858268,0,1.81910110808,2.8059220058,17,5,0,9829.4408545683,10.498688,0.8052984,1.90256895852,0,0,-6.487126,143.1, -10.4, 1.3,0,0,1212,1024,1445,1024,28,0,64,0,0,0,0,99,,,,,,,0,32,9829.4408545683,10.498688,6,P-GPS,
6400,2023-10-09 20:53:37,38.4981431958387,-112.064371139852,11.154856,,,9830.0970225683,8.858268,0.223694,1.73765425508,2.88841216592,17,5,0,9830.0970225683,11.154856,0.8052984,1.90256895852,0,0.223694,-6.263432,143.1, -10.7, 1.5,0,0,1217,1024,1446,1024,29,0,64,0,0,0,0,99,,,,,,,0,32,9830.0970225683,11.154856,6,P-GPS,
6500,2023-10-09 20:53:37,38.4981427421535,-112.064371018828,12.139108,,,9831.0812745683,8.858268,0.4921268,1.57628613968,3.05750994036,17,5,0,9831.0812745683,12.139108,0.8052984,1.90256895852,-0.223694,0.447388,-6.263432,143, -10.6, 1.5,0,0,1226,1024,1447,1024,31,0,64,0,0,0,0,99,,,,,,,0,32,9831.0812745683,12.139108,6,P-GPS,
6600,2023-10-09 20:53:37,38.4981423415171,-112.064370685473,13.12336,,,9832.0655265683,9.186352,0.6263432,1.40211946744,3.23194236064,17,5,0,9832.0655265683,13.12336,0.8052984,1.90256895852,-0.447388,0.447388,-6.039738,143.1, -10.5, 1,0,0,1244,1024,1447,1024,33,0,64,0,0,0,0,99,,,,,,,0,32,9832.0655265683,13.12336,6,P-GPS,
6700,2023-10-09 20:53:37,38.4981418763591,-112.064370127719,14.107612,,,9833.0497785683,9.186352,0.9395148,1.17704400092,3.4646654652,18,5,0,9833.0497785683,14.107612,0.9395148,1.90256895852,-0.671082,0.671082,-6.039738,143.1, -10.5, 0.7,0,0,1256,1024,1450,1024,35,0,65,0,0,0,0,99,,,,,,,0,32,9833.0497785683,14.107612,6,P-GPS,
6800,2023-10-09 20:53:37,38.4981412786225,-112.064369591643,15.091864,,,9834.0340305683,8.858268,1.2750558,0.91395016048,3.73113529,18,5,0,9834.0340305683,15.091864,1.2750558,1.90256895852,-0.894776,0.894776,-5.816044,143.1, -10.4, 0.6,0,0,1274,1024,1453,1024,38,0,65,0,0,0,0,99,,,,,,,0,32,9834.0340305683,15.091864,6,P-GPS,
6900,2023-10-09 20:53:37,38.4981406072416,-112.064369032195,15.748032,,,9834.6901985683,8.858268,1.5882274,0.6260826972,4.0235565592,18,5,0,9834.6901985683,15.748032,1.5882274,1.90256895852,-1.11847,1.11847,-5.816044,143.2, -10.3, 0.8,0,0,1290,1024,1460,1024,40,0,66,0,0,0,0,99,,,,,,,0,32,9834.6901985683,15.748032,6,P-GPS,
7000,2023-10-09 20:53:37,38.4981398055117,-112.064368307338,16.732284,,,9835.6744505683,8.858268,1.901399,0.293063657672,4.381889904,18,5,0,9835.6744505683,16.732284,1.901399,1.90256895852,-1.342164,1.342164,-5.816044,143.2, -10.3, 1.2,0,0,1309,1024,1475,1024,43,0,68,0,0,0,0,99,,,,,,,0,32,9835.6744505683,16.732284,6,P-GPS,
7100,2023-10-09 20:53:37,38.4981387615499,-112.064367481127,17.716536,,,9836.6587025683,8.858268,2.3711564,0.237263130952,4.8299214144,18,5,0,9836.6587025683,17.716536,2.3711564,1.90256895852,-1.789552,1.565858,-5.816044,143.3, -10.5, 1.3,0,0,1340,1024,1479,1024,48,0,69,0,0,0,0,99,,,,,,,0,32,9836.6587025683,17.716536,6,P-GPS,
7200,2023-10-09 20:53:37,38.4981377167912,-112.064366580338,18.372704,,,9837.3148705683,8.530184,2.5501116,0.6695702314,5.2897639488,18,5,0,9837.3148705683,18.372704,2.5501116,1.90256895852,-2.013246,1.565858,-5.816044,143.2, -10.7, 1.2,0,0,1358,1024,1476,1024,51,0,68,0,0,0,0,99,,,,,,,0,32,9837.3148705683,18.372704,6,P-GPS,
7300,2023-10-09 20:53:38,38.4981364258671,-112.064365712991,19.356956,,,9838.2991225683,8.2021,3.0422384,1.18750988052,5.8219161968,18,5,0,9838.2991225683,19.356956,3.0422384,1.90256895852,-2.460634,1.789552,-6.039738,143.2, -11, 1.1,0,0,1362,1024,1477,1024,51,0,69,0,0,0,0,99,,,,,,,0,32,9838.2991225683,19.356956,6,P-GPS,
7400,2023-10-09 20:53:38,38.4981351164156,-112.064364627791,20.341208,,,9839.2833745683,8.2021,3.0422384,1.75567919004,6.3913387872,18,5,0,9839.2833745683,20.341208,3.0422384,1.90256895852,-2.908022,2.013246,-6.039738,143.2, -11.7, 0.9,0,0,1372,1024,1478,1024,53,0,69,0,0,0,0,99,,,,,,,0,32,9839.2833745683,20.341208,6,P-GPS,
7500,2023-10-09 20:53:38,38.498133634866,-112.064363640274,21.32546,,,9840.2676265683,7.874016,4.026492,2.3602855086,7.0010172844,18,5,0,9840.2676265683,21.32546,4.026492,2.3602855086,-3.35541,2.23694,-6.263432,143.2, -12.4, 0.7,0,0,1393,1024,1470,1024,56,0,68,0,0,0,0,99,,,,,,,0,32,9840.2676265683,21.32546,6,P-GPS,
7600,2023-10-09 20:53:38,38.4981320594644,-112.064362341756,21.981628,,,9840.9237945683,7.874016,4.026492,3.04418972996,7.6850068076,18,5,0,9840.9237945683,21.981628,4.026492,3.04418972996,-3.579104,2.460634,-6.263432,143.2, -12.8, 0.5,0,0,1394,1024,1460,1024,56,0,66,0,0,0,0,99,,,,,,,0,32,9840.9237945683,21.981628,6,P-GPS,
7700,2023-10-09 20:53:38,38.4981301612027,-112.064360856382,22.96588,,,9841.9080465683,8.2021,4.8317904,3.8558400184,8.4971459412,18,5,0,9841.9080465683,22.96588,4.8317904,3.8558400184,-4.026492,2.684328,-6.263432,143.3, -13.2, 0.4,0,0,1401,1024,1473,1024,57,0,68,0,0,0,0,99,,,,,,,0,32,9841.9080465683,22.96588,6,P-GPS,
7800,2023-10-09 20:53:38,38.4981283000496,-112.064359299168,23.950132,,,9842.8922985683,4.593176,5.3462866,4.6675198344,9.3088257572,18,5,0,9842.8922985683,23.950132,5.3462866,4.6675198344,-4.47388,2.908022,-6.263432,143.4, -13.6, 0.3,0,0,1408,1024,1481,1024,58,0,69,0,0,0,0,99,,,,,,,0,32,9842.8922985683,23.950132,6,P-GPS,
7900,2023-10-09 20:53:38,38.4981261736494,-112.064357745165,24.934384,,,9843.8765505683,5.249344,5.7713052,5.5599083144,10.2025593816,18,5,0,9843.8765505683,24.934384,5.7713052,5.5599083144,-4.697574,3.35541,-6.263432,143.4, -13.8, 0.3,0,0,1420,1024,1480,1024,60,0,69,0,0,0,0,99,,,,,,,0,32,9843.8765505683,24.934384,6,P-GPS,
8000,2023-10-09 20:53:38,38.4981240231894,-112.06435593806,25.918636,,,9844.8608025683,6.233596,6.263432,6.4989175308,11.1416342148,18,5,0,9844.8608025683,25.918636,6.263432,6.4989175308,-5.144962,3.579104,-6.263432,143.5, -14, 0.2,0,0,1429,1024,1479,1024,61,0,69,0,0,0,0,99,,,,,,,0,32,9844.8608025683,25.918636,6,P-GPS,
8100,2023-10-09 20:53:38,38.4981218213162,-112.064354054579,26.902888,,,9845.8450545683,7.217848,6.263432,7.46555142,12.1083993376,18,5,0,9845.8450545683,26.902888,6.263432,7.46555142,-5.59235,3.802798,-6.263432,143.5, -14, 0,0,0,1433,1024,1478,1024,62,0,69,0,0,0,0,99,,,,,,,0,32,9845.8450545683,26.902888,6,P-GPS,
8200,2023-10-09 20:53:38,38.4981193808065,-112.064351952241,27.88714,,,9846.8293065683,8.2021,7.0687304,8.5392391184,13.1822838864,18,5,0,9846.8293065683,27.88714,7.0687304,8.5392391184,-5.816044,4.026492,-6.263432,143.5, -13.8, 0.2,0,0,1439,1024,1479,1024,63,0,69,0,0,0,0,99,,,,,,,0,32,9846.8293065683,27.88714,6,P-GPS,
8300,2023-10-09 20:53:38,38.4981167724269,-112.064349768556,28.871392,,,9847.8135585683,8.858268,7.0687304,9.677001622,14.3200135816,18,5,0,9847.8135585683,28.871392,7.0687304,9.677001622,-6.263432,4.47388,-6.263432,143.5, -13.8, 0.4,0,0,1446,1024,1488,1024,64,0,70,0,0,0,0,99,,,,,,,0,32,9847.8135585683,28.871392,6,P-GPS,
8400,2023-10-09 20:53:39,38.4981140513328,-112.064347396364,29.52756,,,9848.4697265683,8.858268,8.0082452,10.8785764636,15.5218836988,18,5,0,9848.4697265683,29.52756,8.0082452,10.8785764636,-6.487126,4.697574,-6.263432,143.3, -14.2, 0.2,0,0,1454,1024,1490,1024,65,0,71,0,0,0,0,99,,,,,,,0,32,9848.4697265683,29.52756,6,P-GPS,
8500,2023-10-09 20:53:39,38.4981110006108,-112.064344996236,30.511812,,,9849.4539785683,8.858268,8.500372,12.1852694188,16.8290031632,18,5,0,9849.4539785683,30.511812,8.500372,12.1852694188,-6.934514,4.921268,-6.487126,143.2, -14, 0.1,0,0,1461,1024,1490,1024,66,0,71,0,0,0,0,99,,,,,,,0,32,9849.4539785683,30.511812,6,P-GPS,
8600,2023-10-09 20:53:39,38.4981079986059,-112.064342343101,31.496064,,,9850.4382305683,8.858268,8.500372,13.5165358656,18.160761736,18,5,0,9850.4382305683,31.496064,8.500372,13.5165358656,-7.158208,5.144962,-6.487126,143.1, -13.6, 0.5,0,0,1465,1024,1491,1024,67,0,71,0,0,0,0,99,,,,,,,0,32,9850.4382305683,31.496064,6,P-GPS,
8700,2023-10-09 20:53:39,38.4981050094347,-112.064339627214,32.480316,,,9851.4224825683,8.858268,9.3056704,14.8538062496,19.4989507552,18,5,0,9851.4224825683,32.480316,9.3056704,14.8538062496,-7.605596,5.368656,-6.71082,143.2, -13.8, 0.9,0,0,1484,1024,1502,1024,70,0,72,0,0,0,0,99,,,,,,,0,32,9851.4224825683,32.480316,6,P-GPS,
8800,2023-10-09 20:53:39,38.498101782281,-112.064336731891,33.464568,,,9852.4067345683,8.858268,9.3056704,16.2919296552,20.9376319036,18,5,0,9852.4067345683,33.464568,9.3056704,16.2919296552,-7.82929,5.59235,-6.71082,143.2, -14.4, 1.1,0,0,1490,1024,1508,1024,71,0,73,0,0,0,0,99,,,,,,,0,32,9852.4067345683,33.464568,6,P-GPS,
8900,2023-10-09 20:53:39,38.4980981875162,-112.064333691003,34.776904,,,9853.7190705683,8.858268,10.06623,17.8648627764,22.5105650248,18,5,0,9853.7190705683,34.776904,10.06623,17.8648627764,-8.052984,6.039738,-6.71082,143.2, -15.2, 1.2,0,0,1491,1024,1501,1024,71,0,72,0,0,0,0,99,,,,,,,0,32,9853.7190705683,34.776904,6,P-GPS,
9000,2023-10-09 20:53:39,38.49809468046,-112.064330538045,35.761156,,,9854.7033225683,8.858268,10.06623,19.4288392044,24.0750991956,18,5,0,9854.7033225683,35.761156,10.06623,19.4288392044,-8.500372,6.263432,-6.934514,143.3, -16, 1.4,0,0,1493,1024,1494,1024,71,0,71,0,0,0,0,99,,,,,,,0,32,9854.7033225683,35.761156,6,P-GPS,
9100,2023-10-09 20:53:39,38.4980908595104,-112.064327101018,36.745408,,,9855.6875745683,8.858268,10.8715284,21.133202776,25.7799877016,18,5,0,9855.6875745683,36.745408,10.8715284,21.133202776,-8.724066,6.487126,-6.934514,143.3, -17, 1.2,0,0,1498,1024,1494,1024,72,0,71,0,0,0,0,99,,,,,,,0,32,9855.6875745683,36.745408,6,P-GPS,
9200,2023-10-09 20:53:39,38.498087039173,-112.064323667552,37.72966,,,9856.6718265683,8.858268,11.3636552,22.8368773712,27.484088806,18,5,0,9856.6718265683,37.72966,11.3636552,22.8368773712,-9.171454,6.71082,-6.934514,143.4, -17.7, 1,0,0,1501,1024,1492,1024,72,0,71,0,0,0,0,99,,,,,,,0,32,9856.6718265683,37.72966,6,P-GPS,
9300,2023-10-09 20:53:39,38.4980832756767,-112.064320580839,38.713912,,,9857.6560785683,8.858268,11.855782,24.468176636,29.1157489632,18,5,0,9857.6560785683,38.713912,11.855782,24.468176636,-9.618842,6.934514,-6.71082,143.6, -17.9, 0.7,0,0,1505,1024,1492,1024,73,0,71,0,0,0,0,99,,,,,,,0,32,9857.6560785683,38.713912,6,P-GPS,
9400,2023-10-09 20:53:40,38.4980791509381,-112.064316882574,39.698164,,,9858.6403305683,8.858268,12.4821252,26.3062344376,30.9542004656,18,5,0,9858.6403305683,39.698164,12.4821252,26.3062344376,-10.06623,7.381902,-6.71082,143.6, -17.7, 0.9,0,0,1504,1024,1495,1024,73,0,71,0,0,0,0,99,,,,,,,0,32,9858.6403305683,39.698164,6,P-GPS,
9500,2023-10-09 20:53:40,38.4980746946021,-112.064312905234,40.682416,,,9859.6245825683,8.858268,12.974252,28.2891741336,32.937337012,18,5,0,9859.6245825683,40.682416,12.974252,28.2891741336,-10.513618,7.605596,-6.71082,143.7, -16.8, 1.2,0,0,1504,1024,1495,1024,73,0,71,0,0,0,0,99,,,,,,,0,32,9859.6245825683,40.682416,6,P-GPS,
9600,2023-10-09 20:53:40,38.4980702515988,-112.064308898348,41.666668,,,9860.6088345683,8.858268,13.2874236,30.2728684228,34.921589044,18,5,0,9860.6088345683,41.666668,13.2874236,30.2728684228,-10.737312,7.82929,-6.71082,143.7, -16, 1.7,0,0,1508,1024,1494,1024,73,0,71,0,0,0,0,99,,,,,,,0,32,9860.6088345683,41.666668,6,P-GPS,
9700,2023-10-09 20:53:40,38.4980657075736,-112.064304900017,42.65092,,,9861.5930865683,8.858268,13.7795504,32.285762188,36.934712468,18,5,0,9861.5930865683,42.65092,13.7795504,32.285762188,-11.1847,8.052984,-6.71082,143.7, -15.5, 1.9,0,0,1509,1024,1495,1024,73,0,71,0,0,0,0,99,,,,,,,0,32,9861.5930865683,42.65092,6,P-GPS,
9800,2023-10-09 20:53:40,38.4980609922159,-112.064300652186,43.635172,,,9862.5773385683,8.858268,14.092722,34.390421048,39.039699412,18,5,0,9862.5773385683,43.635172,14.092722,34.390421048,-11.408394,8.276678,-6.71082,143.6, -15.5, 1.8,0,0,1505,1024,1497,1024,73,0,72,0,0,0,0,99,,,,,,,0,32,9862.5773385683,43.635172,6,P-GPS,
9900,2023-10-09 20:53:40,38.4980562027584,-112.064296381603,44.619424,,,9863.5615905683,8.858268,14.5848488,36.520998544,41.170276908,18,5,0,9863.5615905683,44.619424,14.5848488,36.520998544,-11.855782,8.500372,-6.71082,143.6, -15.4, 1.5,0,0,1504,1024,1499,1024,73,0,72,0,0,0,0,99,,,,,,,0,32,9863.5615905683,44.619424,6,P-GPS,
10000,2023-10-09 20:53:40,38.4980512244358,-112.064291880737,45.603676,,,9864.5458425683,8.858268,15.211192,38.745736148,43.395342596,18,5,0,9864.5458425683,45.603676,15.211192,38.745736148,-12.30317,8.94776,-6.71082,143.6, -15.3, 1.4,0,0,1497,1024,1504,1024,72,0,73,0,0,0,0,99,,,,,,,0,32,9864.5458425683,45.603676,6,P-GPS,
10100,2023-10-09 20:53:40,38.4980459955859,-112.064287275891,46.916012,,,9865.8581785683,8.858268,15.5243636,41.062665356,45.712271804,18,5,0,9865.8581785683,46.916012,15.5243636,41.062665356,-12.526864,9.171454,-6.71082,143.6, -14.9, 1.5,0,0,1494,1024,1504,1024,71,0,73,0,0,0,0,99,,,,,,,0,32,9865.8581785683,46.916012,6,P-GPS,
10200,2023-10-09 20:53:40,38.4980407616324,-112.064282521411,47.900264,,,9866.8424305683,8.858268,15.8375352,43.405185116,48.055447732,18,5,0,9866.8424305683,47.900264,15.8375352,43.405185116,-12.750558,9.395148,-6.934514,143.5, -14.6, 1.6,0,0,1494,1024,1500,1024,71,0,72,0,0,0,0,99,,,,,,,0,32,9866.8424305683,47.900264,6,P-GPS,
10300,2023-10-09 20:53:41,38.4980354603911,-112.064277552766,48.884516,,,9867.8266825683,8.858268,16.1507068,45.802494904,50.454069856,18,5,0,9867.8266825683,48.884516,16.1507068,45.802494904,-12.974252,9.618842,-6.934514,143.3, -14.8, 1.4,0,0,1494,1024,1498,1024,71,0,72,0,0,0,0,99,,,,,,,0,32,9867.8266825683,48.884516,6,P-GPS,
10400,2023-10-09 20:53:41,38.4980300482591,-112.064272569985,49.868768,,,9868.8109345683,8.858268,16.4638784,48.235893932,52.887796968,18,5,0,9868.8109345683,49.868768,16.4638784,48.235893932,-13.197946,9.842536,-6.934514,143.1, -15, 1.3,0,0,1492,1024,1497,1024,71,0,72,0,0,0,0,99,,,,,,,0,32,9868.8109345683,49.868768,6,P-GPS,
10500,2023-10-09 20:53:41,38.4980244140717,-112.064267555512,50.85302,,,9869.7951865683,8.858268,16.77705,50.740815272,55.393046392,18,5,0,9869.7951865683,50.85302,16.77705,50.740815272,-13.42164,10.06623,-6.934514,142.9, -14.9, 1.9,0,0,1492,1024,1497,1024,71,0,72,0,0,0,0,99,,,,,,,0,32,9869.7951865683,50.85302,6,P-GPS,
10600,2023-10-09 20:53:41,38.4980187992538,-112.064262318427,51.837272,,,9870.7794385683,8.858268,17.2691768,53.276248424,57.929463796,18,5,0,9870.7794385683,51.837272,17.2691768,53.276248424,-13.869028,10.289924,-6.934514,143.1, -14.3, 2.8,0,0,1492,1024,1497,1024,71,0,72,0,0,0,0,99,,,,,,,0,32,9870.7794385683,51.837272,6,P-GPS,
10700,2023-10-09 20:53:41,38.4980131063672,-112.064257058081,52.821524,,,9871.7636905683,8.858268,17.5823484,55.838912548,60.492784088,18,5,0,9871.7636905683,52.821524,17.5823484,55.838912548,-14.092722,10.513618,-6.934514,143.2, -13.9, 2.9,0,0,1492,1024,1495,1024,71,0,71,0,0,0,0,99,,,,,,,0,32,9871.7636905683,52.821524,6,P-GPS,
10800,2023-10-09 20:53:41,38.498007296673,-112.06425171469,54.13386,,,9873.0760265683,8.858268,17.7613036,58.450133104,63.104332728,18,5,0,9873.0760265683,54.13386,17.7613036,58.450133104,-14.316416,10.513618,-6.934514,143.5, -14, 2.7,0,0,1492,1024,1494,1024,71,0,71,0,0,0,0,99,,,,,,,0,32,9873.0760265683,54.13386,6,P-GPS,
10900,2023-10-09 20:53:41,38.4980015554141,-112.064246333355,55.118112,,,9874.0602785683,8.858268,17.7613036,61.047246048,65.70210184,18,5,0,9874.0602785683,55.118112,17.7613036,61.047246048,-14.316416,10.513618,-6.71082,143.6, -15.5, 2.3,0,0,1493,1024,1495,1024,71,0,71,0,0,0,0,99,,,,,,,0,32,9874.0602785683,55.118112,6,P-GPS,
11000,2023-10-09 20:53:41,38.4979956810779,-112.06424091599,56.102364,,,9875.0445305683,8.858268,17.7613036,63.689962668,68.345474628,18,5,0,9875.0445305683,56.102364,17.7613036,63.689962668,-14.316416,10.737312,-6.039738,143.7, -17.7, 2.2,0,0,1492,1024,1494,1024,71,0,71,0,0,0,0,99,,,,,,,0,32,9875.0445305683,56.102364,6,P-GPS,
11100,2023-10-09 20:53:41,38.4979896131497,-112.064235503395,56.758532,,,9875.7006985683,8.858268,18.0744752,66.389765904,71.045277864,18,5,0,9875.7006985683,56.758532,18.0744752,66.389765904,-14.54011,10.737312,-5.368656,143.7, -19.6, 2.2,0,0,1492,1024,1493,1024,71,0,71,0,0,0,0,99,,,,,,,0,32,9875.7006985683,56.758532,6,P-GPS,
11200,2023-10-09 20:53:41,38.4979836388235,-112.064229961398,57.742784,,,9876.6849505683,8.858268,18.2086916,69.08300746,73.738847504,18,5,0,9876.6849505683,57.742784,18.2086916,69.08300746,-14.54011,10.961006,-4.697574,143.5, -21.1, 2.6,0,0,1491,1024,1494,1024,71,0,71,0,0,0,0,99,,,,,,,0,32,9876.6849505683,57.742784,6,P-GPS,
11300,2023-10-09 20:53:42,38.4979781697134,-112.06422464315,58.070868,,,9877.0130345683,8.858268,18.5218632,71.588256884,76.246393516,18,5,0,9877.0130345683,58.070868,18.5218632,71.588256884,-14.763804,11.1847,-3.802798,143.5, -21.6, 3.1,0,0,1491,1024,1495,1024,71,0,71,0,0,0,0,99,,,,,,,0,32,9877.0130345683,58.070868,6,P-GPS,
11400,2023-10-09 20:53:42,38.4979721131311,-112.064218925413,58.727036,,,9877.6692025683,8.858268,18.5218632,74.334648048,78.994097016,18,5,0,9877.6692025683,58.727036,18.5218632,74.334648048,-14.987498,11.408394,-3.131716,143.4, -20.9, 3.8,0,0,1489,1024,1494,1024,70,0,71,0,0,0,0,99,,,,,,,0,32,9877.6692025683,58.727036,6,P-GPS,
11500,2023-10-09 20:53:42,38.4979654575166,-112.064212640533,59.383204,,,9878.3253705683,8.858268,19.1482064,77.353348932,82.013454068,18,5,0,9878.3253705683,59.383204,19.1482064,77.353348932,-15.211192,11.632088,-2.684328,143.4, -19.3, 4.3,0,0,1489,1024,1494,1024,70,0,71,0,0,0,0,99,,,,,,,0,32,9878.3253705683,59.383204,6,P-GPS,
11600,2023-10-09 20:53:42,38.4979591795127,-112.064206706234,59.711288,,,9878.6534545683,8.858268,19.1482064,80.20177422,84.862535524,18,5,0,9878.6534545683,59.711288,19.1482064,80.20177422,-15.434886,11.632088,-2.23694,143.4, -17.2, 4.5,0,0,1487,1024,1495,1024,70,0,71,0,0,0,0,99,,,,,,,0,32,9878.6534545683,59.711288,6,P-GPS,
11700,2023-10-09 20:53:42,38.4979527015802,-112.064200589664,60.039372,,,9878.9815385683,8.858268,19.6403332,83.13976644,87.801511996,18,5,0,9878.9815385683,60.039372,19.6403332,83.13976644,-15.65858,11.855782,-1.789552,143.4, -15.6, 4.4,0,0,1487,1024,1498,1024,70,0,72,0,0,0,0,99,,,,,,,0,32,9878.9815385683,60.039372,6,P-GPS,
11800,2023-10-09 20:53:42,38.4979462746146,-112.06419451734,60.039372,,,9878.9815385683,8.858268,19.6403332,86.055120864,90.717522588,18,5,0,9878.9815385683,60.039372,19.6403332,86.055120864,-15.882274,12.079476,-1.789552,143.3, -14.5, 4.3,0,0,1487,1024,1498,1024,70,0,72,0,0,0,0,99,,,,,,,0,32,9878.9815385683,60.039372,6,P-GPS,
11900,2023-10-09 20:53:42,38.4979404216601,-112.064189054733,60.367456,,,9879.3096225683,8.858268,19.9535048,88.69914982,93.362207712,18,5,0,9879.3096225683,60.367456,19.9535048,88.69914982,-15.882274,12.079476,-1.789552,143.2, -13.7, 4.2,0,0,1487,1024,1497,1024,70,0,72,0,0,0,0,99,,,,,,,0,32,9879.3096225683,60.367456,6,P-GPS,
12000,2023-10-09 20:53:42,38.4979339497217,-112.064182972234,60.69554,,,9879.6377065683,8.858268,19.9535048,91.629924192,96.293310168,18,5,0,9879.6377065683,60.69554,19.9535048,91.629924192,-16.105968,12.079476,-1.789552,143, -13.6, 4,0,0,1487,1024,1498,1024,70,0,72,0,0,0,0,99,,,,,,,0,32,9879.6377065683,60.69554,6,P-GPS,
12100,2023-10-09 20:53:42,38.4979267039291,-112.06417631118,61.023624,,,9879.9657905683,8.858268,20.3114152,94.88681406,99.550200036,18,5,0,9879.9657905683,61.023624,20.3114152,94.88681406,-16.329662,12.079476,-1.789552,142.8, -13.7, 3.8,0,0,1487,1024,1498,1024,70,0,72,0,0,0,0,99,,,,,,,0,32,9879.9657905683,61.023624,6,P-GPS,
12200,2023-10-09 20:53:42,38.4979200653037,-112.064170110581,61.351708,,,9880.2938745683,8.858268,20.4903704,97.886486072,102.550200132,18,5,0,9880.2938745683,61.351708,20.4903704,97.886486072,-16.553356,12.079476,-2.013246,142.8, -13.3, 3.5,0,0,1486,1024,1500,1024,70,0,72,0,0,0,0,99,,,,,,,0,32,9880.2938745683,61.351708,6,P-GPS,
12300,2023-10-09 20:53:42,38.497913266773,-112.064164097822,61.679792,,,9880.6219585683,8.858268,20.803542,100.902890368,105.566932512,18,5,0,9880.6219585683,61.679792,20.803542,100.902890368,-16.77705,12.30317,-2.23694,142.8, -13.2, 3.2,0,0,1488,1024,1502,1024,70,0,72,0,0,0,0,99,,,,,,,0,32,9880.6219585683,61.679792,6,P-GPS,
12400,2023-10-09 20:53:43,38.4979065051488,-112.064157839321,62.007876,,,9880.9500425683,8.858268,20.9824972,103.949150308,108.613192452,18,5,0,9880.9500425683,62.007876,20.9824972,103.949150308,-17.000744,12.30317,-2.460634,142.8, -13.2, 2.6,0,0,1489,1024,1501,1024,70,0,72,0,0,0,0,99,,,,,,,0,32,9880.9500425683,62.007876,6,P-GPS,
12500,2023-10-09 20:53:43,38.497899968577,-112.064151303567,62.33596,,,9881.2781265683,8.858268,21.1614524,106.974084788,111.641407772,18,5,0,9881.2781265683,62.33596,21.1614524,106.974084788,-17.224438,12.30317,-2.684328,142.8, -13.3, 2.2,0,0,1489,1024,1501,1024,70,0,72,0,0,0,0,99,,,,,,,0,32,9881.2781265683,62.33596,6,P-GPS,
12600,2023-10-09 20:53:43,38.4978931581609,-112.064144897621,62.664044,,,9881.6062105683,8.858268,21.25093,110.05905864,114.727037792,18,5,0,9881.6062105683,62.664044,21.25093,110.05905864,-17.000744,12.750558,-3.131716,142.8, -13.7, 2.2,0,0,1491,1024,1498,1024,71,0,72,0,0,0,0,99,,,,,,,0,32,9881.6062105683,62.664044,6,P-GPS,
12700,2023-10-09 20:53:43,38.4978861816059,-112.064138500625,63.320212,,,9882.2623785683,8.858268,21.3851464,113.191932756,117.859911908,18,5,0,9882.2623785683,63.320212,21.3851464,113.191932756,-17.000744,12.974252,-3.35541,142.7, -13.9, 2.6,0,0,1490,1024,1498,1024,71,0,72,0,0,0,0,99,,,,,,,0,32,9882.2623785683,63.320212,6,P-GPS,
12800,2023-10-09 20:53:43,38.4978792667214,-112.064131966971,63.648296,,,9882.5904625683,8.858268,21.3851464,116.329071964,120.997707284,18,5,0,9882.5904625683,63.648296,21.3851464,116.329071964,-17.000744,12.974252,-3.579104,142.9, -13.7, 3.3,0,0,1491,1024,1496,1024,71,0,72,0,0,0,0,99,,,,,,,0,32,9882.5904625683,63.648296,6,P-GPS,
12900,2023-10-09 20:53:43,38.4978723825609,-112.064125259439,64.304464,,,9883.2466305683,8.858268,21.698318,119.486224296,124.156171952,18,5,0,9883.2466305683,64.304464,21.698318,119.486224296,-17.224438,13.197946,-3.802798,142.9, -13.6, 3.9,0,0,1490,1024,1496,1024,71,0,72,0,0,0,0,99,,,,,,,0,32,9883.2466305683,64.304464,6,P-GPS,
13000,2023-10-09 20:53:43,38.4978653593375,-112.064118637576,64.960632,,,9883.9027985683,8.858268,21.698318,122.670279516,127.34088334,18,5,0,9883.9027985683,64.960632,21.698318,122.670279516,-17.224438,13.197946,-4.026492,142.9, -13.6, 4.3,0,0,1490,1024,1496,1024,71,0,72,0,0,0,0,99,,,,,,,0,32,9883.9027985683,64.960632,6,P-GPS,
13100,2023-10-09 20:53:43,38.4978581046224,-112.064111969695,65.288716,,,9884.2308825683,8.858268,22.0114896,125.930778308,130.601382132,18,5,0,9884.2308825683,65.288716,22.0114896,125.930778308,-17.448132,13.42164,-4.47388,142.8, -13.3, 4.7,0,0,1491,1024,1497,1024,71,0,72,0,0,0,0,99,,,,,,,0,32,9884.2308825683,65.288716,6,P-GPS,
13200,2023-10-09 20:53:43,38.4978509478336,-112.064105308882,65.944884,,,9884.8870505683,8.858268,22.0114896,129.161093372,133.831697196,18,5,0,9884.8870505683,65.944884,22.0114896,129.161093372,-17.448132,13.42164,-4.250186,143, -14.4, 4.5,0,0,1491,1024,1497,1024,71,0,72,0,0,0,0,99,,,,,,,0,32,9884.8870505683,65.944884,6,P-GPS,
13300,2023-10-09 20:53:44,38.4978438934581,-112.064098387993,66.601052,,,9885.5432185683,8.858268,22.1904448,132.404203712,137.07677604,18,5,0,9885.5432185683,66.601052,22.1904448,132.404203712,-17.671826,13.42164,-4.026492,143.1, -16.6, 4,0,0,1492,1024,1497,1024,71,0,72,0,0,0,0,99,,,,,,,0,32,9885.5432185683,66.601052,6,P-GPS,
13400,2023-10-09 20:53:44,38.4978366967829,-112.064091652385,67.25722,,,9886.1993865683,8.858268,22.1904448,135.658796992,140.33136932,18,5,0,9886.1993865683,67.25722,22.1904448,135.658796992,-17.671826,13.42164,-3.35541,143.2, -18.6, 3.8,0,0,1491,1024,1495,1024,71,0,71,0,0,0,0,99,,,,,,,0,32,9886.1993865683,67.25722,6,P-GPS,
13500,2023-10-09 20:53:44,38.4978295050057,-112.064084871196,67.585304,,,9886.5274705683,8.858268,22.1904448,138.919295784,143.59252428,18,5,0,9886.5274705683,67.585304,22.1904448,138.919295784,-17.671826,13.42164,-2.684328,143.2, -19.5, 4,0,0,1492,1024,1495,1024,71,0,71,0,0,0,0,99,,,,,,,0,32,9886.5274705683,67.585304,6,P-GPS,
13600,2023-10-09 20:53:44,38.4978222161928,-112.064077996414,68.241472,,,9887.1836385683,8.858268,22.5036164,142.224414,146.89797058,18,5,0,9887.1836385683,68.241472,22.5036164,142.224414,-17.89552,13.645334,-2.23694,143.2, -18.9, 4.3,0,0,1492,1024,1494,1024,71,0,71,0,0,0,0,99,,,,,,,0,32,9887.1836385683,68.241472,6,P-GPS,
13700,2023-10-09 20:53:44,38.4978147464269,-112.064071046794,68.569556,,,9887.5117225683,8.858268,22.6825716,145.5954771,150.26903368,18,5,0,9887.5117225683,68.569556,22.6825716,145.5954771,-18.119214,13.645334,-2.013246,143.3, -17.5, 4.8,0,0,1494,1024,1493,1024,71,0,71,0,0,0,0,99,,,,,,,0,32,9887.5117225683,68.569556,6,P-GPS,
13800,2023-10-09 20:53:44,38.4978073182086,-112.064064043955,68.89764,,,9887.8398065683,8.858268,22.816788,148.96325936,153.637144024,18,5,0,9887.8398065683,68.89764,22.816788,148.96325936,-18.119214,13.869028,-1.789552,143.3, -15.9, 5,0,0,1495,1024,1481,1024,71,0,69,0,0,0,0,99,,,,,,,0,32,9887.8398065683,68.89764,6,P-GPS,
13900,2023-10-09 20:53:44,38.4977993754233,-112.06405642606,69.225724,,,9888.1678905683,8.858268,22.9957432,152.585962888,157.26050372,18,5,0,9888.1678905683,69.225724,22.9957432,152.585962888,-18.342908,13.869028,-1.565858,143.3, -14.6, 5.2,0,0,1495,1024,1481,1024,71,0,69,0,0,0,0,99,,,,,,,0,32,9888.1678905683,69.225724,6,P-GPS,
14000,2023-10-09 20:53:44,38.497791802422,-112.064049316697,69.225724,,,9888.1678905683,8.858268,23.1746984,156.014440688,160.689309604,18,5,0,9888.1678905683,69.225724,23.1746984,156.014440688,-18.566602,13.869028,-1.565858,143.3, -13.9, 5.2,0,0,1494,1024,1468,1024,71,0,67,0,0,0,0,99,,,,,,,0,32,9888.1678905683,69.225724,6,P-GPS,
14100,2023-10-09 20:53:44,38.4977842006149,-112.064042357273,69.553808,,,9888.4959745683,8.858268,23.1746984,159.426514288,164.10105512,18,5,0,9888.4959745683,69.553808,23.1746984,159.426514288,-18.566602,13.869028,-1.565858,143.2, -13.5, 4.9,0,0,1493,1024,1462,1024,71,0,66,0,0,0,0,99,,,,,,,0,32,9888.4959745683,69.553808,6,P-GPS,
14200,2023-10-09 20:53:44,38.4977765378392,-112.064035230863,69.881892,,,9888.8240585683,8.858268,23.3536536,162.884191564,167.55906048,18,5,0,9888.8240585683,69.881892,23.3536536,162.884191564,-18.790296,13.869028,-1.565858,143.1, -13.3, 4.5,0,0,1493,1024,1456,1024,71,0,65,0,0,0,0,99,,,,,,,0,32,9888.8240585683,69.881892,6,P-GPS,
14300,2023-10-09 20:53:45,38.4977689378132,-112.064028230715,70.209976,,,9889.1521425683,8.858268,23.5326088,166.30249876,170.977367676,18,5,0,9889.1521425683,70.209976,23.5326088,166.30249876,-19.01399,13.869028,-1.789552,143, -12.9, 4,0,0,1494,1024,1449,1024,71,0,64,0,0,0,0,99,,,,,,,0,32,9889.1521425683,70.209976,6,P-GPS,
14400,2023-10-09 20:53:45,38.4977612100274,-112.064021042837,70.209976,,,9889.1521425683,8.858268,23.5326088,169.789703596,174.464572512,18,5,0,9889.1521425683,70.209976,23.5326088,169.789703596,-19.01399,13.869028,-2.013246,143, -12.7, 3.6,0,0,1495,1024,1442,1024,71,0,63,0,0,0,0,99,,,,,,,0,32,9889.1521425683,70.209976,6,P-GPS,
14500,2023-10-09 20:53:45,38.4977541865985,-112.064014477563,70.53806,,,9889.4802265683,8.858268,23.8457804,172.964572464,177.639769464,18,5,0,9889.4802265683,70.53806,23.8457804,172.964572464,-19.237684,14.092722,-2.013246,142.9, -12.2, 3.5,0,0,1494,1024,1445,1024,71,0,64,0,0,0,0,99,,,,,,,0,32,9889.4802265683,70.53806,6,P-GPS,
14600,2023-10-09 20:53:45,38.4977464704241,-112.064007253556,70.866144,,,9889.8083105683,8.858268,24.0247356,176.454730056,181.129927056,18,5,0,9889.8083105683,70.866144,24.0247356,176.454730056,-19.461378,14.092722,-2.460634,142.8, -11.4, 3.7,0,0,1495,1024,1445,1024,71,0,64,0,0,0,0,99,,,,,,,0,32,9889.8083105683,70.866144,6,P-GPS,
14700,2023-10-09 20:53:45,38.497738087433,-112.063999548569,71.194228,,,9890.1363945683,8.858268,23.8457804,180.222118628,184.897315628,18,5,0,9890.1363945683,71.194228,24.0247356,180.222118628,-19.237684,14.092722,-2.460634,143, -12.2, 3.6,0,0,1494,1024,1457,1024,71,0,66,0,0,0,0,99,,,,,,,0,32,9890.1363945683,71.194228,6,P-GPS,
14800,2023-10-09 20:53:45,38.4977303143662,-112.063992241343,71.850396,,,9890.7925625683,8.858268,23.8457804,183.742788032,188.418313116,18,5,0,9890.7925625683,71.850396,24.0247356,183.742788032,-19.237684,14.092722,-2.23694,143.2, -14.3, 3.3,0,0,1496,1024,1492,1024,72,0,71,0,0,0,0,99,,,,,,,0,32,9890.7925625683,71.850396,6,P-GPS,
14900,2023-10-09 20:53:45,38.4977224739943,-112.063985015038,72.17848,,,9891.1206465683,8.858268,23.8457804,187.270019116,191.9455442,18,5,0,9891.1206465683,72.17848,24.0247356,187.270019116,-19.461378,14.316416,-1.789552,143.2, -15.7, 3.3,0,0,1496,1024,1492,1024,72,0,71,0,0,0,0,99,,,,,,,0,32,9891.1206465683,72.17848,6,P-GPS,
15000,2023-10-09 20:53:45,38.4977146483164,-112.06397760155,72.17848,,,9891.1206465683,8.858268,24.158952,190.824153088,195.499678172,18,5,0,9891.1206465683,72.17848,24.158952,190.824153088,-19.461378,14.316416,-1.565858,143.3, -15.7, 3.6,0,0,1497,1024,1497,1024,72,0,72,0,0,0,0,99,,,,,,,0,32,9891.1206465683,72.17848,6,P-GPS,
15100,2023-10-09 20:53:45,38.4977068587402,-112.063970178345,72.506564,,,9891.4487305683,8.858268,24.158952,194.369100708,199.04528196,18,5,0,9891.4487305683,72.506564,24.158952,194.369100708,-19.461378,14.54011,-1.342164,143.3, -14.9, 4,0,0,1495,1024,1501,1024,71,0,72,0,0,0,0,99,,,,,,,0,32,9891.4487305683,72.506564,6,P-GPS,
15200,2023-10-09 20:53:45,38.4976989510289,-112.063962659908,72.834648,,,9891.7768145683,8.858268,24.2931684,197.964901348,202.641410684,18,5,0,9891.7768145683,72.834648,24.2931684,197.964901348,-19.461378,14.54011,-1.342164,143.4, -13.9, 4.2,0,0,1494,1024,1512,1024,71,0,74,0,0,0,0,99,,,,,,,0,32,9891.7768145683,72.834648,6,P-GPS,
15300,2023-10-09 20:53:45,38.4976917245203,-112.063955780005,72.834648,,,9891.7768145683,8.858268,24.2931684,201.252303028,205.929468532,18,5,0,9891.7768145683,72.834648,24.2931684,201.252303028,-19.685072,14.54011,-1.342164,143.5, -13.1, 4.4,0,0,1491,1024,1514,1024,71,0,74,0,0,0,0,99,,,,,,,0,32,9891.7768145683,72.834648,6,P-GPS,
15400,2023-10-09 20:53:46,38.4976838281807,-112.063948267082,73.162732,,,9892.1048985683,8.858268,24.60634,204.843838576,209.521332164,18,5,0,9892.1048985683,73.162732,24.60634,204.843838576,-19.685072,14.763804,-1.342164,143.4, -12.4, 4.5,0,0,1488,1024,1522,1024,70,0,75,0,0,0,0,99,,,,,,,0,32,9892.1048985683,73.162732,6,P-GPS,
15500,2023-10-09 20:53:46,38.497675708039,-112.063940552795,73.490816,,,9892.4329825683,8.858268,24.60634,208.535439744,213.213261416,18,5,0,9892.4329825683,73.490816,24.60634,208.535439744,-19.685072,14.763804,-1.342164,143.4, -12.1, 4.7,0,0,1486,1024,1531,1024,70,0,77,0,0,0,0,99,,,,,,,0,32,9892.4329825683,73.490816,6,P-GPS,
15600,2023-10-09 20:53:46,38.4976677606983,-112.063933010067,73.490816,,,9892.4329825683,8.858268,24.60634,212.146988416,216.825138172,18,5,0,9892.4329825683,73.490816,24.60634,212.146988416,-19.908766,14.763804,-1.565858,143.3, -12, 4.6,0,0,1484,1024,1531,1024,70,0,77,0,0,0,0,99,,,,,,,0,32,9892.4329825683,73.490816,6,P-GPS,
15700,2023-10-09 20:53:46,38.497659088381,-112.063924839964,73.8189,,,9892.7610665683,8.858268,24.7852952,216.078090904,220.75624066,18,5,0,9892.7610665683,73.8189,24.7852952,216.078090904,-19.908766,14.763804,-1.565858,143.2, -12, 4.3,0,0,1476,1024,1525,1024,68,0,76,0,0,0,0,99,,,,,,,0,32,9892.7610665683,73.8189,6,P-GPS,
15800,2023-10-09 20:53:46,38.497651053047,-112.063917222355,74.146984,,,9893.0891505683,8.858268,24.7852952,219.728353488,224.406831328,18,5,0,9893.0891505683,74.146984,24.7852952,219.728353488,-19.908766,14.763804,-1.789552,143, -11.8, 4.3,0,0,1476,1024,1524,1024,68,0,76,0,0,0,0,99,,,,,,,0,32,9893.0891505683,74.146984,6,P-GPS,
15900,2023-10-09 20:53:46,38.4976430927933,-112.063909528812,74.475068,,,9893.4172345683,8.858268,24.7852952,223.369101636,228.048235644,18,5,0,9893.4172345683,74.475068,24.7852952,223.369101636,-19.908766,14.763804,-2.013246,143, -11.5, 4.3,0,0,1486,1024,1547,1024,70,0,79,0,0,0,0,99,,,,,,,0,32,9893.4172345683,74.475068,6,P-GPS,
16000,2023-10-09 20:53:46,38.4976350416008,-112.063901876453,74.803152,,,9893.7453185683,8.858268,24.7852952,227.029862908,231.709325,18,5,0,9893.7453185683,74.803152,24.7852952,227.029862908,-19.908766,14.763804,-2.23694,143, -11.3, 4.2,0,0,1489,1024,1548,1024,70,0,79,0,0,0,0,99,,,,,,,0,32,9893.7453185683,74.803152,6,P-GPS,
16100,2023-10-09 20:53:46,38.4976268760752,-112.063894385543,75.131236,,,9894.0734025683,8.858268,24.7852952,230.69718586,235.376976036,18,5,0,9894.0734025683,75.131236,24.7852952,230.69718586,-19.908766,14.763804,-2.460634,143.1, -11.3, 4.1,0,0,1489,1024,1560,1024,70,0,81,0,0,0,0,99,,,,,,,0,32,9894.0734025683,75.131236,6,P-GPS,
16200,2023-10-09 20:53:46,38.4976187978921,-112.063886735022,75.45932,,,9894.4014865683,8.858268,24.7852952,234.365821148,239.045611324,18,5,0,9894.4014865683,75.45932,24.7852952,234.365821148,-19.908766,14.763804,-2.684328,143.1, -11.5, 4.1,0,0,1489,1024,1560,1024,70,0,81,0,0,0,0,99,,,,,,,0,32,9894.4014865683,75.45932,6,P-GPS,
16300,2023-10-09 20:53:46,38.4976114905831,-112.063879718485,75.787404,,,9894.7295705683,8.858268,24.7852952,237.70013884,242.380585184,18,5,0,9894.7295705683,75.787404,24.7852952,237.70013884,-19.908766,14.763804,-2.908022,143.1, -11.5, 4.3,0,0,1489,1024,1563,1024,70,0,82,0,0,0,0,99,,,,,,,0,32,9894.7295705683,75.787404,6,P-GPS,
16400,2023-10-09 20:53:47,38.4976034638122,-112.063872104288,76.443572,,,9895.3857385683,8.858268,24.7852952,241.347448668,246.027895012,18,5,0,9895.3857385683,76.443572,24.7852952,241.347448668,-19.908766,14.763804,-3.131716,143.1, -11.6, 4.5,0,0,1487,1024,1571,1024,70,0,83,0,0,0,0,99,,,,,,,0,32,9895.3857385683,76.443572,6,P-GPS,
16500,2023-10-09 20:53:47,38.4975952725977,-112.063864303477,76.771656,,,9895.7138225683,8.858268,25.0984668,245.074482908,249.755257336,18,5,0,9895.7138225683,76.771656,25.0984668,245.074482908,-20.13246,14.987498,-3.35541,143.2, -11.8, 4.4,0,0,1486,1024,1573,1024,70,0,83,0,0,0,0,99,,,,,,,0,32,9895.7138225683,76.771656,6,P-GPS,
16600,2023-10-09 20:53:47,38.4975872000661,-112.063856664597,77.427824,,,9896.3699905683,8.858268,25.0984668,248.739181188,253.4202837,18,5,0,9896.3699905683,77.427824,25.0984668,248.739181188,-20.13246,14.987498,-3.579104,143.1, -11.8, 4.4,0,0,1469,1024,1597,1024,67,0,87,0,0,0,0,99,,,,,,,0,32,9896.3699905683,77.427824,6,P-GPS,
16700,2023-10-09 20:53:47,38.4975782445881,-112.063848318865,77.755908,,,9896.6980745683,8.858268,25.0984668,252.783472656,257.464247084,18,5,0,9896.6980745683,77.755908,25.0984668,252.783472656,-20.13246,14.987498,-3.802798,143.1, -11.8, 4.5,0,0,1457,1024,1607,1024,66,0,88,0,0,0,0,99,,,,,,,0,32,9896.6980745683,77.755908,6,P-GPS,
16800,2023-10-09 20:53:47,38.4975700635464,-112.063840595168,78.412076,,,9897.3542425683,8.858268,25.0984668,256.49443078,261.175533292,18,5,0,9897.3542425683,78.412076,25.0984668,256.49443078,-20.13246,14.987498,-4.026492,143, -11.6, 4.5,0,0,1455,1024,1616,1024,65,0,90,0,0,0,0,99,,,,,,,0,32,9897.3542425683,78.412076,6,P-GPS,
16900,2023-10-09 20:53:47,38.4975619154894,-112.063832962459,79.068244,,,9898.0104105683,8.858268,25.0984668,260.18045452,264.861885116,18,5,0,9898.0104105683,79.068244,25.0984668,260.18045452,-20.13246,14.987498,-4.250186,143.1, -11.1, 4.6,0,0,1457,1024,1623,1024,66,0,91,0,0,0,0,99,,,,,,,0,32,9898.0104105683,79.068244,6,P-GPS,
17000,2023-10-09 20:53:47,38.4975537190001,-112.063825224232,79.724412,,,9898.6665785683,8.858268,24.9195116,263.898630492,268.580061088,18,5,0,9898.6665785683,79.724412,25.0984668,263.898630492,-19.908766,14.987498,-4.47388,143.2, -10.4, 4.8,0,0,1459,1024,1645,1024,66,0,94,0,0,0,0,99,,,,,,,0,32,9898.6665785683,79.724412,6,P-GPS,
17100,2023-10-09 20:53:47,38.497546171722,-112.06381823763,80.38058,,,9899.3227465683,8.858268,25.0984668,267.298893068,271.980323664,18,5,0,9899.3227465683,80.38058,25.0984668,267.298893068,-20.13246,14.987498,-4.697574,143.3, -10.2, 4.7,0,0,1465,1024,1656,1024,67,0,96,0,0,0,0,99,,,,,,,0,32,9899.3227465683,80.38058,6,P-GPS,
17200,2023-10-09 20:53:47,38.4975380168146,-112.063810604046,81.364832,,,9900.3069985683,8.858268,24.9195116,270.987213396,275.668643992,18,5,0,9900.3069985683,81.364832,25.0984668,270.987213396,-19.908766,14.987498,-5.144962,143.3, -10.5, 4.6,0,0,1466,1024,1659,1024,67,0,96,0,0,0,0,99,,,,,,,0,32,9900.3069985683,81.364832,6,P-GPS,
17300,2023-10-09 20:53:48,38.4975296471475,-112.063803029939,82.021,,,9900.9631665683,8.858268,24.9195116,274.729011416,279.410770096,18,5,0,9900.9631665683,82.021,25.0984668,274.729011416,-19.908766,14.987498,-5.368656,143.3, -10.8, 4.4,0,0,1465,1024,1658,1024,67,0,96,0,0,0,0,99,,,,,,,0,32,9900.9631665683,82.021,6,P-GPS,
17400,2023-10-09 20:53:48,38.4975214593582,-112.063795403795,83.005252,,,9901.9474185683,8.858268,24.9195116,278.425861928,283.107292524,18,5,0,9901.9474185683,83.005252,25.0984668,278.425861928,-19.908766,14.987498,-5.59235,143.3, -11, 4.4,0,0,1465,1024,1663,1024,67,0,97,0,0,0,0,99,,,,,,,0,32,9901.9474185683,83.005252,6,P-GPS,
17500,2023-10-09 20:53:48,38.497513115928,-112.063787637383,83.66142,,,9902.6035865683,8.858268,25.0984668,282.191938164,286.873696844,18,5,0,9902.6035865683,83.66142,25.0984668,282.191938164,-20.13246,14.987498,-5.816044,143.3, -11, 4.4,0,0,1465,1024,1674,1024,67,0,98,0,0,0,0,99,,,,,,,0,32,9902.6035865683,83.66142,6,P-GPS,
17600,2023-10-09 20:53:48,38.4975048818986,-112.063779966686,84.645672,,,9903.5878385683,8.858268,25.0984668,285.909786052,290.591544732,18,5,0,9903.5878385683,84.645672,25.0984668,285.909786052,-20.13246,14.987498,-6.039738,143.4, -10.5, 4.7,0,0,1466,1024,1684,1024,67,0,100,0,0,0,0,99,,,,,,,0,32,9903.5878385683,84.645672,6,P-GPS,
17700,2023-10-09 20:53:48,38.4974964399599,-112.063772250735,85.629924,,,9904.5720905683,8.858268,25.0984668,289.696859664,294.378618344,18,5,0,9904.5720905683,85.629924,25.0984668,289.696859664,-20.13246,14.987498,-6.263432,143.4, -10.3, 4.9,0,0,1467,1024,1684,1024,67,0,100,0,0,0,0,99,,,,,,,0,32,9904.5720905683,85.629924,6,P-GPS,
17800,2023-10-09 20:53:48,38.4974881551006,-112.06376459273,86.614176,,,9905.5563425683,8.858268,25.0984668,293.427502828,298.109261508,18,5,0,9905.5563425683,86.614176,25.0984668,293.427502828,-20.13246,14.987498,-6.487126,143.4, -10.6, 4.8,0,0,1468,1024,1684,1024,67,0,100,0,0,0,0,99,,,,,,,0,32,9905.5563425683,86.614176,6,P-GPS,
17900,2023-10-09 20:53:48,38.497479123686,-112.063756347351,87.598428,,,9906.5405945683,8.858268,25.0984668,297.47704364,302.159130404,18,5,0,9906.5405945683,87.598428,25.0984668,297.47704364,-20.13246,14.987498,-6.71082,143.5, -10.6, 4.8,0,0,1468,1024,1684,1024,67,0,100,0,0,0,0,99,,,,,,,0,32,9906.5405945683,87.598428,6,P-GPS,
18000,2023-10-09 20:53:48,38.4974707499086,-112.063748651883,88.58268,,,9907.5248465683,8.858268,25.0984668,301.240495204,305.922253884,18,5,0,9907.5248465683,88.58268,25.0984668,301.240495204,-20.13246,14.987498,-6.934514,143.6, -10.3, 4.8,0,0,1470,1024,1684,1024,68,0,100,0,0,0,0,99,,,,,,,0,32,9907.5248465683,88.58268,6,P-GPS,
18100,2023-10-09 20:53:48,38.497462416343,-112.063741031341,89.566932,,,9908.5090985683,8.858268,25.0984668,304.979340468,309.661427232,18,5,0,9908.5090985683,89.566932,25.0984668,304.979340468,-20.356154,14.987498,-7.158208,143.7, -10.2, 4.8,0,0,1472,1024,1684,1024,68,0,100,0,0,0,0,99,,,,,,,0,32,9908.5090985683,89.566932,6,P-GPS,
18200,2023-10-09 20:53:48,38.4974540324271,-112.063733376093,90.551184,,,9909.4933505683,8.858268,25.277422,308.738855024,313.420941788,18,5,0,9909.4933505683,90.551184,25.277422,308.738855024,-20.356154,14.987498,-7.381902,143.7, -10.2, 4.5,0,0,1475,1024,1684,1024,68,0,100,0,0,0,0,98,,,,,,,0,32,9909.4933505683,90.551184,6,P-GPS,
18300,2023-10-09 20:53:48,38.4974463052579,-112.063726629675,91.535436,,,9910.4776025683,8.858268,25.0984668,312.151912876,316.83564006,18,5,0,9910.4776025683,91.535436,25.277422,312.151912876,-20.13246,14.987498,-7.605596,143.6, -10.3, 4.2,0,0,1478,1024,1684,1024,69,0,100,0,0,0,0,98,,,,,,,0,32,9910.4776025683,91.535436,6,P-GPS,
18400,2023-10-09 20:53:49,38.4974379853931,-112.063719056487,92.847772,,,9911.7899385683,8.858268,25.0984668,315.878947116,320.562346216,18,5,0,9911.7899385683,92.847772,25.277422,315.878947116,-20.13246,14.987498,-7.82929,143.5, -10.6, 4.1,0,0,1480,1024,1684,1024,69,0,100,0,0,0,0,98,,,,,,,0,32,9911.7899385683,92.847772,6,P-GPS,
18500,2023-10-09 20:53:49,38.4974295649647,-112.063711352616,93.832024,,,9912.7741905683,8.858268,25.0984668,319.657490544,324.340889644,18,5,0,9912.7741905683,93.832024,25.277422,319.657490544,-20.13246,14.987498,-7.82929,143.4, -10.7, 4.4,0,0,1479,1024,1684,1024,69,0,100,0,0,0,0,98,,,,,,,0,32,9912.7741905683,93.832024,6,P-GPS,
18600,2023-10-09 20:53:49,38.4974212405786,-112.063703771637,95.14436,,,9914.0865265683,8.858268,25.0984668,323.386821372,328.070548556,18,5,0,9914.0865265683,95.14436,25.277422,323.386821372,-20.13246,14.987498,-8.052984,143.3, -10.8, 4.6,0,0,1480,1024,1684,1024,69,0,100,0,0,0,0,98,,,,,,,0,32,9914.0865265683,95.14436,6,P-GPS,
