time(millisecond),datetime(utc),latitude,longitude,height_above_takeoff(feet),height_above_ground_at_drone_location(feet),ground_elevation_at_drone_location(feet),altitude_above_seaLevel(feet),height_sonar(feet),speed(mph),distance(feet),mileage(feet),satellites,gpslevel,voltage(v),max_altitude(feet),max_ascent(feet),max_speed(mph),max_distance(feet), xSpeed(mph), ySpeed(mph), zSpeed(mph), compass_heading(degrees), pitch(degrees), roll(degrees),isPhoto,isVideo,rc_elevator,rc_aileron,rc_throttle,rc_rudder,rc_elevator(percent),rc_aileron(percent),rc_throttle(percent),rc_rudder(percent),gimbal_heading(degrees),gimbal_pitch(degrees),gimbal_roll(degrees),battery_percent,voltageCell1,voltageCell2,voltageCell3,voltageCell4,voltageCell5,voltageCell6,current(A),battery_temperature(f),altitude(feet),ascent(feet),flycStateRaw,flycState,message
651100,2023-10-09 21:28:41,38.4851889765334,-112.054628402666,800.52496,Available with any HD 360 subscription,Available with any HD 360 subscription,10620.186412024,8.2021,0.447388,0,0,24,5,0,10620.186412024,800.52496,0.447388,0,0,-0.447388,0,258.7, -9.5, 0.7,0,0,1024,1024,1024,1024,0,0,0,0,0,0,0,66,3.869,3.873,3.878,3.878,3.88,3.881,0,32,10620.186412024,800.52496,6,P-GPS,
651200,2023-10-09 21:28:41,38.4851889546121,-112.054628885835,800.52496,,,10620.186412024,8.2021,0.894776,0.138221133032,0.138221133032,24,5,0,10620.186412024,800.52496,0.894776,0.138221133032,0,-0.894776,0,258.4, -8.2, 1.3,0,0,1024,1024,1024,1024,0,0,0,0,0,0,0,66,3.869,3.873,3.878,3.878,3.88,3.881,0,32,10620.186412024,800.52496,6,P-GPS,
651300,2023-10-09 21:28:41,38.4851887014211,-112.054629610589,800.52496,,,10620.186412024,8.2021,1.342164,0.35928150756,0.36488518228,24,5,0,10620.186412024,800.52496,1.342164,0.35928150756,0,-1.342164,0,258.1, -3.8, 2.3,0,0,1024,1024,1024,1024,0,0,0,0,0,0,0,66,3.869,3.873,3.878,3.878,3.88,3.881,0,32,10620.186412024,800.52496,6,P-GPS,
651400,2023-10-09 21:28:41,38.4851885929106,-112.054630425676,800.52496,,,10620.186412024,8.2021,1.565858,0.59446852296,0.60101051792,24,5,0,10620.186412024,800.52496,1.565858,0.59446852296,0,-1.565858,0,257.9, 0, 4,0,0,1024,1024,1024,1024,0,0,0,0,0,0,0,66,3.869,3.873,3.878,3.878,3.88,3.881,0,32,10620.186412024,800.52496,6,P-GPS,"Setting new Return-To-Home altitude to 61m (200 ft). Data Recorder File Index is 41. Setting new Maximum Flight Altitude to 500m (1640 ft)"
651500,2023-10-09 21:28:41,38.4851885424916,-112.054631326893,800.853044,,,10620.514496024,8.2021,1.565858,5489.7967636,0.85904858392,24,5,0,10620.514496024,800.853044,1.565858,5489.7967636,0,-1.565858,0,257.8, 2.7, 5,0,0,1024,1024,1024,1024,0,0,0,0,0,0,0,66,3.869,3.873,3.878,3.878,3.88,3.881,0,32,10620.514496024,800.853044,6,P-GPS,
651600,2023-10-09 21:28:41,38.4851885139939,-112.054632216906,800.853044,,,10620.514496024,8.2021,1.565858,5489.6983384,1.11344163668,24,5,0,10620.514496024,800.853044,1.565858,5489.7967636,0,-1.565858,0,257.6, 4.5, 4.9,0,0,1024,1024,1024,1024,0,0,0,0,0,0,0,66,3.869,3.873,3.878,3.878,3.88,3.881,0,32,10620.514496024,800.853044,6,P-GPS,
651700,2023-10-09 21:28:41,38.4851885589325,-112.054632917153,800.853044,,,10620.514496024,8.2021,1.565858,5489.5671048,1.31409781108,24,5,0,10620.514496024,800.853044,1.565858,5489.7967636,0,-1.565858,0,257.6, 5.3, 4.3,0,0,1024,1024,1024,1024,0,0,0,0,0,0,0,66,3.869,3.873,3.878,3.878,3.88,3.881,0,32,10620.514496024,800.853044,6,P-GPS,
651800,2023-10-09 21:28:41,38.4851886400413,-112.05463373084,800.853044,,,10620.514496024,8.2021,1.5882274,5489.4358712,1.54835634876,24,5,0,10620.514496024,800.853044,1.5882274,5489.7967636,0.223694,-1.565858,0,258.1, 6.4, 2.8,0,0,1024,1024,1024,1024,0,0,0,0,0,0,0,66,3.869,3.873,3.878,3.878,3.88,3.881,0,32,10620.514496024,800.853044,6,P-GPS,
651900,2023-10-09 21:28:42,38.4851890192799,-112.054634541726,800.853044,,,10620.514496024,8.2021,1.3645334,5489.2062124,1.8181266986,24,5,0,10620.514496024,800.853044,1.5882274,5489.7967636,0.223694,-1.342164,0,259, 7.9, 1,0,0,1024,1024,1024,1024,0,0,0,0,0,0,0,66,3.869,3.873,3.878,3.878,3.88,3.881,0,32,10620.514496024,800.853044,6,P-GPS,
652000,2023-10-09 21:28:42,38.4851891508077,-112.054635137637,800.52496,,,10620.186412024,8.2021,1.3645334,5489.0749788,1.99495085124,24,5,0,10620.514496024,800.853044,1.5882274,5489.7967636,0.223694,-0.894776,0,259.8, 9.5, -0.6,0,0,1024,1024,1024,1024,0,0,0,0,0,0,0,66,3.869,3.873,3.878,3.878,3.88,3.881,0,32,10620.186412024,800.52496,6,P-GPS,
652100,2023-10-09 21:28:42,38.4851891672487,-112.054635435943,800.52496,,,10620.186412024,8.2021,0.7158208,5489.009362,2.08035767812,23,5,0,10620.514496024,800.853044,1.5882274,5489.7967636,0.223694,-0.671082,0.223694,260.3, 10, -2.3,0,0,1024,1024,1024,1024,0,0,0,0,0,0,0,66,3.869,3.873,3.878,3.878,3.88,3.881,0,32,10620.186412024,800.52496,6,P-GPS,
652200,2023-10-09 21:28:42,38.4851892341087,-112.054635620109,800.52496,,,10620.186412024,8.2021,0.223694,5488.9765536,2.13833340176,23,5,0,10620.514496024,800.853044,1.5882274,5489.7967636,0,-0.223694,0.223694,260.6, 10.7, -2.8,0,0,1024,1024,1024,1024,0,0,0,0,0,0,0,66,3.869,3.873,3.878,3.878,3.88,3.881,0,32,10620.186412024,800.52496,6,P-GPS,
652300,2023-10-09 21:28:42,38.4851892702789,-112.054635746154,800.52496,,,10620.186412024,8.2021,0,5488.9437452,2.176673298,23,5,0,10620.514496024,800.853044,1.5882274,5489.7967636,0,0,0.223694,260.8, 10.8, -2,0,0,1024,1024,1024,1024,0,0,0,0,0,0,0,66,3.869,3.873,3.878,3.878,3.88,3.881,0,32,10620.186412024,800.52496,6,P-GPS,
652400,2023-10-09 21:28:42,38.4851892702789,-112.054635490565,800.52496,,,10620.186412024,8.2021,0,5488.9765536,2.24966870716,23,5,0,10620.514496024,800.853044,1.5882274,5489.7967636,0,0.447388,0.223694,261.2, 9.3, -0.4,0,0,1024,1024,1024,1024,0,0,0,0,0,0,0,66,3.869,3.873,3.878,3.878,3.88,3.881,0,32,10620.186412024,800.52496,6,P-GPS,
652500,2023-10-09 21:28:42,38.4851891124455,-112.054635006696,800.196876,,,10619.858328024,8.2021,0.894776,5489.1077872,2.3993767172,24,5,0,10620.514496024,800.853044,1.5882274,5489.7967636,0,0.894776,0.223694,261.8, 5.9, 0.1,0,0,1024,1024,1024,1024,0,0,0,0,0,0,0,66,3.869,3.873,3.878,3.878,3.88,3.881,0,32,10619.858328024,800.196876,6,P-GPS,
652600,2023-10-09 21:28:42,38.4851890894281,-112.054634426892,800.196876,,,10619.858328024,8.2021,1.11847,5489.173404,2.56517724744,24,5,0,10620.514496024,800.853044,1.5882274,5489.7967636,0,1.11847,0,262.4, 2.2, 0,0,0,1024,1024,1024,1024,0,0,0,0,0,0,0,66,3.869,3.873,3.878,3.878,3.88,3.881,0,32,10619.858328024,800.196876,6,P-GPS,
652700,2023-10-09 21:28:42,38.4851891683449,-112.054633872297,800.196876,,,10619.858328024,8.2021,1.11847,5489.2390208,2.72616150456,24,5,0,10620.514496024,800.853044,1.5882274,5489.7967636,0,1.11847,0,262.9, -1, 1.4,0,0,1024,1024,1024,1024,0,0,0,0,0,0,0,66,3.869,3.873,3.878,3.878,3.88,3.881,0,32,10619.858328024,800.196876,6,P-GPS,
652800,2023-10-09 21:28:42,38.485189154096,-112.054633239274,800.196876,,,10619.858328024,8.2021,1.11847,5489.337446,2.90702437124,24,5,0,10620.514496024,800.853044,1.5882274,5489.7967636,0,1.11847,0,262.8, -3, 3.9,0,0,1024,1024,1024,1024,0,0,0,0,0,0,0,66,3.869,3.873,3.878,3.878,3.88,3.881,0,32,10619.858328024,800.196876,6,P-GPS,
652900,2023-10-09 21:28:42,38.485188969957,-112.054632805121,800.196876,,,10619.858328024,8.2021,1.11847,5489.4686796,3.04804471696,24,5,0,10620.514496024,800.853044,1.5882274,5489.7967636,0,0.894776,0,262.7, -4.3, 4.8,0,0,1024,1024,1024,1024,0,0,0,0,0,0,0,66,3.869,3.873,3.878,3.878,3.88,3.881,0,32,10619.858328024,800.196876,6,P-GPS,
653000,2023-10-09 21:28:43,38.4851890455854,-112.054632319849,800.196876,,,10619.858328024,8.2021,0.7158208,5489.501488,3.18935705744,24,5,0,10620.514496024,800.853044,1.5882274,5489.7967636,0.223694,0.671082,-0.223694,262.9, -3.5, 4.3,0,0,1024,1024,1024,1024,0,0,0,0,0,0,0,66,3.869,3.873,3.878,3.878,3.88,3.881,0,32,10619.858328024,800.196876,6,P-GPS,
653100,2023-10-09 21:28:43,38.4851892078031,-112.054632088768,800.52496,,,10620.186412024,8.2021,0.7158208,5489.501488,3.2780020734,24,5,0,10620.514496024,800.853044,1.5882274,5489.7967636,0.223694,0.671082,-0.223694,263.3, -1.2, 2.8,0,0,1024,1024,1024,1024,0,0,0,0,0,0,0,66,3.869,3.873,3.878,3.878,3.88,3.881,0,32,10620.186412024,800.52496,6,P-GPS,
653200,2023-10-09 21:28:43,38.4851893897499,-112.054631695929,800.52496,,,10620.186412024,8.2021,0.7158208,5489.501488,3.4083662508,24,5,0,10620.514496024,800.853044,1.5882274,5489.7967636,0.447388,0.671082,-0.223694,264, 0.4, 1.7,0,0,1024,1024,1024,1024,0,0,0,0,0,0,0,66,3.869,3.873,3.878,3.878,3.88,3.881,0,32,10620.186412024,800.52496,6,P-GPS,
653300,2023-10-09 21:28:43,38.4851896089629,-112.054631193853,800.52496,,,10620.186412024,8.2021,0.8052984,5489.501488,3.5725394844,24,5,0,10620.514496024,800.853044,1.5882274,5489.7967636,0.447388,0.671082,-0.223694,264.5, 0.1, 2.3,0,0,1024,1024,1024,1024,0,0,0,0,0,0,0,66,3.869,3.873,3.878,3.878,3.88,3.881,0,32,10620.186412024,800.52496,6,P-GPS,
653400,2023-10-09 21:28:43,38.4851898676343,-112.054630737992,800.52496,,,10620.186412024,8.2021,0.9395148,5489.4686796,3.7333334528,24,5,0,10620.514496024,800.853044,1.5882274,5489.7967636,0.671082,0.671082,0,264.5, -1.3, 2.2,0,0,1024,1024,1024,1024,0,0,0,0,0,0,0,66,3.869,3.873,3.878,3.878,3.88,3.881,0,32,10620.186412024,800.52496,6,P-GPS,
653500,2023-10-09 21:28:43,38.4851901372663,-112.054630115473,800.52496,,,10620.186412024,8.2021,1.11847,5489.4686796,3.9365486824,24,5,0,10620.514496024,800.853044,1.5882274,5489.7967636,0.671082,0.894776,0,264, -3.7, 0.9,0,0,1024,1024,1024,1024,0,0,0,0,0,0,0,66,3.869,3.873,3.878,3.878,3.88,3.881,0,32,10620.186412024,800.52496,6,P-GPS,
653600,2023-10-09 21:28:43,38.4851904441646,-112.054629674318,800.52496,,,10620.186412024,8.2021,0.9395148,5489.4358712,4.1050854332,24,5,0,10620.514496024,800.853044,1.5882274,5489.7967636,0.671082,0.671082,0,263.2, -6.1, -0.1,0,0,1024,1024,1024,1024,0,0,0,0,0,0,0,66,3.869,3.873,3.878,3.878,3.88,3.881,0,32,10620.186412024,800.52496,6,P-GPS,
653700,2023-10-09 21:28:43,38.4851907960015,-112.054629059501,800.853044,,,10620.514496024,8.2021,0.9395148,5489.4358712,4.3226051252,24,5,0,10620.514496024,800.853044,1.5882274,5489.7967636,0.671082,0.671082,0,262.3, -7.1, -0.4,0,0,1024,1024,1024,1024,0,0,0,0,0,0,0,66,3.869,3.873,3.878,3.878,3.88,3.881,0,32,10620.514496024,800.853044,6,P-GPS,
653800,2023-10-09 21:28:43,38.4851910667296,-112.054628769598,800.52496,,,10620.186412024,8.2021,0.9395148,5489.4030628,4.4514765204,24,5,0,10620.514496024,800.853044,1.5882274,5489.7967636,0.671082,0.447388,0,261.4, -6.3, -0.4,0,0,1024,1024,1024,1024,0,0,0,0,0,0,0,66,3.869,3.873,3.878,3.878,3.88,3.881,0,32,10620.186412024,800.52496,6,P-GPS,
653900,2023-10-09 21:28:43,38.4851912947113,-112.054628625347,800.853044,,,10620.514496024,8.2021,0.4921268,5489.337446,4.5443242924,24,5,0,10620.514496024,800.853044,1.5882274,5489.7967636,0.447388,0.223694,0,260.7, -4.3, -0.5,0,0,1024,1024,1024,1024,0,0,0,0,0,0,0,66,3.869,3.873,3.878,3.878,3.88,3.881,0,32,10620.514496024,800.853044,6,P-GPS,
654000,2023-10-09 21:28:44,38.485191508444,-112.054628466391,800.52496,,,10620.186412024,8.2021,0.4921268,5489.3046376,4.6345473924,24,5,0,10620.514496024,800.853044,1.5882274,5489.7967636,0.447388,0.223694,0,260.2, -1.9, -0.8,0,0,1024,1024,1024,1024,0,0,0,0,0,0,0,66,3.869,3.873,3.878,3.878,3.88,3.881,0,32,10620.186412024,800.52496,6,P-GPS,
654100,2023-10-09 21:28:44,38.4851916059938,-112.054628220605,800.853044,,,10620.514496024,8.2021,0.4921268,5489.3046376,4.713254744,24,5,0,10620.514496024,800.853044,1.5882274,5489.7967636,0.447388,0.223694,0,259.9, -0.9, -0.9,0,0,1024,1024,1024,1024,0,0,0,0,0,0,0,66,3.869,3.873,3.878,3.878,3.88,3.881,0,32,10620.514496024,800.853044,6,P-GPS,
654200,2023-10-09 21:28:44,38.4851917616351,-112.054628028737,800.853044,,,10620.514496024,8.2021,0.3131716,5489.2718292,4.792158946,24,5,0,10620.514496024,800.853044,1.5882274,5489.7967636,0.223694,0.223694,0,259.7, -1.8, -0.9,0,0,1024,1024,1024,1024,0,0,0,0,0,0,0,66,3.869,3.873,3.878,3.878,3.88,3.881,0,32,10620.514496024,800.853044,6,P-GPS,
654300,2023-10-09 21:28:44,38.4851919370055,-112.054627637299,800.853044,,,10620.514496024,8.2021,0.3131716,5489.2718292,4.9209647244,24,5,0,10620.514496024,800.853044,1.5882274,5489.7967636,0.223694,0.223694,0,259.5, -2.9, -0.8,0,0,1024,1024,1024,1024,0,0,0,0,0,0,0,66,3.869,3.873,3.878,3.878,3.88,3.881,0,32,10620.514496024,800.853044,6,P-GPS,
654400,2023-10-09 21:28:44,38.4851920345554,-112.054627448933,800.853044,,,10620.514496024,8.2021,0.3131716,5489.2718292,4.9854660388,24,5,0,10620.514496024,800.853044,1.5882274,5489.7967636,0.223694,0.223694,0.223694,259.4, -3.9, -0.3,0,0,1024,1024,1024,1024,0,0,0,0,0,0,0,66,3.869,3.873,3.878,3.878,3.88,3.881,0,32,10620.514496024,800.853044,6,P-GPS,
654500,2023-10-09 21:28:44,38.4851922263668,-112.054627170234,800.853044,,,10620.514496024,8.2021,0.223694,5489.2390208,5.0914371708,24,5,0,10620.514496024,800.853044,1.5882274,5489.7967636,0,0.223694,0,259.5, -3.7, -0.2,0,0,1024,1024,1024,1024,0,0,0,0,0,0,0,66,3.869,3.873,3.878,3.878,3.88,3.881,0,32,10620.514496024,800.853044,6,P-GPS,
654600,2023-10-09 21:28:44,38.4851922767858,-112.054627071499,800.853044,,,10620.514496024,8.2021,0,5489.2390208,5.1251313976,24,5,0,10620.514496024,800.853044,1.5882274,5489.7967636,0,0,0,259.8, -3.3, -0.9,0,0,1024,1024,1024,1024,0,0,0,0,0,0,0,66,3.869,3.873,3.878,3.878,3.88,3.881,0,32,10620.514496024,800.853044,6,P-GPS,
654700,2023-10-09 21:28:44,38.4851922811701,-112.054627030885,800.853044,,,10620.514496024,8.2021,0,5489.2718292,5.136811188,24,5,0,10620.514496024,800.853044,1.5882274,5489.7967636,0,0,0,260.2, -3.3, -0.7,0,0,1024,1024,1024,1024,0,0,0,0,0,0,0,66,3.869,3.873,3.878,3.878,3.88,3.881,0,32,10620.514496024,800.853044,6,P-GPS,
654800,2023-10-09 21:28:44,38.4851922811701,-112.054627004275,800.52496,,,10620.186412024,8.2021,0,5489.2718292,5.1444227368,24,5,0,10620.514496024,800.853044,1.5882274,5489.7967636,0,0,0,260.6, -2.5, 0.4,0,0,1024,1024,1024,1024,0,0,0,0,0,0,0,66,3.869,3.873,3.878,3.878,3.88,3.881,0,32,10620.186412024,800.52496,6,P-GPS,
654900,2023-10-09 21:28:44,38.4851923250127,-112.054627053993,800.52496,,,10620.186412024,8.2021,0,5489.2390208,5.1658138136,24,5,0,10620.514496024,800.853044,1.5882274,5489.7967636,0,0,0,260.9, -1.7, 1.1,0,0,1024,1024,1024,1024,0,0,0,0,0,0,0,66,3.869,3.873,3.878,3.878,3.88,3.881,0,32,10620.186412024,800.52496,6,P-GPS,
655000,2023-10-09 21:28:45,38.4851923348773,-112.054627053293,800.52496,,,10620.186412024,8.2021,0,5489.2390208,5.1694227376,24,5,0,10620.514496024,800.853044,1.5882274,5489.7967636,0,0,0,260.9, -1.9, 1.9,0,0,1024,1024,1024,1024,0,0,0,0,0,0,0,66,3.869,3.873,3.878,3.878,3.88,3.881,0,32,10620.186412024,800.52496,6,P-GPS,
655100,2023-10-09 21:28:45,38.4851923425497,-112.054627191241,800.52496,,,10620.186412024,8.2021,0,5489.2062124,5.2089240512,24,5,0,10620.514496024,800.853044,1.5882274,5489.7967636,0,0,0,260.8, -2.2, 1.8,0,0,1024,1024,1024,1024,0,0,0,0,0,0,0,66,3.869,3.873,3.878,3.878,3.88,3.881,0,32,10620.186412024,800.52496,6,P-GPS,
655200,2023-10-09 21:28:45,38.4851924105057,-112.054627212248,800.52496,,,10620.186412024,8.2021,0,5489.173404,5.234416178,24,5,0,10620.514496024,800.853044,1.5882274,5489.7967636,0,0,0,260.5, -1.9, 0.3,0,0,1024,1024,1024,1024,0,0,0,0,0,0,0,66,3.869,3.873,3.878,3.878,3.88,3.881,0,32,10620.186412024,800.52496,6,P-GPS,
655300,2023-10-09 21:28:45,38.4851926724654,-112.054627146425,800.52496,,,10620.186412024,8.2021,0,5489.1077872,5.3318243176,24,5,0,10620.514496024,800.853044,1.5882274,5489.7967636,0,0,0,260.3, -1.3, -1.7,0,0,1024,1024,1024,1024,0,0,0,0,0,0,0,66,3.869,3.873,3.878,3.878,3.88,3.881,0,32,10620.186412024,800.52496,6,P-GPS,
655400,2023-10-09 21:28:45,38.4851927261726,-112.054627133821,800.52496,,,10620.186412024,8.2021,0,5489.1077872,5.3517718248,24,5,0,10620.514496024,800.853044,1.5882274,5489.7967636,0,0,0,260.2, -1.2, -2.8,0,0,1024,1024,1024,1024,0,0,0,0,0,0,0,66,3.869,3.873,3.878,3.878,3.88,3.881,0,32,10620.186412024,800.52496,6,P-GPS,
655500,2023-10-09 21:28:45,38.4851927338451,-112.054627054693,800.52496,,,10620.186412024,8.2021,0,5489.1077872,5.3745408544,24,5,0,10620.514496024,800.853044,1.5882274,5489.7967636,0,0,0,260.4, -1.7, -2.3,0,0,1024,1024,1024,1024,0,0,0,0,0,0,0,66,3.869,3.873,3.878,3.878,3.88,3.881,0,32,10620.186412024,800.52496,6,P-GPS,
655600,2023-10-09 21:28:45,38.4851926976749,-112.054626993072,800.52496,,,10620.186412024,8.2021,0,5489.1405956,5.3965224824,24,5,0,10620.514496024,800.853044,1.5882274,5489.7967636,0,0,0,260.7, -2.4, -0.4,0,0,1024,1024,1024,1024,0,0,0,0,0,0,0,66,3.869,3.873,3.878,3.878,3.88,3.881,0,32,10620.186412024,800.52496,6,P-GPS,
655700,2023-10-09 21:28:45,38.4851925003832,-112.054626993772,800.52496,,,10620.186412024,8.2021,0,5489.2062124,5.468504112,24,5,0,10620.514496024,800.853044,1.5882274,5489.7967636,0,0,0,260.9, -2.9, 1.3,0,0,1024,1024,1024,1024,0,0,0,0,0,0,0,66,3.869,3.873,3.878,3.878,3.88,3.881,0,32,10620.186412024,800.52496,6,P-GPS,
655800,2023-10-09 21:28:45,38.485192447772,-112.054626948956,800.52496,,,10620.186412024,8.2021,0,5489.2062124,5.4915684172,24,5,0,10620.514496024,800.853044,1.5882274,5489.7967636,0,0,0,261, -3.2, 2.5,0,0,1024,1024,1024,1024,0,0,0,0,0,0,0,66,3.869,3.873,3.878,3.878,3.88,3.881,0,32,10620.186412024,800.52496,6,P-GPS,
655900,2023-10-09 21:28:46,38.485192581492,-112.05462704559,800.853044,,,10620.514496024,8.2021,0,5489.173404,5.5476379728,24,5,0,10620.514496024,800.853044,1.5882274,5489.7967636,0,0,0,261.1, -3.4, 2.9,0,0,1024,1024,1024,1024,0,0,0,0,0,0,0,66,3.869,3.873,3.878,3.878,3.88,3.881,0,32,10620.514496024,800.853044,6,P-GPS,
656000,2023-10-09 21:28:46,38.4851926297188,-112.054627058194,800.853044,,,10620.514496024,8.2021,0,5489.1405956,5.5655841676,24,5,0,10620.514496024,800.853044,1.5882274,5489.7967636,0,0,0,261, -3.3, 2.7,0,0,1024,1024,1024,1024,0,0,0,0,0,0,0,66,3.869,3.873,3.878,3.878,3.88,3.881,0,32,10620.514496024,800.853044,6,P-GPS,
656100,2023-10-09 21:28:46,38.4851927546702,-112.054627001474,800.853044,,,10620.514496024,8.2021,0,5489.1077872,5.6139765576,24,5,0,10620.514496024,800.853044,1.5882274,5489.7967636,0,0,0,260.7, -3.1, 0.9,0,0,1024,1024,1024,1024,0,0,0,0,0,0,0,66,3.869,3.873,3.878,3.878,3.88,3.881,0,32,10620.514496024,800.853044,6,P-GPS,
656200,2023-10-09 21:28:46,38.4851928577004,-112.054627040688,800.853044,,,10620.514496024,8.2021,0,5489.0749788,5.6531825956,24,5,0,10620.514496024,800.853044,1.5882274,5489.7967636,0,0,0,260.3, -2.9, -0.9,0,0,1024,1024,1024,1024,0,0,0,0,0,0,0,66,3.869,3.873,3.878,3.878,3.88,3.881,0,32,10620.514496024,800.853044,6,P-GPS,
656300,2023-10-09 21:28:46,38.4851928160499,-112.054627199644,800.853044,,,10620.514496024,8.2021,0,5489.0749788,5.7010500512,24,5,0,10620.514496024,800.853044,1.5882274,5489.7967636,0,0,0,259.9, -2.9, -2.3,0,0,1024,1024,1024,1024,0,0,0,0,0,0,0,66,3.869,3.873,3.878,3.878,3.88,3.881,0,32,10620.514496024,800.853044,6,P-GPS,
656400,2023-10-09 21:28:46,38.4851928324909,-112.054627255664,800.853044,,,10620.514496024,8.2021,0,5489.0421704,5.7181432276,24,5,0,10620.514496024,800.853044,1.5882274,5489.7967636,0,0,0,259.6, -3.4, -2.9,0,0,1024,1024,1024,1024,0,0,0,0,0,0,0,66,3.869,3.873,3.878,3.878,3.88,3.881,0,32,10620.514496024,800.853044,6,P-GPS,
656500,2023-10-09 21:28:46,38.4851928412595,-112.054627162531,800.853044,,,10620.514496024,8.2021,0,5489.0749788,5.7449476904,24,5,0,10620.514496024,800.853044,1.5882274,5489.7967636,0,0,0,259.4, -3.2, -2.2,0,0,1024,1024,1024,1024,0,0,0,0,0,0,0,66,3.869,3.873,3.878,3.878,3.88,3.881,0,32,10620.514496024,800.853044,6,P-GPS,
656600,2023-10-09 21:28:46,38.4851927579586,-112.05462721855,800.853044,,,10620.514496024,8.2021,0.223694,5489.0749788,5.7792980852,24,5,0,10620.514496024,800.853044,1.5882274,5489.7967636,-0.223694,0,0,259.5, -2.5, -1,0,0,1024,1024,1024,1024,0,0,0,0,0,0,0,66,3.869,3.873,3.878,3.878,3.88,3.881,0,32,10620.514496024,800.853044,6,P-GPS,
656700,2023-10-09 21:28:46,38.485192529977,-112.054627334091,800.853044,,,10620.514496024,8.2021,0.223694,5489.1405956,5.868766592,24,5,0,10620.514496024,800.853044,1.5882274,5489.7967636,-0.223694,0,0,259.7, -1.8, 0.6,0,0,1024,1024,1024,1024,0,0,0,0,0,0,0,66,3.869,3.873,3.878,3.878,3.88,3.881,0,32,10620.514496024,800.853044,6,P-GPS,
656800,2023-10-09 21:28:46,38.485192429139,-112.054627380308,800.853044,,,10620.514496024,8.2021,0.223694,5489.173404,5.9078742048,24,5,0,10620.514496024,800.853044,1.5882274,5489.7967636,-0.223694,0,0,260.2, -1.8, 1.9,0,0,1024,1024,1024,1024,0,0,0,0,0,0,0,66,3.869,3.873,3.878,3.878,3.88,3.881,0,32,10620.514496024,800.853044,6,P-GPS,
656900,2023-10-09 21:28:46,38.4851924346193,-112.054627374706,800.853044,,,10620.514496024,8.2021,0,5489.173404,5.91043326,24,5,0,10620.514496024,800.853044,1.5882274,5489.7967636,0,0,0,260.6, -2.3, 2.3,0,0,1024,1024,1024,1024,0,0,0,0,0,0,0,66,3.869,3.873,3.878,3.878,3.88,3.881,0,32,10620.514496024,800.853044,6,P-GPS,
657000,2023-10-09 21:28:47,38.485192430235,-112.054627427224,800.853044,,,10620.514496024,8.2021,0,5489.1405956,5.9254923156,24,5,23.259,10620.514496024,800.853044,1.5882274,5489.7967636,0,0,0,260.9, -2.2, 1.8,0,0,1024,1024,1024,1024,0,0,0,0,0,0,0,66,3.869,3.873,3.878,3.878,3.88,3.881,0,32,10620.514496024,800.853044,6,P-GPS,
657100,2023-10-09 21:28:47,38.4851925036713,-112.054627524558,800.52496,,,10620.186412024,8.2021,0,5489.1077872,5.9641078024,24,5,23.259,10620.514496024,800.853044,1.5882274,5489.7967636,0,0,0,260.9, -1.6, 0.8,0,0,1024,1024,1024,1024,0,0,0,0,0,0,0,66,3.869,3.873,3.878,3.878,3.88,3.881,0,32,10620.186412024,800.52496,6,P-GPS,
657200,2023-10-09 21:28:47,38.4851925760116,-112.054627577777,800.52496,,,10620.186412024,8.2021,0,5489.0749788,5.9945539976,24,5,23.259,10620.514496024,800.853044,1.5882274,5489.7967636,0,0,0,260.8, -1.4, -0.3,0,0,1024,1024,1024,1024,0,0,0,0,0,0,0,66,3.869,3.873,3.878,3.878,3.88,3.881,0,32,10620.186412024,800.52496,6,P-GPS,
657300,2023-10-09 21:28:47,38.4851927469978,-112.054627743735,800.52496,,,10620.186412024,8.2021,0,5489.009362,6.0729004568,24,5,23.259,10620.514496024,800.853044,1.5882274,5489.7967636,0,0,0,260.5, -1.6, -1,0,0,1024,1024,1024,1024,0,0,0,0,0,0,0,66,3.869,3.873,3.878,3.878,3.88,3.881,0,32,10620.186412024,800.52496,6,P-GPS,
657400,2023-10-09 21:28:47,38.4851928335869,-112.05462778505,800.52496,,,10620.186412024,8.2021,0,5488.9765536,6.106627492,24,5,23.259,10620.514496024,800.853044,1.5882274,5489.7967636,0,0,0,260.2, -1.8, -1.4,0,0,1024,1024,1024,1024,0,0,0,0,0,0,0,66,3.869,3.873,3.878,3.878,3.88,3.881,0,32,10620.186412024,800.52496,6,P-GPS,
657500,2023-10-09 21:28:47,38.4851928302988,-112.054627801856,800.52496,,,10620.186412024,8.2021,0,5488.9765536,6.1115815604,24,5,23.259,10620.514496024,800.853044,1.5882274,5489.7967636,0,0,0,259.9, -1.9, -1.2,0,0,1024,1024,1024,1024,0,0,0,0,0,0,0,66,3.869,3.873,3.878,3.878,3.88,3.881,0,32,10620.186412024,800.52496,6,P-GPS,
657600,2023-10-09 21:28:47,38.4851928960627,-112.05462784177,800.52496,,,10620.186412024,8.2021,0,5488.9437452,6.1381563644,24,5,23.259,10620.514496024,800.853044,1.5882274,5489.7967636,0,0,0,259.6, -1.9, -0.7,0,0,1024,1024,1024,1024,0,0,0,0,0,0,0,66,3.869,3.873,3.878,3.878,3.88,3.881,0,32,10620.186412024,800.52496,6,P-GPS,
657700,2023-10-09 21:28:47,38.4851928050893,-112.054627794153,800.52496,,,10620.186412024,8.2021,0,5488.9765536,6.1740159456,24,5,23.259,10620.514496024,800.853044,1.5882274,5489.7967636,0,0,0,259.4, -2.4, -0.5,0,0,1024,1024,1024,1024,0,0,0,0,0,0,0,66,3.869,3.873,3.878,3.878,3.88,3.881,0,32,10620.186412024,800.52496,6,P-GPS,
657800,2023-10-09 21:28:47,38.4851928489319,-112.054627822163,800.52496,,,10620.186412024,8.2021,0,5488.9765536,6.1918965236,24,5,23.259,10620.514496024,800.853044,1.5882274,5489.7967636,0,0,0,259.4, -3.2, -0.6,0,0,1024,1024,1024,1024,0,0,0,0,0,0,0,66,3.869,3.873,3.878,3.878,3.88,3.881,0,32,10620.186412024,800.52496,6,P-GPS,
657900,2023-10-09 21:28:47,38.4851930001889,-112.054627859976,800.52496,,,10620.186412024,8.2021,0,5488.9109368,6.2481301212,24,5,23.259,10620.514496024,800.853044,1.5882274,5489.7967636,0,0,0,259.3, -3.7, -1.3,0,0,1024,1024,1024,1024,0,0,0,0,0,0,0,66,3.869,3.873,3.878,3.878,3.88,3.881,0,32,10620.186412024,800.52496,6,P-GPS,
658000,2023-10-09 21:28:48,38.4851930341669,-112.054627931401,800.52496,,,10620.186412024,8.2021,0,5488.8781284,6.2720146364,24,5,23.259,10620.514496024,800.853044,1.5882274,5489.7967636,0,0,0,259.3, -3.2, -2.5,0,0,1024,1024,1024,1024,0,0,0,0,0,0,0,66,3.869,3.873,3.878,3.878,3.88,3.881,0,32,10620.186412024,800.52496,6,P-GPS,
658100,2023-10-09 21:28:48,38.4851929640188,-112.054628033637,800.52496,,,10620.186412024,8.2021,0,5488.9109368,6.3108269736,24,5,23.224,10620.514496024,800.853044,1.5882274,5489.7967636,0,0,0,259.2, -2.3, -3.4,0,0,1024,1024,1024,1024,0,0,0,0,0,0,0,66,3.861,3.865,3.873,3.873,3.875,3.877,0,32,10620.186412024,800.52496,6,P-GPS,
658200,2023-10-09 21:28:48,38.4851929026391,-112.054628107163,800.196876,,,10619.858328024,8.2021,0,5488.9109368,6.341535636,24,5,23.224,10620.514496024,800.853044,1.5882274,5489.7967636,0,0,0,259.2, -1.7, -2.9,0,0,1024,1024,1024,1024,0,0,0,0,0,0,0,66,3.861,3.865,3.873,3.873,3.875,3.877,0,32,10619.858328024,800.196876,6,P-GPS,
658300,2023-10-09 21:28:48,38.4851928083776,-112.054628149879,800.52496,,,10620.186412024,8.2021,0.223694,5488.9437452,6.3780185768,24,5,23.224,10620.514496024,800.853044,1.5882274,5489.7967636,-0.223694,0,0,259.2, -1.4, -1.5,0,0,1024,1024,1024,1024,0,0,0,0,0,0,0,66,3.861,3.865,3.873,3.873,3.875,3.877,0,32,10620.186412024,800.52496,6,P-GPS,
658400,2023-10-09 21:28:48,38.4851926768497,-112.054628146378,800.196876,,,10619.858328024,8.2021,0.223694,5488.9765536,6.426017266,24,5,23.224,10620.514496024,800.853044,1.5882274,5489.7967636,-0.223694,0,0,259.3, -1.4, -0.3,0,0,1024,1024,1024,1024,0,0,0,0,0,0,0,66,3.861,3.865,3.873,3.873,3.875,3.877,0,32,10619.858328024,800.196876,6,P-GPS,
658500,2023-10-09 21:28:48,38.4851923677593,-112.05462798252,800.52496,,,10620.186412024,8.2021,0.223694,5489.1077872,6.5481301308,24,5,23.224,10620.514496024,800.853044,1.5882274,5489.7967636,-0.223694,0,0,259.3, -1.8, 0.3,0,0,1024,1024,1024,1024,0,0,0,0,0,0,0,66,3.861,3.865,3.873,3.873,3.875,3.877,0,32,10620.186412024,800.52496,6,P-GPS,
658600,2023-10-09 21:28:48,38.4851922143102,-112.054627902692,800.52496,,,10620.186412024,8.2021,0.223694,5489.1405956,6.6085632036,24,5,23.224,10620.514496024,800.853044,1.5882274,5489.7967636,-0.223694,0,0,259.4, -2.3, 0.9,0,0,1024,1024,1024,1024,0,0,0,0,0,0,0,66,3.861,3.865,3.873,3.873,3.875,3.877,0,32,10620.186412024,800.52496,6,P-GPS,
658700,2023-10-09 21:28:48,38.4851922592489,-112.054627855076,800.52496,,,10620.186412024,8.2021,0.223694,5489.1405956,6.6298558552,24,5,23.224,10620.514496024,800.853044,1.5882274,5489.7967636,-0.223694,0,0,259.4, -3.1, 1,0,0,1024,1024,1024,1024,0,0,0,0,0,0,0,66,3.861,3.865,3.873,3.873,3.875,3.877,0,32,10620.186412024,800.52496,6,P-GPS,
658800,2023-10-09 21:28:48,38.485192127721,-112.054627757741,800.52496,,,10620.186412024,8.2021,0.223694,5489.2062124,6.6853348596,24,5,23.224,10620.514496024,800.853044,1.5882274,5489.7967636,-0.223694,0,0,259.4, -3.6, 0.8,0,0,1024,1024,1024,1024,0,0,0,0,0,0,0,66,3.861,3.865,3.873,3.873,3.875,3.877,0,32,10620.186412024,800.52496,6,P-GPS,
658900,2023-10-09 21:28:48,38.4851919665995,-112.054627659006,800.52496,,,10620.186412024,8.2021,0.223694,5489.2718292,6.7505251504,24,5,23.224,10620.514496024,800.853044,1.5882274,5489.7967636,-0.223694,0,0,259.4, -3.7, 0.3,0,0,1024,1024,1024,1024,0,0,0,0,0,0,0,66,3.861,3.865,3.873,3.873,3.875,3.877,0,32,10620.186412024,800.52496,6,P-GPS,
659000,2023-10-09 21:28:49,38.4851918208228,-112.054627591082,800.52496,,,10620.186412024,8.2021,0.223694,5489.3046376,6.8071524488,24,5,23.224,10620.514496024,800.853044,1.5882274,5489.7967636,-0.223694,0,0,259.6, -3.5, 0.4,0,0,1024,1024,1024,1024,0,0,0,0,0,0,0,66,3.861,3.865,3.873,3.873,3.875,3.877,0,32,10620.186412024,800.52496,6,P-GPS,
659100,2023-10-09 21:28:49,38.4851916290114,-112.054627520357,800.52496,,,10620.186412024,8.2021,0.223694,5489.4030628,6.8799870968,24,5,23.224,10620.514496024,800.853044,1.5882274,5489.7967636,-0.223694,0,0,260.2, -2.3, 1.8,0,0,1024,1024,1024,1024,0,0,0,0,0,0,0,66,3.861,3.865,3.873,3.873,3.875,3.877,0,32,10620.186412024,800.52496,6,P-GPS,
659200,2023-10-09 21:28:49,38.4851914996756,-112.054627477642,800.52496,,,10620.186412024,8.2021,0.223694,5489.4358712,6.9287075708,24,5,23.214,10620.514496024,800.853044,1.5882274,5489.7967636,-0.223694,0,-0.223694,260.8, -0.3, 3.3,0,0,1024,1024,1024,1024,0,0,0,0,0,0,0,66,3.86,3.863,3.872,3.87,3.873,3.876,0,32,10620.186412024,800.52496,6,P-GPS,
659300,2023-10-09 21:28:49,38.485191371436,-112.054627522458,800.52496,,,10620.186412024,8.2021,0,5489.4686796,6.9772311944,24,5,23.214,10620.514496024,800.853044,1.5882274,5489.7967636,0,0,-0.223694,261.1, -0.2, 3.1,0,0,1024,1024,1024,1024,0,0,0,0,0,0,0,66,3.86,3.863,3.872,3.87,3.873,3.876,0,32,10620.186412024,800.52496,6,P-GPS,
659400,2023-10-09 21:28:49,38.4851913802044,-112.054627444031,800.52496,,,10620.186412024,8.2021,0,5489.4686796,6.999836182,24,5,23.214,10620.514496024,800.853044,1.5882274,5489.7967636,0,0,-0.223694,261.2, -1.8, 0.6,0,0,1024,1024,1024,1024,0,0,0,0,0,0,0,66,3.86,3.863,3.872,3.87,3.873,3.876,0,32,10620.186412024,800.52496,6,P-GPS,
659500,2023-10-09 21:28:49,38.4851915095402,-112.054627333392,800.52496,,,10620.186412024,8.2021,0,5489.4686796,7.0566275224,24,5,23.214,10620.514496024,800.853044,1.5882274,5489.7967636,0,0,-0.223694,261.3, -3.2, -1.4,0,0,1024,1024,1024,1024,0,0,0,0,0,0,0,66,3.86,3.863,3.872,3.87,3.873,3.876,0,32,10620.186412024,800.52496,6,P-GPS,
659600,2023-10-09 21:28:49,38.4851915369418,-112.054627292077,800.853044,,,10620.514496024,8.2021,0,5489.4686796,7.0721130872,24,5,23.214,10620.514496024,800.853044,1.5882274,5489.7967636,0,0,-0.223694,261.4, -3.2, -2.6,0,0,1024,1024,1024,1024,0,0,0,0,0,0,0,66,3.86,3.863,3.872,3.87,3.873,3.876,0,32,10620.514496024,800.853044,6,P-GPS,
659700,2023-10-09 21:28:49,38.4851915139245,-112.054627240959,800.853044,,,10620.514496024,8.2021,0,5489.4686796,7.0889437964,24,5,23.214,10620.514496024,800.853044,1.5882274,5489.7967636,0,0,-0.223694,261.3, -3, -1.3,0,0,1024,1024,1024,1024,0,0,0,0,0,0,0,66,3.86,3.863,3.872,3.87,3.873,3.876,0,32,10620.514496024,800.853044,6,P-GPS,
659800,2023-10-09 21:28:49,38.4851914920032,-112.054627256364,800.853044,,,10620.514496024,8.2021,0,5489.4686796,7.0980645316,24,5,23.214,10620.514496024,800.853044,1.5882274,5489.7967636,0,0,-0.223694,261.2, -2.7, 0.8,0,0,1024,1024,1024,1024,0,0,0,0,0,0,0,66,3.86,3.863,3.872,3.87,3.873,3.876,0,32,10620.514496024,800.853044,6,P-GPS,
659900,2023-10-09 21:28:50,38.4851913626674,-112.054627240258,800.853044,,,10620.514496024,8.2021,0,5489.501488,7.1454726696,24,5,23.214,10620.514496024,800.853044,1.5882274,5489.7967636,0,0,-0.223694,261.1, -1.9, 2.5,0,0,1024,1024,1024,1024,0,0,0,0,0,0,0,66,3.86,3.863,3.872,3.87,3.873,3.876,0,32,10620.514496024,800.853044,6,P-GPS,
660000,2023-10-09 21:28:50,38.4851913791084,-112.054627279472,801.181128,,,10620.842580024,8.2021,0,5489.501488,7.1582023288,24,5,23.214,10620.842580024,801.181128,1.5882274,5489.7967636,0,0,-0.223694,261.1, -0.8, 2.3,0,0,1024,1024,1024,1024,0,0,0,0,0,0,0,66,3.86,3.863,3.872,3.87,3.873,3.876,0,32,10620.842580024,801.181128,6,P-GPS,
660100,2023-10-09 21:28:50,38.4851914536408,-112.054627206647,801.181128,,,10620.842580024,8.2021,0,5489.501488,7.19242149,24,5,23.214,10620.842580024,801.181128,1.5882274,5489.7967636,0,0,0,261.2, -0.4, 0,0,0,1024,1024,1024,1024,0,0,0,0,0,0,0,66,3.86,3.863,3.872,3.87,3.873,3.876,0,32,10620.842580024,801.181128,6,P-GPS,
660200,2023-10-09 21:28:50,38.4851915194047,-112.054627166033,801.181128,,,10620.842580024,8.2021,0,5489.4686796,7.2190947192,24,5,23.276,10620.842580024,801.181128,1.5882274,5489.7967636,0,0,0,261.2, -0.5, -1.8,0,0,1024,1024,1024,1024,0,0,0,0,0,0,0,66,3.872,3.875,3.88,3.88,3.885,3.884,0,32,10620.842580024,801.181128,6,P-GPS,
660300,2023-10-09 21:28:50,38.4851914678897,-112.054627151328,801.181128,,,10620.842580024,8.2021,0,5489.501488,7.23835325,24,5,23.276,10620.842580024,801.181128,1.5882274,5489.7967636,0,0,0,261.2, -1.9, -2.1,0,0,1024,1024,1024,1024,0,0,0,0,0,0,0,66,3.872,3.875,3.88,3.88,3.885,3.884,0,32,10620.842580024,801.181128,6,P-GPS,
660400,2023-10-09 21:28:50,38.4851914689858,-112.054627049792,801.181128,,,10620.842580024,8.2021,0,5489.501488,7.2673230672,24,5,23.276,10620.842580024,801.181128,1.5882274,5489.7967636,0,0,0,261.3, -3, -1,0,0,1024,1024,1024,1024,0,0,0,0,0,0,0,66,3.872,3.875,3.88,3.88,3.885,3.884,0,32,10620.842580024,801.181128,6,P-GPS,
660500,2023-10-09 21:28:50,38.485191489811,-112.054626905541,801.181128,,,10620.842580024,8.2021,0,5489.5342964,7.309219394,24,5,23.276,10620.842580024,801.181128,1.5882274,5489.7967636,0,0,0,261.2, -3.8, 0.3,0,0,1024,1024,1024,1024,0,0,0,0,0,0,0,66,3.872,3.875,3.88,3.88,3.885,3.884,0,32,10620.842580024,801.181128,6,P-GPS,
660600,2023-10-09 21:28:50,38.4851914678897,-112.054626840418,801.181128,,,10620.842580024,8.2021,0,5489.5342964,7.3294621768,24,5,23.276,10620.842580024,801.181128,1.5882274,5489.7967636,0,0,0,261.2, -4, 0.9,0,0,1024,1024,1024,1024,0,0,0,0,0,0,0,66,3.872,3.875,3.88,3.88,3.885,3.884,0,32,10620.842580024,801.181128,6,P-GPS,
660700,2023-10-09 21:28:50,38.4851914974835,-112.054626884533,801.181128,,,10620.842580024,8.2021,0,5489.5342964,7.3460632272,24,5,23.276,10620.842580024,801.181128,1.5882274,5489.7967636,0,0,0,261.1, -3.8, 0.8,0,0,1024,1024,1024,1024,0,0,0,0,0,0,0,66,3.872,3.875,3.88,3.88,3.885,3.884,0,32,10620.842580024,801.181128,6,P-GPS,
660800,2023-10-09 21:28:50,38.4851915128284,-112.054626892936,801.181128,,,10620.842580024,8.2021,0,5489.5342964,7.3521655896,24,5,23.276,10620.842580024,801.181128,1.5882274,5489.7967636,0,0,0,261.2, -3.3, 0.2,0,0,1024,1024,1024,1024,0,0,0,0,0,0,0,66,3.872,3.875,3.88,3.88,3.885,3.884,0,32,10620.842580024,801.181128,6,P-GPS,
660900,2023-10-09 21:28:51,38.4851915665355,-112.054627049091,801.181128,,,10620.842580024,8.2021,0,5489.4686796,7.4008860636,24,5,23.276,10620.842580024,801.181128,1.5882274,5489.7967636,0,0,0,261.2, -3.3, 0.1,0,0,1024,1024,1024,1024,0,0,0,0,0,0,0,66,3.872,3.875,3.88,3.88,3.885,3.884,0,32,10620.842580024,801.181128,6,P-GPS,
661000,2023-10-09 21:28:51,38.4851915884568,-112.05462710301,801.181128,,,10620.842580024,8.2021,0,5489.4686796,7.4182088988,24,5,23.276,10620.842580024,801.181128,1.5882274,5489.7967636,0,0,0,261.1, -3.2, 0.1,0,0,1024,1024,1024,1024,0,0,0,0,0,0,0,66,3.872,3.875,3.88,3.88,3.885,3.884,0,32,10620.842580024,801.181128,6,P-GPS,
661100,2023-10-09 21:28:51,38.4851916191467,-112.054627098108,801.181128,,,10620.842580024,8.2021,0,5489.4686796,7.4294949884,24,5,23.276,10620.842580024,801.181128,1.5882274,5489.7967636,0,0,0,261, -3, 0.2,0,0,1024,1024,1024,1024,0,0,0,0,0,0,0,66,3.872,3.875,3.88,3.88,3.885,3.884,0,32,10620.842580024,801.181128,6,P-GPS,
661200,2023-10-09 21:28:51,38.4851916629893,-112.05462718984,801.181128,,,10620.842580024,8.2021,0,5489.4358712,7.4602036508,24,5,23.325,10620.842580024,801.181128,1.5882274,5489.7967636,0,0,0,260.8, -2.7, 0.1,0,0,1024,1024,1024,1024,0,0,0,0,0,0,0,66,3.88,3.881,3.89,3.891,3.891,3.892,0,32,10620.842580024,801.181128,6,P-GPS,
661300,2023-10-09 21:28:51,38.4851916432601,-112.054627371904,801.181128,,,10620.842580024,8.2021,0.223694,5489.4030628,7.5126970908,24,5,23.325,10620.842580024,801.181128,1.5882274,5489.7967636,0,-0.223694,0,260.8, -3.1, 0.1,0,0,1024,1024,1024,1024,0,0,0,0,0,0,0,66,3.88,3.881,3.89,3.891,3.891,3.892,0,32,10620.842580024,801.181128,6,P-GPS,
661400,2023-10-09 21:28:51,38.4851916936791,-112.054627514054,801.181128,,,10620.842580024,8.2021,0.223694,5489.3702544,7.557250898,24,5,23.325,10620.842580024,801.181128,1.5882274,5489.7967636,0,-0.223694,0,260.7, -3, 0.3,0,0,1024,1024,1024,1024,0,0,0,0,0,0,0,66,3.88,3.881,3.89,3.891,3.891,3.892,0,32,10620.842580024,801.181128,6,P-GPS,
661500,2023-10-09 21:28:51,38.4851918284951,-112.054627603685,801.181128,,,10620.842580024,8.2021,0.223694,5489.3046376,7.6127299024,24,5,23.325,10620.842580024,801.181128,1.5882274,5489.7967636,0,-0.223694,0,260.4, -2.6, -0.4,0,0,1024,1024,1024,1024,0,0,0,0,0,0,0,66,3.88,3.881,3.89,3.891,3.891,3.892,0,32,10620.842580024,801.181128,6,P-GPS,
661600,2023-10-09 21:28:51,38.485191894259,-112.054627781548,801.181128,,,10620.842580024,8.2021,0.223694,5489.2718292,7.6688978832,24,5,23.325,10620.842580024,801.181128,1.5882274,5489.7967636,0,-0.223694,0,260.3, -2, -1.3,0,0,1024,1024,1024,1024,0,0,0,0,0,0,0,66,3.88,3.881,3.89,3.891,3.891,3.892,0,32,10620.842580024,801.181128,6,P-GPS,
661700,2023-10-09 21:28:51,38.4851919578308,-112.054627911794,801.181128,,,10620.842580024,8.2021,0.223694,5489.2390208,7.7127299056,24,5,23.325,10620.842580024,801.181128,1.5882274,5489.7967636,0,-0.223694,0,260.3, -1.4, -2,0,0,1024,1024,1024,1024,0,0,0,0,0,0,0,66,3.88,3.881,3.89,3.891,3.891,3.892,0,32,10620.842580024,801.181128,6,P-GPS,
661800,2023-10-09 21:28:51,38.4851919972892,-112.054628063047,801.181128,,,10620.842580024,8.2021,0.223694,5489.2062124,7.7582679648,24,5,23.325,10620.842580024,801.181128,1.5882274,5489.7967636,0,-0.223694,0,260.5, -0.7, -2.7,0,0,1024,1024,1024,1024,0,0,0,0,0,0,0,66,3.88,3.881,3.89,3.891,3.891,3.892,0,32,10620.842580024,801.181128,6,P-GPS,
661900,2023-10-09 21:28:51,38.4851921003193,-112.054628284326,801.181128,,,10620.842580024,8.2021,0,5489.1405956,7.8317915892,24,5,23.325,10620.842580024,801.181128,1.5882274,5489.7967636,0,0,0,260.6, -0.2, -2.7,0,0,1024,1024,1024,1024,0,0,0,0,0,0,0,66,3.88,3.881,3.89,3.891,3.891,3.892,0,32,10620.842580024,801.181128,6,P-GPS,
662000,2023-10-09 21:28:52,38.4851920762059,-112.054628348749,800.853044,,,10620.514496024,8.2021,0,5489.1405956,7.852198414,24,5,23.325,10620.842580024,801.181128,1.5882274,5489.7967636,0,0,0,260.7, -0.6, -1.9,0,0,1024,1024,1024,1024,0,0,0,0,0,0,0,66,3.88,3.881,3.89,3.891,3.891,3.892,0,32,10620.514496024,800.853044,6,P-GPS,
662100,2023-10-09 21:28:52,38.4851919457742,-112.054628249314,800.853044,,,10620.514496024,8.2021,0,5489.173404,7.9076118016,24,5,23.321,10620.842580024,801.181128,1.5882274,5489.7967636,0,0,0,260.7, -1.8, -0.8,0,0,1024,1024,1024,1024,0,0,0,0,0,0,0,66,3.878,3.882,3.89,3.89,3.889,3.892,0,32,10620.514496024,800.853044,6,P-GPS,
662200,2023-10-09 21:28:52,38.4851918800103,-112.054628225506,800.853044,,,10620.514496024,8.2021,0,5489.2062124,7.9325461856,24,5,23.321,10620.842580024,801.181128,1.5882274,5489.7967636,0,0,0,260.5, -3.1, 0.1,0,0,1024,1024,1024,1024,0,0,0,0,0,0,0,66,3.878,3.882,3.89,3.89,3.889,3.892,0,32,10620.514496024,800.853044,6,P-GPS,
662300,2023-10-09 21:28:52,38.485191943582,-112.054628037139,800.853044,,,10620.514496024,8.2021,0,5489.2062124,7.9911091796,24,5,23.321,10620.842580024,801.181128,1.5882274,5489.7967636,0,0,0,260.4, -3.7, 0.5,0,0,1024,1024,1024,1024,0,0,0,0,0,0,0,66,3.878,3.882,3.89,3.89,3.889,3.892,0,32,10620.514496024,800.853044,6,P-GPS,
662400,2023-10-09 21:28:52,38.4851918997394,-112.054628021033,800.853044,,,10620.514496024,8.2021,0,5489.2390208,8.0077758468,24,5,23.321,10620.842580024,801.181128,1.5882274,5489.7967636,0,0,0,260.5, -3.4, 0.6,0,0,1024,1024,1024,1024,0,0,0,0,0,0,0,66,3.878,3.882,3.89,3.89,3.889,3.892,0,32,10620.514496024,800.853044,6,P-GPS,
662500,2023-10-09 21:28:52,38.4851918306873,-112.054628165984,800.853044,,,10620.514496024,8.2021,0,5489.2390208,8.0562338536,24,5,23.321,10620.842580024,801.181128,1.5882274,5489.7967636,0,0,0,260.7, -2.5, 0.1,0,0,1024,1024,1024,1024,0,0,0,0,0,0,0,66,3.878,3.882,3.89,3.89,3.889,3.892,0,32,10620.514496024,800.853044,6,P-GPS,
662600,2023-10-09 21:28:52,38.485191808766,-112.054628167385,800.853044,,,10620.514496024,8.2021,0,5489.2390208,8.0642391032,24,5,23.321,10620.842580024,801.181128,1.5882274,5489.7967636,0,0,0,261, -2.4, -0.6,0,0,1024,1024,1024,1024,0,0,0,0,0,0,0,66,3.878,3.882,3.89,3.89,3.889,3.892,0,32,10620.514496024,800.853044,6,P-GPS,
662700,2023-10-09 21:28:52,38.4851917934211,-112.054628057446,800.853044,,,10620.514496024,8.2021,0,5489.2718292,8.096128868,24,5,23.321,10620.842580024,801.181128,1.5882274,5489.7967636,0,0,0,261.1, -2.3, -0.1,0,0,1024,1024,1024,1024,0,0,0,0,0,0,0,66,3.878,3.882,3.89,3.89,3.889,3.892,0,32,10620.514496024,800.853044,6,P-GPS,
662800,2023-10-09 21:28:52,38.4851917736919,-112.054628046943,800.853044,,,10620.514496024,8.2021,0,5489.2718292,8.1039372672,24,5,23.321,10620.842580024,801.181128,1.5882274,5489.7967636,0,0,0,261, -2.8, 1,0,0,1024,1024,1024,1024,0,0,0,0,0,0,0,66,3.878,3.882,3.89,3.89,3.889,3.892,0,32,10620.514496024,800.853044,6,P-GPS,
662900,2023-10-09 21:28:52,38.4851917605391,-112.054628107164,800.853044,,,10620.514496024,8.2021,0,5489.2718292,8.1217850368,24,5,23.321,10620.842580024,801.181128,1.5882274,5489.7967636,0,0,0,260.7, -3, 1.5,0,0,1024,1024,1024,1024,0,0,0,0,0,0,0,66,3.878,3.882,3.89,3.89,3.889,3.892,0,32,10620.514496024,800.853044,6,P-GPS,
663000,2023-10-09 21:28:53,38.485191793421,-112.054628149178,800.853044,,,10620.514496024,8.2021,0,5489.2390208,8.1387469796,24,5,23.321,10620.842580024,801.181128,1.5882274,5489.7967636,0,0,0,260.5, -2.9, 0.8,0,0,1024,1024,1024,1024,0,0,0,0,0,0,0,66,3.878,3.882,3.89,3.89,3.889,3.892,0,32,10620.514496024,800.853044,6,P-GPS,
663100,2023-10-09 21:28:53,38.4851917780761,-112.054628114866,800.853044,,,10620.514496024,8.2021,0,5489.2718292,8.1500330692,24,5,23.321,10620.842580024,801.181128,1.5882274,5489.7967636,0,0,0,260.4, -2.6, -0.5,0,0,1024,1024,1024,1024,0,0,0,0,0,0,0,66,3.878,3.882,3.89,3.89,3.889,3.892,0,32,10620.514496024,800.853044,6,P-GPS,
663200,2023-10-09 21:28:53,38.4851918219187,-112.054628170186,800.853044,,,10620.514496024,8.2021,0,5489.2390208,8.1725068232,24,5,23.333,10620.842580024,801.181128,1.5882274,5489.7967636,0,0,0,260.4, -2.7, -1.4,0,0,1024,1024,1024,1024,0,0,0,0,0,0,0,66,3.883,3.885,3.89,3.887,3.893,3.895,0,32,10620.514496024,800.853044,6,P-GPS,
663300,2023-10-09 21:28:53,38.4851918723377,-112.054628189793,800.853044,,,10620.514496024,8.2021,0,5489.2062124,8.191765354,24,5,23.333,10620.842580024,801.181128,1.5882274,5489.7967636,0,0,0,260.5, -2.7, -1.5,0,0,1024,1024,1024,1024,0,0,0,0,0,0,0,66,3.883,3.885,3.89,3.887,3.893,3.895,0,32,10620.514496024,800.853044,6,P-GPS,
663400,2023-10-09 21:28:53,38.485191893163,-112.054628245112,800.853044,,,10620.514496024,8.2021,0,5489.2062124,8.2092850396,24,5,23.333,10620.842580024,801.181128,1.5882274,5489.7967636,0,0,0,260.5, -2.7, -1.3,0,0,1024,1024,1024,1024,0,0,0,0,0,0,0,66,3.883,3.885,3.89,3.887,3.893,3.895,0,32,10620.514496024,800.853044,6,P-GPS,
663500,2023-10-09 21:28:53,38.4851918997394,-112.054628278724,800.853044,,,10620.514496024,8.2021,0,5489.2062124,8.219160368,24,5,23.333,10620.842580024,801.181128,1.5882274,5489.7967636,0,0,0,260.4, -2.3, -1.3,0,0,1024,1024,1024,1024,0,0,0,0,0,0,0,66,3.883,3.885,3.89,3.887,3.893,3.895,0,32,10620.514496024,800.853044,6,P-GPS,
663600,2023-10-09 21:28:53,38.4851918942591,-112.054628342446,800.853044,,,10620.514496024,8.2021,0,5489.173404,8.2374674552,24,5,23.333,10620.842580024,801.181128,1.5882274,5489.7967636,0,0,0,260.4, -2.4, -1.2,0,0,1024,1024,1024,1024,0,0,0,0,0,0,0,66,3.883,3.885,3.89,3.887,3.893,3.895,0,32,10620.514496024,800.853044,6,P-GPS,
663700,2023-10-09 21:28:53,38.4851919074119,-112.054628404768,800.853044,,,10620.514496024,8.2021,0,5489.173404,8.255905776,24,5,23.333,10620.842580024,801.181128,1.5882274,5489.7967636,0,0,0,260.4, -2.8, -0.8,0,0,1024,1024,1024,1024,0,0,0,0,0,0,0,66,3.883,3.885,3.89,3.887,3.893,3.895,0,32,10620.514496024,800.853044,6,P-GPS,
663800,2023-10-09 21:28:53,38.4851918854906,-112.054628478994,800.52496,,,10620.186412024,8.2021,0,5489.173404,8.2785763804,24,5,23.333,10620.842580024,801.181128,1.5882274,5489.7967636,0,0,0,260.4, -3.4, -0.4,0,0,1024,1024,1024,1024,0,0,0,0,0,0,0,66,3.883,3.885,3.89,3.887,3.893,3.895,0,32,10620.186412024,800.52496,6,P-GPS,
663900,2023-10-09 21:28:53,38.4851918317834,-112.05462855182,800.52496,,,10620.186412024,8.2021,0,5489.173404,8.3071524968,24,5,23.333,10620.842580024,801.181128,1.5882274,5489.7967636,0,-0.223694,0,260.2, -3.1, -0.1,0,0,1024,1024,1024,1024,0,0,0,0,0,0,0,66,3.883,3.885,3.89,3.887,3.893,3.895,0,32,10620.186412024,800.52496,6,P-GPS,
664000,2023-10-09 21:28:54,38.4851918175345,-112.05462869397,800.52496,,,10620.186412024,8.2021,0.223694,5489.173404,8.3480645716,24,5,23.333,10620.842580024,801.181128,1.5882274,5489.7967636,0,-0.223694,0,260.2, -2.4, 0,0,0,1024,1024,1024,1024,0,0,0,0,0,0,0,66,3.883,3.885,3.89,3.887,3.893,3.895,0,32,10620.186412024,800.52496,6,P-GPS,
664100,2023-10-09 21:28:54,38.4851918624732,-112.054628814412,800.52496,,,10620.186412024,8.2021,0.223694,5489.1405956,8.3861879324,24,5,23.335,10620.842580024,801.181128,1.5882274,5489.7967636,0,-0.223694,0,260.1, -2.1, -0.9,0,0,1024,1024,1024,1024,0,0,0,0,0,0,0,66,3.883,3.885,3.89,3.891,3.891,3.895,0,32,10620.186412024,800.52496,6,P-GPS,
664200,2023-10-09 21:28:54,38.4851918854905,-112.054628968466,800.52496,,,10620.186412024,8.2021,0.223694,5489.1077872,8.4309713984,24,5,23.335,10620.842580024,801.181128,1.5882274,5489.7967636,0,-0.223694,0,260.1, -2.3, -1.7,0,0,1024,1024,1024,1024,0,0,0,0,0,0,0,66,3.883,3.885,3.89,3.891,3.891,3.895,0,32,10620.186412024,800.52496,6,P-GPS,
664300,2023-10-09 21:28:54,38.4851918219188,-112.054629142127,800.52496,,,10620.186412024,8.2021,0.223694,5489.1077872,8.485728618,24,5,23.335,10620.842580024,801.181128,1.5882274,5489.7967636,0,-0.223694,0,260.2, -3.5, -1.8,0,0,1024,1024,1024,1024,0,0,0,0,0,0,0,66,3.883,3.885,3.89,3.891,3.891,3.895,0,32,10620.186412024,800.52496,6,P-GPS,
664400,2023-10-09 21:28:54,38.4851918197266,-112.054629313688,800.52496,,,10620.186412024,8.2021,0.223694,5489.0749788,8.5347443676,24,5,23.335,10620.842580024,801.181128,1.5882274,5489.7967636,0,-0.223694,0,260.4, -3.5, -1.2,0,0,1024,1024,1024,1024,0,0,0,0,0,0,0,66,3.883,3.885,3.89,3.891,3.891,3.895,0,32,10620.186412024,800.52496,6,P-GPS,
664500,2023-10-09 21:28:54,38.4851918241109,-112.054629505555,800.52496,,,10620.186412024,8.2021,0.223694,5489.0421704,8.5895343956,24,5,23.335,10620.842580024,801.181128,1.5882274,5489.7967636,0,-0.223694,0,260.6, -2.9, -0.8,0,0,1024,1024,1024,1024,0,0,0,0,0,0,0,66,3.883,3.885,3.89,3.891,3.891,3.895,0,32,10620.186412024,800.52496,6,P-GPS,
664600,2023-10-09 21:28:54,38.4851918471282,-112.054629715629,800.52496,,,10620.186412024,8.2021,0.223694,5489.009362,8.6501315104,24,5,23.335,10620.842580024,801.181128,1.5882274,5489.7967636,0,-0.223694,0,260.6, -2.2, -1.1,0,0,1024,1024,1024,1024,0,0,0,0,0,0,0,66,3.883,3.885,3.89,3.891,3.891,3.895,0,32,10620.186412024,800.52496,6,P-GPS,
664700,2023-10-09 21:28:54,38.4851918537046,-112.054630048946,800.52496,,,10620.186412024,8.2021,0.223694,5488.9437452,8.7453414872,24,5,23.335,10620.842580024,801.181128,1.5882274,5489.7967636,0,-0.223694,0,260.6, -2.2, -1.7,0,0,1024,1024,1024,1024,0,0,0,0,0,0,0,66,3.883,3.885,3.89,3.891,3.891,3.895,0,32,10620.186412024,800.52496,6,P-GPS,
664800,2023-10-09 21:28:54,38.4851918986433,-112.05463025902,800.52496,,,10620.186412024,8.2021,0.223694,5488.9109368,8.8075462136,24,5,23.335,10620.842580024,801.181128,1.5882274,5489.7967636,0,-0.223694,0,260.6, -2.6, -2.2,0,0,1024,1024,1024,1024,0,0,0,0,0,0,0,66,3.883,3.885,3.89,3.891,3.891,3.895,0,32,10620.186412024,800.52496,6,P-GPS,
664900,2023-10-09 21:28:54,38.4851920838783,-112.054630345851,800.52496,,,10620.186412024,8.2021,0.223694,5488.84532,8.8795278432,24,5,23.335,10620.842580024,801.181128,1.5882274,5489.7967636,0,-0.223694,0,260.4, -2.7, -2.1,0,0,1024,1024,1024,1024,0,0,0,0,0,0,0,66,3.883,3.885,3.89,3.891,3.891,3.895,0,32,10620.186412024,800.52496,6,P-GPS,
665000,2023-10-09 21:28:55,38.4851921266249,-112.054630547522,800.52496,,,10620.186412024,8.2021,0.223694,5488.7797032,8.9392063228,24,5,23.335,10620.842580024,801.181128,1.5882274,5489.7967636,0,-0.223694,0,260.1, -2.2, -2.5,0,0,1024,1024,1024,1024,0,0,0,0,0,0,0,66,3.883,3.885,3.89,3.891,3.891,3.895,0,32,10620.186412024,800.52496,6,P-GPS,
665100,2023-10-09 21:28:55,38.4851920345554,-112.054630730286,800.52496,,,10620.186412024,8.2021,0.223694,5488.8125116,9.0012798156,24,5,23.335,10620.842580024,801.181128,1.5882274,5489.7967636,0,-0.223694,0,259.8, -1.1, -3.1,0,0,1024,1024,1024,1024,0,0,0,0,0,0,0,66,3.883,3.885,3.89,3.891,3.891,3.895,0,32,10620.186412024,800.52496,6,P-GPS,
665200,2023-10-09 21:28:55,38.4851920400357,-112.054630902547,800.52496,,,10620.186412024,8.2021,0.223694,5488.7797032,9.050525224,24,5,23.347,10620.842580024,801.181128,1.5882274,5489.7967636,0,-0.223694,0,259.6, -0.3, -2.9,0,0,1024,1024,1024,1024,0,0,0,0,0,0,0,66,3.885,3.887,3.892,3.892,3.894,3.897,0,32,10620.186412024,800.52496,6,P-GPS,
665300,2023-10-09 21:28:55,38.4851920466121,-112.054631020889,800.52496,,,10620.186412024,8.2021,0.223694,5488.7468948,9.0843834928,24,5,23.347,10620.842580024,801.181128,1.5882274,5489.7967636,0,-0.223694,0,259.5, -0.5, -2.2,0,0,1024,1024,1024,1024,0,0,0,0,0,0,0,66,3.885,3.887,3.892,3.892,3.894,3.897,0,32,10620.186412024,800.52496,6,P-GPS,
665400,2023-10-09 21:28:55,38.4851920488043,-112.054631128027,800.52496,,,10620.186412024,8.2021,0.223694,5488.7468948,9.11499373,24,5,23.347,10620.842580024,801.181128,1.5882274,5489.7967636,0,-0.223694,0,259.2, -1.1, -1.2,0,0,1024,1024,1024,1024,0,0,0,0,0,0,0,66,3.885,3.887,3.892,3.892,3.894,3.897,0,32,10620.186412024,800.52496,6,P-GPS,
665500,2023-10-09 21:28:55,38.485192112376,-112.054631324096,800.52496,,,10620.186412024,8.2021,0.223694,5488.681278,9.1756236532,24,5,23.347,10620.842580024,801.181128,1.5882274,5489.7967636,0,-0.223694,0,259, -2, -0.4,0,0,1024,1024,1024,1024,0,0,0,0,0,0,0,66,3.885,3.887,3.892,3.892,3.894,3.897,0,32,10620.186412024,800.52496,6,P-GPS,
665600,2023-10-09 21:28:55,38.4851921584108,-112.054631444538,800.52496,,,10620.186412024,8.2021,0.223694,5488.6484696,9.213911056,24,5,23.347,10620.842580024,801.181128,1.5882274,5489.7967636,0,-0.223694,0,258.7, -2.3, 0,0,0,1024,1024,1024,1024,0,0,0,0,0,0,0,66,3.885,3.887,3.892,3.892,3.894,3.897,0,32,10620.186412024,800.52496,6,P-GPS,
665700,2023-10-09 21:28:55,38.4851922000612,-112.054631539071,800.52496,,,10620.186412024,8.2021,0.223694,5488.6156612,9.2448821856,24,5,23.347,10620.842580024,801.181128,1.5882274,5489.7967636,0,-0.223694,0,258.9, -1.4, -0.3,0,0,1024,1024,1024,1024,0,0,0,0,0,0,0,66,3.885,3.887,3.892,3.892,3.894,3.897,0,32,10620.186412024,800.52496,6,P-GPS,
665800,2023-10-09 21:28:55,38.4851922866504,-112.054631679121,800.52496,,,10620.186412024,8.2021,0.3131716,5488.5828528,9.2958336308,24,5,23.347,10620.842580024,801.181128,1.5882274,5489.7967636,0.223694,-0.223694,0,259.1, 1, -2.5,0,0,1024,1024,1024,1024,0,0,0,0,0,0,0,66,3.885,3.887,3.892,3.892,3.894,3.897,0,32,10620.186412024,800.52496,6,P-GPS,
665900,2023-10-09 21:28:55,38.4851924269467,-112.054631699428,800.52496,,,10620.186412024,8.2021,0.3131716,5488.5500444,9.3473756272,24,5,23.347,10620.842580024,801.181128,1.5882274,5489.7967636,0,0,0,259.4, 3.1, -4.7,0,0,1024,1024,1024,1024,0,0,0,0,0,0,0,66,3.885,3.887,3.892,3.892,3.894,3.897,0,32,10620.186412024,800.52496,6,P-GPS,
666000,2023-10-09 21:28:56,38.485192480654,-112.054631688225,800.52496,,,10620.186412024,8.2021,0,5488.517236,9.3672247092,24,5,23.347,10620.842580024,801.181128,1.5882274,5489.7967636,0,0,0,259.9, 3.3, -5.6,0,0,1024,1024,1024,1024,0,0,0,0,0,0,0,66,3.885,3.887,3.892,3.892,3.894,3.897,0,32,10620.186412024,800.52496,6,P-GPS,
666100,2023-10-09 21:28:56,38.485192446676,-112.054631641309,800.52496,,,10620.186412024,8.2021,0,5488.5500444,9.3854661796,24,5,23.347,10620.842580024,801.181128,1.5882274,5489.7967636,0,0,0,260.2, 1.8, -4.7,0,0,1024,1024,1024,1024,0,0,0,0,0,0,0,66,3.885,3.887,3.892,3.892,3.894,3.897,0,32,10620.186412024,800.52496,6,P-GPS,
666200,2023-10-09 21:28:56,38.4851924083137,-112.054631459245,800.52496,,,10620.186412024,8.2021,0.223694,5488.5828528,9.439304764,24,5,23.347,10620.842580024,801.181128,1.5882274,5489.7967636,0,0.223694,0,260.2, -0.8, -2.5,0,0,1024,1024,1024,1024,0,0,0,0,0,0,0,66,3.885,3.887,3.892,3.892,3.894,3.897,0,32,10620.186412024,800.52496,6,P-GPS,
666300,2023-10-09 21:28:56,38.4851924433878,-112.054631171444,800.52496,,,10620.186412024,8.2021,0.223694,5488.6156612,9.5225068664,24,5,23.347,10620.842580024,801.181128,1.5882274,5489.7967636,0,0.223694,0,259.8, -3.8, -0.3,0,0,1024,1024,1024,1024,0,0,0,0,0,0,0,66,3.885,3.887,3.892,3.892,3.894,3.897,0,32,10620.186412024,800.52496,6,P-GPS,
666400,2023-10-09 21:28:56,38.485192412698,-112.054631022991,800.52496,,,10620.186412024,8.2021,0,5488.6484696,9.5663388888,24,5,23.347,10620.842580024,801.181128,1.5882274,5489.7967636,0,0,0,259.5, -4.5, 0.8,0,0,1024,1024,1024,1024,0,0,0,0,0,0,0,66,3.885,3.887,3.892,3.892,3.894,3.897,0,32,10620.186412024,800.52496,6,P-GPS,
666500,2023-10-09 21:28:56,38.4851922406157,-112.054631006185,800.52496,,,10620.186412024,8.2021,0,5488.681278,9.6293310168,24,5,23.347,10620.842580024,801.181128,1.5882274,5489.7967636,0,0,0,259.6, -2.6, 0,0,0,1024,1024,1024,1024,0,0,0,0,0,0,0,66,3.885,3.887,3.892,3.892,3.894,3.897,0,32,10620.186412024,800.52496,6,P-GPS,
666600,2023-10-09 21:28:56,38.485192262537,-112.054630973273,800.52496,,,10620.186412024,8.2021,0,5488.681278,9.6416669752,24,5,23.347,10620.842580024,801.181128,1.5882274,5489.7967636,0,0,0,259.9, 0.4, -2.3,0,0,1024,1024,1024,1024,0,0,0,0,0,0,0,66,3.885,3.887,3.892,3.892,3.894,3.897,0,32,10620.186412024,800.52496,6,P-GPS,
666700,2023-10-09 21:28:56,38.4851924203704,-112.054631123126,800.52496,,,10620.186412024,8.2021,0,5488.6156612,9.713418946,24,5,23.347,10620.842580024,801.181128,1.5882274,5489.7967636,0,0,0,260.2, 2.3, -4,0,0,1024,1024,1024,1024,0,0,0,0,0,0,0,66,3.885,3.887,3.892,3.892,3.894,3.897,0,32,10620.186412024,800.52496,6,P-GPS,
666800,2023-10-09 21:28:56,38.4851924181783,-112.054630978876,800.52496,,,10620.186412024,8.2021,0.223694,5488.6484696,9.7546262964,24,5,23.347,10620.842580024,801.181128,1.5882274,5489.7967636,0,0.223694,0,260.3, 1.1, -4.1,0,0,1024,1024,1024,1024,0,0,0,0,0,0,0,66,3.885,3.887,3.892,3.892,3.894,3.897,0,32,10620.186412024,800.52496,6,P-GPS,
666900,2023-10-09 21:28:56,38.4851924028334,-112.054630671468,800.52496,,,10620.186412024,8.2021,0.223694,5488.681278,9.8425856168,24,5,23.347,10620.842580024,801.181128,1.5882274,5489.7967636,0,0.223694,0,260.2, -1.7, -3.8,0,0,1024,1024,1024,1024,0,0,0,0,0,0,0,66,3.885,3.887,3.892,3.892,3.894,3.897,0,32,10620.186412024,800.52496,6,P-GPS,
667000,2023-10-09 21:28:57,38.485192329397,-112.054630436885,800.52496,,,10620.186412024,8.2021,0.3131716,5488.7468948,9.9147312884,24,5,23.347,10620.842580024,801.181128,1.5882274,5489.7967636,-0.223694,0.223694,0,260, -3.9, -2.6,0,0,1024,1024,1024,1024,0,0,0,0,0,0,0,66,3.885,3.887,3.892,3.892,3.894,3.897,0,32,10620.186412024,800.52496,6,P-GPS,
667100,2023-10-09 21:28:57,38.4851921649872,-112.054630145582,800.52496,,,10620.186412024,8.2021,0.3131716,5488.84532,10.0172903468,24,5,23.347,10620.842580024,801.181128,1.5882274,5489.7967636,-0.223694,0.223694,0,260.1, -4.1, -1.3,0,0,1024,1024,1024,1024,0,0,0,0,0,0,0,66,3.885,3.887,3.892,3.892,3.894,3.897,0,32,10620.186412024,800.52496,6,P-GPS,
667200,2023-10-09 21:28:57,38.4851920718217,-112.054629979624,800.52496,,,10620.186412024,8.2021,0.3131716,5488.9109368,10.075623682,24,5,23.347,10620.842580024,801.181128,1.5882274,5489.7967636,-0.223694,0.223694,0,260.1, -3.2, -1,0,0,1024,1024,1024,1024,0,0,0,0,0,0,0,66,3.885,3.887,3.892,3.892,3.894,3.897,0,32,10620.186412024,800.52496,6,P-GPS,
667300,2023-10-09 21:28:57,38.4851919359096,-112.054629866184,800.52496,,,10620.186412024,8.2021,0.223694,5488.9437452,10.134842844,24,5,23.314,10620.842580024,801.181128,1.5882274,5489.7967636,0,0.223694,0,260.1, -2.5, -1.4,0,0,1024,1024,1024,1024,0,0,0,0,0,0,0,66,3.88,3.882,3.887,3.886,3.889,3.89,0,32,10620.186412024,800.52496,6,P-GPS,
667400,2023-10-09 21:28:57,38.4851918712417,-112.054629725434,800.52496,,,10620.186412024,8.2021,0.223694,5489.009362,10.1814635804,24,5,23.314,10620.842580024,801.181128,1.5882274,5489.7967636,0,0.223694,0,259.9, -2.4, -2.2,0,0,1024,1024,1024,1024,0,0,0,0,0,0,0,66,3.88,3.882,3.887,3.886,3.889,3.89,0,32,10620.186412024,800.52496,6,P-GPS,
667500,2023-10-09 21:28:57,38.4851917945172,-112.054629604292,800.52496,,,10620.186412024,8.2021,0.223694,5489.0421704,10.2259845792,24,5,23.314,10620.842580024,801.181128,1.5882274,5489.7967636,0,0.223694,0,259.7, -2.1, -3.2,0,0,1024,1024,1024,1024,0,0,0,0,0,0,0,66,3.88,3.882,3.887,3.886,3.889,3.89,0,32,10620.186412024,800.52496,6,P-GPS,
667600,2023-10-09 21:28:57,38.4851917276572,-112.054629444636,800.52496,,,10620.186412024,8.2021,0.223694,5489.0749788,10.2776906176,24,5,23.314,10620.842580024,801.181128,1.5882274,5489.7967636,0,0.223694,0,259.3, -2.1, -3.4,0,0,1024,1024,1024,1024,0,0,0,0,0,0,0,66,3.88,3.882,3.887,3.886,3.889,3.89,0,32,10620.186412024,800.52496,6,P-GPS,
667700,2023-10-09 21:28:57,38.4851916322995,-112.05462925837,800.52496,,,10620.186412024,8.2021,0.223694,5489.1405956,10.3412404884,24,5,23.314,10620.842580024,801.181128,1.5882274,5489.7967636,0,0.223694,0,259.1, -2.1, -2.9,0,0,1024,1024,1024,1024,0,0,0,0,0,0,0,66,3.88,3.882,3.887,3.886,3.889,3.89,0,32,10620.186412024,800.52496,6,P-GPS,
667800,2023-10-09 21:28:57,38.4851915446143,-112.054629071404,800.52496,,,10620.186412024,8.2021,0.223694,5489.2062124,10.4034780232,24,5,23.314,10620.842580024,801.181128,1.5882274,5489.7967636,0,0.223694,0,258.9, -2.3, -2,0,0,1024,1024,1024,1024,0,0,0,0,0,0,0,66,3.88,3.882,3.887,3.886,3.889,3.89,0,32,10620.186412024,800.52496,6,P-GPS,
667900,2023-10-09 21:28:58,38.4851914766583,-112.054628813013,800.52496,,,10620.186412024,8.2021,0.223694,5489.2390208,10.4813323564,24,5,23.314,10620.842580024,801.181128,1.5882274,5489.7967636,0,0.223694,0,258.8, -2.7, -1.4,0,0,1024,1024,1024,1024,0,0,0,0,0,0,0,66,3.88,3.882,3.887,3.886,3.889,3.89,0,32,10620.186412024,800.52496,6,P-GPS,
668000,2023-10-09 21:28:58,38.4851914087022,-112.054628625347,800.52496,,,10620.186412024,8.2021,0.223694,5489.3046376,10.5403874764,24,5,23.314,10620.842580024,801.181128,1.5882274,5489.7967636,0,0.223694,0,258.8, -2.8, -1,0,0,1024,1024,1024,1024,0,0,0,0,0,0,0,66,3.88,3.882,3.887,3.886,3.889,3.89,0,32,10620.186412024,800.52496,6,P-GPS,
668100,2023-10-09 21:28:58,38.4851913791084,-112.054628465691,800.52496,,,10620.186412024,8.2021,0.223694,5489.337446,10.5872378716,24,5,23.314,10620.842580024,801.181128,1.5882274,5489.7967636,0,0.223694,0,259, -2.7, -1,0,0,1024,1024,1024,1024,0,0,0,0,0,0,0,66,3.88,3.882,3.887,3.886,3.889,3.89,0,32,10620.186412024,800.52496,6,P-GPS,
668200,2023-10-09 21:28:58,38.4851913352658,-112.054628304634,800.52496,,,10620.186412024,8.2021,0.223694,5489.3702544,10.6359583456,24,5,23.317,10620.842580024,801.181128,1.5882274,5489.7967636,0,0.223694,0,259.1, -2.9, -1.2,0,0,1024,1024,1024,1024,0,0,0,0,0,0,0,66,3.879,3.882,3.889,3.886,3.889,3.892,0,32,10620.186412024,800.52496,6,P-GPS,
668300,2023-10-09 21:28:58,38.48519123662,-112.054628114867,800.52496,,,10620.186412024,8.2021,0.223694,5489.4358712,10.7010174028,24,5,23.317,10620.842580024,801.181128,1.5882274,5489.7967636,0,0.223694,0,259.2, -3.2, -1.5,0,0,1024,1024,1024,1024,0,0,0,0,0,0,0,66,3.879,3.882,3.889,3.886,3.889,3.892,0,32,10620.186412024,800.52496,6,P-GPS,
668400,2023-10-09 21:28:58,38.4851912157947,-112.05462798252,800.52496,,,10620.186412024,8.2021,0.223694,5489.4686796,10.7395672728,24,5,23.317,10620.842580024,801.181128,1.5882274,5489.7967636,0,0.223694,0,259.2, -3.6, -1.7,0,0,1024,1024,1024,1024,0,0,0,0,0,0,0,66,3.879,3.882,3.889,3.886,3.889,3.892,0,32,10620.186412024,800.52496,6,P-GPS,
668500,2023-10-09 21:28:58,38.4851912574452,-112.054627843171,800.52496,,,10620.186412024,8.2021,0,5489.4686796,10.782152576,24,5,23.317,10620.842580024,801.181128,1.5882274,5489.7967636,0,0,0,259.3, -4.2, -1.5,0,0,1024,1024,1024,1024,0,0,0,0,0,0,0,66,3.879,3.882,3.889,3.886,3.889,3.892,0,32,10620.186412024,800.52496,6,P-GPS,
668600,2023-10-09 21:28:58,38.4851912574452,-112.054627761242,800.52496,,,10620.186412024,8.2021,0,5489.4686796,10.8055449652,24,5,23.317,10620.842580024,801.181128,1.5882274,5489.7967636,0,0,0,259.3, -4.7, -1.2,0,0,1024,1024,1024,1024,0,0,0,0,0,0,0,66,3.879,3.882,3.889,3.886,3.889,3.892,0,32,10620.186412024,800.52496,6,P-GPS,
