time(millisecond),datetime(utc),latitude,longitude,height_above_takeoff(feet),height_above_ground_at_drone_location(feet),ground_elevation_at_drone_location(feet),altitude_above_seaLevel(feet),height_sonar(feet),speed(mph),distance(feet),mileage(feet),satellites,gpslevel,voltage(v),max_altitude(feet),max_ascent(feet),max_speed(mph),max_distance(feet), xSpeed(mph), ySpeed(mph), zSpeed(mph), compass_heading(degrees), pitch(degrees), roll(degrees),isPhoto,isVideo,rc_elevator,rc_aileron,rc_throttle,rc_rudder,rc_elevator(percent),rc_aileron(percent),rc_throttle(percent),rc_rudder(percent),gimbal_heading(degrees),gimbal_pitch(degrees),gimbal_roll(degrees),battery_percent,voltageCell1,voltageCell2,voltageCell3,voltageCell4,voltageCell5,voltageCell6,current(A),battery_temperature(f),altitude(feet),ascent(feet),flycStateRaw,flycState,message
0,2023-10-08 20:10:20,38.4982387396596,-112.064407799126,0,Available with any HD 360 subscription,Available with any HD 360 subscription,9821.4885019517,0.656168,0,0,0,21,5,0,9821.4885019517,0,0,0,0,0,0,91.4, 0.9, 1.7,0,0,364,364,364,1684,-100,-100,-100,100,0,0,0,98,,,,,,,0,32,9821.4885019517,0,41,Motors_Started,
100,2023-10-08 20:10:20,38.4982387484288,-112.064407819132,0,,,9821.4885019517,0.656168,0,0.0065475395796,0.0065475395796,21,5,0,9821.4885019517,0,0,0.0065475395796,0,0,0,91.4, 0.9, 1.7,0,0,364,364,364,1684,-100,-100,-100,100,0,0,0,98,,,,,,,0,32,9821.4885019517,0,41,Motors_Started,
200,2023-10-08 20:10:20,38.4982387315281,-112.064407779755,0,,,9821.4885019517,0.656168,0,0.0062766078124,0.0193711292288,21,5,0,9821.4885019517,0,0,0.0065475395796,0,0,0,91.4, 0.9, 1.7,0,0,364,364,364,1684,-100,-100,-100,100,0,0,0,98,,,,,,,0,32,9821.4885019517,0,41,Motors_Started,
300,2023-10-08 20:10:20,38.4982387381882,-112.064407795648,0,,,9821.4885019517,0.656168,0,0.00112900922248,0.0245187343804,21,5,0,9821.4885019517,0,0,0.0065475395796,0,0,0,91.4, 0.9, 1.7,0,0,364,364,364,1684,-100,-100,-100,100,0,0,0,98,,,,,,,0,32,9821.4885019517,0,41,Motors_Started,
400,2023-10-08 20:10:20,38.4982387245147,-112.064407764462,0,,,9821.4885019517,0.656168,0,0.0113359911764,0.034725722896,21,5,0,9821.4885019517,0,0,0.0113359911764,0,0,0,91.3, 0.9, 1.7,0,0,377,364,364,1684,-98,-100,-100,100,0,0,0,98,,,,,,,0,32,9821.4885019517,0,41,Motors_Started,
500,2023-10-08 20:10:20,38.4982387293861,-112.064407774724,0,,,9821.4885019517,0.656168,0,0.007912073744,0.03815288836,21,5,0,9821.4885019517,0,0,0.0113359911764,0,0,0,91.3, 0.8, 1.7,0,0,1024,1024,1024,1024,0,0,0,0,0,0,0,98,,,,,,,0,32,9821.4885019517,0,41,Motors_Started,
600,2023-10-08 20:10:20,38.4982388803377,-112.064407751153,0,,,9821.4885019517,0.656168,0,0.053122705112,0.093637142104,21,5,0,9821.4885019517,0,0,0.053122705112,0,0,0,91.3, 0.9, 1.7,0,0,1024,1024,1024,1024,0,0,0,0,0,0,0,98,,,,,,,0,32,9821.4885019517,0,41,Motors_Started,
700,2023-10-08 20:10:20,38.4982388982372,-112.064407752994,0,,,9821.4885019517,0.656168,0,0.059337600324,0.100188979584,21,5,0,9821.4885019517,0,0,0.059337600324,0,0,0,91.3, 0.8, 1.7,0,0,1024,1024,1024,1024,0,0,0,0,0,0,0,98,,,,,,,0,32,9821.4885019517,0,41,Motors_Started,"Setting new Return-To-Home altitude to 61m (200 ft). Data Recorder File Index is 31. Setting new Maximum Flight Altitude to 500m (1640 ft)"
800,2023-10-08 20:10:20,38.4982388687299,-112.064407902802,0,,,9821.4885019517,0.656168,0,0.05562336136,0.144299217216,21,5,0,9821.4885019517,0,0,0.059337600324,0,0,0,91.3, 0.9, 1.7,0,0,1024,1024,1024,1024,0,0,0,0,0,0,0,98,,,,,,,0,32,9821.4885019517,0,41,Motors_Started,
900,2023-10-08 20:10:20,38.4982388832951,-112.06440791709,0,,,9821.4885019517,0.656168,0,0.062296918004,0.15099902058,21,5,0,9821.4885019517,0,0,0.062296918004,0,0,0,91.7, 0.8, 1.7,0,0,1024,1024,1024,1024,0,0,0,0,0,0,0,98,,,,,,,0,32,9821.4885019517,0,41,Motors_Started,
1000,2023-10-08 20:10:21,38.4982388520311,-112.064407875452,0,,,9821.4885019517,0.656168,0,0.046431431932,0.16747539906,21,5,0,9821.4885019517,0,0,0.062296918004,0,0,0,91.6, 0.9, 1.7,0,0,1024,1024,1024,1024,0,0,0,0,0,0,0,98,,,,,,,0,32,9821.4885019517,0,41,Motors_Started,
1100,2023-10-08 20:10:21,38.4982388631172,-112.064407887443,0,,,9821.4885019517,0.656168,0,0.05162237698,0.172774611828,21,5,0,9821.4885019517,0,0,0.062296918004,0,0,0,91.4, 0.8, 1.7,0,0,1024,1024,1024,1024,0,0,0,0,0,0,0,98,,,,,,,0,32,9821.4885019517,0,41,Motors_Started,
1200,2023-10-08 20:10:21,38.4982388269262,-112.064407837481,0,,,9821.4885019517,0.656168,0,0.033670276668,0.192213916912,21,5,0,9821.4885019517,0,0,0.062296918004,0,0,0,91.2, 0.8, 1.7,0,0,1024,1024,1024,1024,0,0,0,0,0,0,0,98,,,,,,,0,32,9821.4885019517,0,41,Motors_Started,
1300,2023-10-08 20:10:21,38.4982388312546,-112.064407843188,0,,,9821.4885019517,0.656168,0,0.035708334476,0.194482945856,21,5,0,9821.4885019517,0,0,0.062296918004,0,0,0,91.2, 0.9, 1.7,0,0,1024,1024,1024,1024,0,0,0,0,0,0,0,98,,,,,,,0,32,9821.4885019517,0,41,Motors_Started,
1400,2023-10-08 20:10:21,38.4982390194386,-112.064408042458,0,,,9821.4885019517,0.656168,0,0.123480318912,0.28365486472,21,5,0,9821.4885019517,0,0,0.123480318912,0,0,0,91.3, 0.8, 1.7,0,0,1024,1024,1024,1024,0,0,0,0,0,0,0,98,,,,,,,0,32,9821.4885019517,0,41,Motors_Started,
1500,2023-10-08 20:10:21,38.4982390421003,-112.064408063659,0,,,9821.4885019517,0.656168,0,0.133722445224,0.293902240376,21,5,0,9821.4885019517,0,0,0.133722445224,0,0,0,91.3, 0.8, 1.7,0,0,1024,1024,1024,1024,0,0,0,0,0,0,0,98,,,,,,,0,32,9821.4885019517,0,41,Motors_Started,
1600,2023-10-08 20:10:21,38.4982389715644,-112.064407969429,0,,,9821.4885019517,0.656168,0,0.097589241968,0.3311351812,21,5,0,9821.4885019517,0,0,0.133722445224,0,0,0,91.2, 0.8, 1.7,0,0,1024,1024,1024,1024,0,0,0,0,0,0,0,98,,,,,,,0,32,9821.4885019517,0,41,Motors_Started,
1700,2023-10-08 20:10:21,38.4982389879899,-112.06440798159,0,,,9821.4885019517,0.656168,0,0.104515423292,0.33806103444,21,5,0,9821.4885019517,0,0,0.133722445224,0,0,0,91.2, 0.8, 1.7,0,0,1024,1024,1024,1024,0,0,0,0,0,0,0,98,,,,,,,0,32,9821.4885019517,0,41,Motors_Started,
1800,2023-10-08 20:10:21,38.4982389599272,-112.06440795488,0,,,9821.4885019517,0.656168,0,0.091849740472,0.35082678288,21,5,0,9821.4885019517,0,0,0.133722445224,0,0,0,91.3, 0.8, 1.7,0,0,1024,1024,1024,1024,0,0,0,0,0,0,0,98,,,,,,,0,32,9821.4885019517,0,41,Motors_Started,
1900,2023-10-08 20:10:21,38.4982389755068,-112.064407960863,0,,,9821.4885019517,0.656168,0,0.097658467692,0.35676182244,21,5,0,9821.4885019517,0,0,0.133722445224,0,0,0,91.2, 0.8, 1.6,0,0,1024,1024,1024,1024,0,0,0,0,0,0,0,98,,,,,,,0,32,9821.4885019517,0,41,Motors_Started,
2000,2023-10-08 20:10:22,38.4982389559749,-112.06440793956,0,,,9821.4885019517,0.656168,0,0.0885252653,0.36613190148,21,5,0,9821.4885019517,0,0,0.133722445224,0,0,0,91.3, 0.8, 1.6,0,0,1024,1024,1024,1024,0,0,0,0,0,0,0,98,,,,,,,0,32,9821.4885019517,0,10,Assisted_Takeoff,
2100,2023-10-08 20:10:22,38.4982389686609,-112.064407939034,0,,,9821.4885019517,0.656168,0,0.092610567268,0.37076444756,21,5,0,9821.4885019517,0,0,0.133722445224,0,0,0,91.3, 0.8, 1.6,0,0,1024,1024,1081,1024,0,0,9,0,0,0,0,98,,,,,,,0,32,9821.4885019517,0,10,Assisted_Takeoff,
2200,2023-10-08 20:10:22,38.498238947082,-112.06440791508,0,,,9821.4885019517,0.656168,0,0.082604005268,0.38119423792,21,5,0,9821.4885019517,0,0,0.133722445224,0,0,0,91.3, 0.9, 1.7,0,0,1024,1024,1110,1024,0,0,13,0,0,0,0,98,,,,,,,0,32,9821.4885019517,0,10,Assisted_Takeoff,
2300,2023-10-08 20:10:22,38.498238958621,-112.064407910313,0,,,9821.4885019517,0.656168,0,0.085965553932,0.38561681024,21,5,0,9821.4885019517,0,0,0.133722445224,0,0,0,91.3, 0.8, 1.7,0,0,1024,1024,1123,1024,0,0,15,0,0,0,0,98,,,,,,,0,32,9821.4885019517,0,10,Assisted_Takeoff,
2400,2023-10-08 20:10:22,38.498239105208,-112.064407906557,0,,,9821.4885019517,0.656168,0,0.136852366584,0.43911090644,21,5,0,9821.4885019517,0,0,0.136852366584,0,0,0,91.3, 0.8, 1.7,0,0,1024,1024,1134,1024,0,0,17,0,0,0,0,98,,,,,,,0,32,9821.4885019517,0,10,Assisted_Takeoff,
2500,2023-10-08 20:10:22,38.4982391304812,-112.064407899862,0,,,9821.4885019517,0.656168,0,0.145463259248,0.44852691724,21,5,0,9821.4885019517,0,0,0.145463259248,0,0,0,91.3, 0.8, 1.6,0,0,1024,1024,1201,1024,0,0,27,0,0,0,0,98,,,,,,,0,32,9821.4885019517,0,10,Assisted_Takeoff,
2600,2023-10-08 20:10:22,38.498239087641,-112.064407895784,0,,,9821.4885019517,0.656168,0,0.12992618526,0.46419948992,21,5,0,9821.4885019517,0,0,0.145463259248,0,0,0,91.2, 0.9, 1.6,0,0,1024,1024,1246,1024,0,0,34,0,0,0,0,98,,,,,,,0,32,9821.4885019517,0,10,Assisted_Takeoff,
2700,2023-10-08 20:10:22,38.4982391093915,-112.064407888825,0,,,9821.4885019517,0.656168,0,0.13730643484,0.47238190488,21,5,0,9821.4885019517,0,0,0.145463259248,0,0,0,91.2, 0.9, 1.6,0,0,1024,1024,1276,1024,0,0,38,0,0,0,0,98,,,,,,,0,32,9821.4885019517,0,10,Assisted_Takeoff,
2800,2023-10-08 20:10:22,38.4982390757824,-112.06440805766,0,,,9821.4885019517,0.656168,0,0.143139112192,0.52212600096,21,5,0,9821.4885019517,0,0,0.145463259248,0,0,0,91.2, 0.9, 1.6,0,0,1024,1024,1318,1024,0,0,45,0,0,0,0,98,,,,,,,0,32,9821.4885019517,0,10,Assisted_Takeoff,
2900,2023-10-08 20:10:22,38.4982390952862,-112.06440806584,0,,,9821.4885019517,0.656168,0,0.150449807964,0.52961615868,21,5,0,9821.4885019517,0,0,0.150449807964,0,0,0,91.2, 1, 1.6,0,0,1024,1024,1366,1024,0,0,52,0,0,0,0,98,,,,,,,0,32,9821.4885019517,0,10,Assisted_Takeoff,
3000,2023-10-08 20:10:23,38.498239069878,-112.064408054888,0,,,9821.4885019517,0.656168,0,0.140886159364,0.53939962356,21,5,0,9821.4885019517,0,0,0.150449807964,0,0,0,91.2, 1, 1.6,0,0,1024,1024,1366,1024,0,0,52,0,0,0,0,98,,,,,,,0,32,9821.4885019517,0,10,Assisted_Takeoff,
3100,2023-10-08 20:10:23,38.4982390861354,-112.064408065453,0,,,9821.4885019517,0.656168,0,0.147523298684,0.54605316708,21,5,0,9821.4885019517,0,0,0.150449807964,0,0,0,91.2, 1.1, 1.6,0,0,1024,1024,1416,1024,0,0,59,0,0,0,0,98,,,,,,,0,32,9821.4885019517,0,10,Assisted_Takeoff,
3200,2023-10-08 20:10:23,38.4982390641209,-112.0644080619,0,,,9821.4885019517,0.656168,0,0.140155516296,0.5541502802,21,5,0,9821.4885019517,0,0,0.150449807964,0,0,0,91.2, 1.3, 1.6,0,0,1024,1024,1437,1024,0,0,63,0,0,0,0,98,,,,,,,0,32,9821.4885019517,0,10,Assisted_Takeoff,
3300,2023-10-08 20:10:23,38.4982390809081,-112.064408089499,0,,,9821.4885019517,0.656168,0,0.149585962792,0.56413059548,21,5,0,9821.4885019517,0,0,0.150449807964,0,0,0,91.3, 1.9, 1.6,0,0,1024,1024,1467,1024,0,0,67,0,0,0,0,98,,,,,,,0,32,9821.4885019517,0,10,Assisted_Takeoff,
3400,2023-10-08 20:10:23,38.4982390522535,-112.064408148753,0,,,9821.4885019517,0.656168,0,0.15157152716,0.58401904756,21,5,0,9821.4885019517,0,0,0.15157152716,0,0,0,91.3, 3.5, 1.8,0,0,1024,1024,1483,1024,0,0,70,0,0,0,0,98,,,,,,,0,32,9821.4885019517,0,10,Assisted_Takeoff,
3500,2023-10-08 20:10:23,38.4982390406771,-112.064408301612,0,,,9821.4885019517,0.656168,0.223694,0.180688654076,0.627870755,21,5,0,9821.4885019517,0,0.223694,0.180688654076,0,-0.223694,-0.223694,91.1, 6.9, 2.1,0,0,1024,1024,1526,1024,0,0,76,0,0,0,0,98,,,,,,,0,32,9821.4885019517,0,10,Assisted_Takeoff,
3600,2023-10-08 20:10:23,38.4982389629365,-112.064408550285,0,,,9821.4885019517,0.656168,0.447388,0.22943570288,0.7043307312,21,5,0,9821.4885019517,0,0.447388,0.22943570288,0,-0.447388,-0.447388,90.6, 10.1, 2.3,0,0,1024,1024,1542,1024,0,0,78,0,0,0,0,98,,,,,,,0,32,9821.4885019517,0,6,P-GPS,
3700,2023-10-08 20:10:23,38.4982388794062,-112.064409013378,0,,,9821.4885019517,0.984252,0.9171454,0.35044620544,0.84002955444,21,5,0,9821.4885019517,0,0.9171454,0.35044620544,-0.223694,-0.894776,-0.894776,89.9, 8.5, 1,0,0,1024,1024,1542,1024,0,0,78,0,0,0,0,98,,,,,,,0,32,9821.4885019517,0,6,P-GPS,
3800,2023-10-08 20:10:23,38.4982387345047,-112.064409700089,0.328084,,,9821.8165859517,0.984252,0.9171454,0.54280513548,1.04311683128,21,5,0,9821.8165859517,0.328084,0.9171454,0.54280513548,-0.223694,-1.11847,-1.11847,89.3, 4.5, -0.5,0,0,1024,1024,1547,1024,0,0,79,0,0,0,0,98,,,,,,,0,32,9821.8165859517,0.328084,6,P-GPS,
3900,2023-10-08 20:10:23,38.4982386329701,-112.064410404534,0.328084,,,9821.8165859517,1.312336,1.3645334,0.74496721544,1.24764767772,21,5,0,9821.8165859517,0.328084,1.3645334,0.74496721544,-0.223694,-1.342164,-1.565858,89, -0.5, -1.6,0,0,1024,1024,1553,1024,0,0,80,0,0,0,0,98,,,,,,,0,32,9821.8165859517,0.328084,6,P-GPS,
4000,2023-10-08 20:10:24,38.498238669983,-112.064411168457,0.656168,,,9822.1446699517,1.64042,1.11847,0.9624180098,1.46619755348,21,5,0,9822.1446699517,0.656168,1.3645334,0.9624180098,0,-1.11847,-2.23694,88.9, -3.8, -1.7,0,0,1024,1024,1565,1024,0,0,82,0,0,0,0,98,,,,,,,0,32,9822.1446699517,0.656168,6,P-GPS,
4100,2023-10-08 20:10:24,38.4982386423582,-112.064411745907,0.984252,,,9822.4727539517,1.968504,0.894776,1.1275262828,1.63139112832,21,5,0,9822.4727539517,0.984252,1.3645334,1.1275262828,0,-0.894776,-2.684328,88.7, -4.4, -1,0,0,1024,1024,1573,1024,0,0,83,0,0,0,0,98,,,,,,,0,32,9822.4727539517,0.984252,6,P-GPS,
4200,2023-10-08 20:10:24,38.4982383416591,-112.064412353216,1.64042,,,9823.1289219517,2.296588,0.894776,1.30846132796,1.83659126612,21,5,0,9823.1289219517,1.64042,1.3645334,1.30846132796,0,-0.671082,-3.35541,88.6, -3.6, -0.4,0,0,1024,1024,1574,1024,0,0,83,0,0,0,0,98,,,,,,,0,32,9823.1289219517,1.64042,6,P-GPS,
4300,2023-10-08 20:10:24,38.4982383020533,-112.064412755486,1.968504,,,9823.4570059517,2.952756,0.671082,1.42422248652,1.9523622672,21,5,0,9823.4570059517,1.968504,1.3645334,1.42422248652,0,-0.671082,-3.802798,88.6, -2, 0,0,0,1024,1024,1574,1024,0,0,83,0,0,0,0,98,,,,,,,0,32,9823.4570059517,1.968504,6,P-GPS,
4400,2023-10-08 20:10:24,38.4982386727157,-112.064412567038,2.624672,,,9824.1131739517,3.28084,0.447388,1.36165358688,2.09791017212,21,5,0,9824.1131739517,2.624672,1.3645334,1.42422248652,0,-0.447388,-4.47388,88.7, -0.6, 0,0,0,1024,1024,1579,1024,0,0,84,0,0,0,0,98,,,,,,,0,32,9824.1131739517,2.624672,6,P-GPS,
4500,2023-10-08 20:10:24,38.4982386705025,-112.064412844285,3.28084,,,9824.7693419517,4.265092,0.447388,1.44082025608,2.17708012216,21,5,0,9824.7693419517,3.28084,1.3645334,1.44082025608,0,-0.447388,-5.144962,88.7, -0.6, 0.2,0,0,1024,1024,1578,1024,0,0,84,0,0,0,0,98,,,,,,,0,32,9824.7693419517,3.28084,6,P-GPS,
4600,2023-10-08 20:10:24,38.4982385956285,-112.064413291955,4.265092,,,9825.7535939517,4.92126,0.447388,1.569307793,2.30779534944,21,5,0,9825.7535939517,4.265092,1.3645334,1.569307793,0,-0.447388,-5.816044,88.9, -1.2, 0.3,0,0,1024,1024,1578,1024,0,0,84,0,0,0,0,98,,,,,,,0,32,9825.7535939517,4.265092,6,P-GPS,
4700,2023-10-08 20:10:24,38.498238573578,-112.064413512672,5.249344,,,9826.7378459517,5.577428,0.447388,1.6325787924,2.37132881604,21,5,0,9826.7378459517,5.249344,1.3645334,1.6325787924,0,-0.447388,-6.487126,89, -1.8, 0.2,0,0,1024,1024,1582,1024,0,0,85,0,0,0,0,98,,,,,,,0,32,9826.7378459517,5.249344,6,P-GPS,
4800,2023-10-08 20:10:24,38.4982387354923,-112.06441379366,6.233596,,,9827.7220979517,6.56168,0.447388,1.71168640648,2.470964646,21,5,0,9827.7220979517,6.233596,1.3645334,1.71168640648,0,-0.223694,-7.158208,89, -2.1, 0,0,0,1024,1024,1584,1024,0,0,85,0,0,0,0,98,,,,,,,0,32,9827.7220979517,6.233596,6,P-GPS,
4900,2023-10-08 20:10:24,38.498238720491,-112.064413916331,7.217848,,,9828.7063499517,7.874016,0.223694,1.74672905852,2.50641740304,21,5,0,9828.7063499517,7.217848,1.3645334,1.74672905852,0,-0.223694,-7.82929,89.1, -2, -0.3,0,0,1024,1024,1583,1024,0,0,85,0,0,0,0,98,,,,,,,0,32,9828.7063499517,7.217848,6,P-GPS,
5000,2023-10-08 20:10:25,38.49823850575,-112.064413833884,8.530184,,,9830.0186859517,8.858268,0,1.72528220744,2.58822514844,21,5,0,9830.0186859517,8.530184,1.3645334,1.74672905852,0,0,-8.276678,89.1, -1.7, -0.4,0,0,1024,1024,1583,1024,0,0,85,0,0,0,0,98,,,,,,,0,32,9830.0186859517,8.530184,6,P-GPS,
5100,2023-10-08 20:10:25,38.4982384758181,-112.064413857021,9.84252,,,9831.3310219517,9.84252,0,1.73245412368,2.60099089688,21,5,0,9831.3310219517,9.84252,1.3645334,1.74672905852,0,0,-8.500372,89.3, -1.5, -0.4,0,0,1024,1024,1580,1024,0,0,84,0,0,0,0,98,,,,,,,0,32,9831.3310219517,9.84252,6,P-GPS,
5200,2023-10-08 20:10:25,38.4982381838321,-112.064414250343,10.826772,,,9832.3152739517,11.154856,0,1.8532152824,2.75578748976,21,5,0,9832.3152739517,10.826772,1.3645334,1.8532152824,0,0,-8.94776,89.4, -1.4, -0.4,0,0,1024,1024,1580,1024,0,0,84,0,0,0,0,98,,,,,,,0,32,9832.3152739517,10.826772,6,P-GPS,
5300,2023-10-08 20:10:25,38.4982381300764,-112.064414238084,12.139108,,,9833.6276099517,12.139108,0,1.85199152908,2.77570875024,21,5,0,9833.6276099517,12.139108,1.3645334,1.8532152824,0,0,-9.171454,89.6, -1.4, -0.8,0,0,1024,1024,1580,1024,0,0,84,0,0,0,0,98,,,,,,,0,32,9833.6276099517,12.139108,6,P-GPS,
5400,2023-10-08 20:10:25,38.4982382387834,-112.064414240385,13.779528,,,9835.2680299517,13.12336,0,1.84830058408,2.81537738668,21,5,0,9835.2680299517,13.779528,1.3645334,1.8532152824,0,0,-9.171454,89.9, -1.4, -1.2,0,0,1024,1024,1582,1024,0,0,85,0,0,0,0,98,,,,,,,0,32,9835.2680299517,13.779528,6,P-GPS,
5500,2023-10-08 20:10:25,38.4982382212458,-112.064414176445,15.091864,,,9836.5803659517,14.435696,0,1.83078417932,2.83472450016,21,5,0,9836.5803659517,15.091864,1.3645334,1.8532152824,0,0,-9.395148,90.1, -1.6, -1.1,0,0,1024,1024,1588,1024,0,0,85,0,0,0,0,98,,,,,,,0,32,9836.5803659517,15.091864,6,P-GPS,
5600,2023-10-08 20:10:25,38.4982381681087,-112.064414047211,16.4042,,,9837.8927019517,15.419948,0,1.79623037244,2.87640757236,21,5,0,9837.8927019517,16.4042,1.3645334,1.8532152824,0,0,-9.395148,90.2, -1.6, -0.7,0,0,1024,1024,1589,1024,0,0,86,0,0,0,0,98,,,,,,,0,32,9837.8927019517,16.4042,6,P-GPS,
5700,2023-10-08 20:10:25,38.4982381671937,-112.064413922798,17.716536,,,9839.2050379517,16.4042,0.223694,1.76099087,2.91193578872,21,5,0,9839.2050379517,17.716536,1.3645334,1.8532152824,0,0.223694,-9.395148,90.3, -1.4, -0.5,0,0,1024,1024,1591,1024,0,0,86,0,0,0,0,98,,,,,,,0,32,9839.2050379517,17.716536,6,P-GPS,
5800,2023-10-08 20:10:25,38.4982381241912,-112.064413945247,19.028872,,,9840.5173739517,17.716536,0.223694,1.76927827184,2.92888132732,21,5,0,9840.5173739517,19.028872,1.3645334,1.8532152824,0,0.223694,-9.395148,90.4, -0.8, -0.5,0,0,1024,1024,1591,1024,0,0,86,0,0,0,0,98,,,,,,,0,32,9840.5173739517,19.028872,6,P-GPS,
5900,2023-10-08 20:10:25,38.4982381292611,-112.06441380148,20.669292,,,9842.1577939517,18.700788,0.223694,1.72832682696,2.96997712916,21,5,0,9842.1577939517,20.669292,1.3645334,1.8532152824,0,0.223694,-9.395148,90.5, 0, -0.5,0,0,1024,1024,1591,1024,0,0,86,0,0,0,0,98,,,,,,,0,32,9842.1577939517,20.669292,6,P-GPS,
6000,2023-10-08 20:10:26,38.4982380214918,-112.064413972798,21.981628,,,9843.4701299517,20.013124,0.223694,1.78220478144,3.03273631752,21,5,0,9843.4701299517,21.981628,1.3645334,1.8532152824,0,0.223694,-9.171454,90.6, 0.2, -0.3,0,0,1024,1024,1590,1024,0,0,86,0,0,0,0,98,,,,,,,0,32,9843.4701299517,21.981628,6,P-GPS,
6100,2023-10-08 20:10:26,38.4982380231731,-112.06441389825,23.293964,,,9844.7824659517,21.32546,0,1.76105976764,3.05403224996,21,5,0,9844.7824659517,23.293964,1.3645334,1.8532152824,0,0,-9.171454,90.7, 0.1, -0.1,0,0,1024,1024,1591,1024,0,0,86,0,0,0,0,98,,,,,,,0,32,9844.7824659517,23.293964,6,P-GPS,
6200,2023-10-08 20:10:26,38.4982380444181,-112.064413480464,24.6063,,,9846.0948019517,22.96588,0,1.64196855648,3.17357949788,21,5,0,9846.0948019517,24.6063,1.3645334,1.8532152824,0,0,-9.171454,90.7, -0.1, -0.1,0,0,1024,1024,1591,1024,0,0,86,0,0,0,0,98,,,,,,,0,32,9846.0948019517,24.6063,6,P-GPS,
6300,2023-10-08 20:10:26,38.4982380377641,-112.064413432842,25.918636,,,9847.4071379517,24.278216,0,1.62891409412,3.18739183428,21,5,0,9847.4071379517,25.918636,1.3645334,1.8532152824,0,0,-9.171454,90.7, -0.4, -0.1,0,0,1024,1024,1590,1024,0,0,86,0,0,0,0,98,,,,,,,0,32,9847.4071379517,25.918636,6,P-GPS,
6400,2023-10-08 20:10:26,38.4982380191607,-112.064413358407,27.230972,,,9848.7194739517,25.262468,0,1.6090223612,3.20970482712,21,5,0,9848.7194739517,27.230972,1.3645334,1.8532152824,0,0,-8.94776,90.6, -0.8, -0.2,0,0,1024,1024,1591,1024,0,0,86,0,0,0,0,98,,,,,,,0,32,9848.7194739517,27.230972,6,P-GPS,
6500,2023-10-08 20:10:26,38.4982380023689,-112.064413336294,28.543308,,,9850.0318099517,26.574804,0,1.60380910644,3.21850075916,21,5,0,9850.0318099517,28.543308,1.3645334,1.8532152824,0,0,-8.94776,90.6, -0.8, -0.4,0,0,1024,1024,1593,1024,0,0,86,0,0,0,0,98,,,,,,,0,32,9850.0318099517,28.543308,6,P-GPS,
6600,2023-10-08 20:10:26,38.4982379712069,-112.064413329018,30.183728,,,9851.6722299517,27.88714,0,1.60371068124,3.23005915848,21,5,0,9851.6722299517,30.183728,1.3645334,1.8532152824,0,0,-8.94776,90.5, -0.4, -0.6,0,0,1024,1024,1614,1024,0,0,89,0,0,0,0,98,,,,,,,0,32,9851.6722299517,30.183728,6,P-GPS,
6700,2023-10-08 20:10:26,38.4982379538377,-112.064413338335,31.496064,,,9852.9845659517,28.871392,0,1.607447558,3.23693251828,23,5,0,9852.9845659517,31.496064,1.3645334,1.8532152824,0,0,-8.94776,90.6, -0.4, -0.5,0,0,1024,1024,1624,1024,0,0,91,0,0,0,0,98,,,,,,,0,32,9852.9845659517,31.496064,6,P-GPS,
6800,2023-10-08 20:10:26,38.4982377985045,-112.064413203062,32.8084,,,9854.2969019517,29.855644,0,1.580790733,3.3055119168,23,5,0,9854.2969019517,32.8084,1.3645334,1.8532152824,0,0,-8.94776,90.6, -0.5, -0.4,0,0,1024,1024,1622,1024,0,0,91,0,0,0,0,98,,,,,,,0,32,9854.2969019517,32.8084,6,P-GPS,
6900,2023-10-08 20:10:26,38.4982377626239,-112.064413236166,34.120736,,,9855.6092379517,29.855644,0,1.5928970326,3.3216536496,23,5,0,9855.6092379517,34.120736,1.3645334,1.8532152824,0,0,-9.171454,90.5, -0.5, -0.4,0,0,1024,1024,1617,1024,0,0,90,0,0,0,0,98,,,,,,,0,32,9855.6092379517,34.120736,6,P-GPS,
7000,2023-10-08 20:10:26,38.4982379867073,-112.064413082408,35.433072,,,9856.9215739517,29.855644,0,1.53340228004,3.4144686132,23,5,0,9856.9215739517,35.433072,1.3645334,1.8532152824,0,0,-9.171454,90.5, -0.7, -0.6,0,0,1024,1024,1612,1033,0,0,89,1,0,0,0,98,,,,,,,0,32,9856.9215739517,35.433072,6,P-GPS,
7100,2023-10-08 20:10:27,38.4982379578085,-112.064413129202,36.745408,,,9858.2339099517,29.855644,0,1.5484580548,3.4314961728,23,5,0,9858.2339099517,36.745408,1.3645334,1.8532152824,0,0,-9.395148,90.5, -0.9, -0.9,0,0,1024,1024,1611,1115,0,0,89,14,0,0,0,98,,,,,,,0,32,9858.2339099517,36.745408,6,P-GPS,
7200,2023-10-08 20:10:27,38.4982379532984,-112.064413230161,38.057744,,,9859.5462459517,29.855644,0,1.577099788,3.4603675648,23,5,0,9859.5462459517,38.057744,1.3645334,1.8532152824,0,0,-9.395148,90.5, -1.3, -1.3,0,0,1024,1024,1612,1136,0,0,89,17,0,0,0,98,,,,,,,0,32,9859.5462459517,38.057744,6,P-GPS,
7300,2023-10-08 20:10:27,38.4982379237594,-112.064413293963,39.698164,,,9861.1866659517,29.855644,0,1.59699152092,3.4815289828,23,5,0,9861.1866659517,39.698164,1.3645334,1.8532152824,0,0,-9.395148,90.4, -2, -1.4,0,0,1024,1024,1612,1143,0,0,89,18,0,0,0,98,,,,,,,0,32,9861.1866659517,39.698164,6,P-GPS,
7400,2023-10-08 20:10:27,38.4982376148734,-112.064413435353,41.0105,,,9862.4990019517,29.855644,0,1.66087275656,3.6012468344,23,5,0,9862.4990019517,41.0105,1.3645334,1.8532152824,0,0,-9.395148,90.5, -2.5, -1.4,0,0,1024,1024,1616,1157,0,0,90,20,0,0,0,98,,,,,,,0,32,9862.4990019517,41.0105,6,P-GPS,
7500,2023-10-08 20:10:27,38.4982375572803,-112.064413466552,42.322836,,,9863.8113379517,29.855644,0,1.67479336068,3.6240486724,23,5,0,9863.8113379517,42.322836,1.3645334,1.8532152824,0,0,-9.395148,90.8, -2.5, -1.5,0,0,1024,1024,1617,1185,0,0,90,24,0,0,0,98,,,,,,,0,32,9863.8113379517,42.322836,6,P-GPS,
7600,2023-10-08 20:10:27,38.4982374836195,-112.064413449527,43.635172,,,9865.1236739517,29.855644,0,1.67724086732,3.6513780696,23,5,0,9865.1236739517,43.635172,1.3645334,1.8532152824,0,0,-9.395148,91.3, -2.3, -1.5,0,0,1024,1024,1611,1214,0,0,89,29,0,0,0,98,,,,,,,0,32,9865.1236739517,43.635172,6,P-GPS,
7700,2023-10-08 20:10:27,38.4982374169256,-112.064413443214,45.275592,,,9866.7640939517,29.855644,0,1.68232616932,3.6757547108,23,5,0,9866.7640939517,45.275592,1.3645334,1.8532152824,0,0,-9.395148,92.1, -2, -1.6,0,0,1024,1024,1581,1267,0,0,84,37,0,0,0,97,,,,,,,0,32,9866.7640939517,45.275592,6,P-GPS,
7800,2023-10-08 20:10:27,38.4982373792033,-112.064413393729,46.587928,,,9868.0764299517,29.855644,0,1.67282485668,3.6955053676,23,5,0,9868.0764299517,46.587928,1.3645334,1.8532152824,0,0,-9.395148,93.5, -1.9, -2,0,0,1024,1024,1588,1266,0,0,85,37,0,0,0,97,,,,,,,0,32,9868.0764299517,46.587928,6,P-GPS,
7900,2023-10-08 20:10:27,38.4982373150479,-112.06441336187,47.900264,,,9869.3887659517,29.855644,0,1.67127301936,3.7206037936,23,5,0,9869.3887659517,47.900264,1.3645334,1.8532152824,0,0,-9.171454,95.3, -2, -2.6,0,0,1024,1024,1589,1266,0,0,86,37,0,0,0,97,,,,,,,0,32,9869.3887659517,47.900264,6,P-GPS,
8000,2023-10-08 20:10:28,38.4982372356309,-112.064413164423,49.2126,,,9870.7011019517,29.855644,0,1.62732288672,3.7839896224,23,5,0,9870.7011019517,49.2126,1.3645334,1.8532152824,0,0,-8.94776,97.4, -2, -3,0,0,1024,1024,1590,1266,0,0,86,37,0,0,0,97,,,,,,,0,32,9870.7011019517,49.2126,6,P-GPS,
8100,2023-10-08 20:10:28,38.4982372055633,-112.064413074223,50.524936,,,9872.0134379517,29.855644,0,1.6068898152,3.812007996,23,5,0,9872.0134379517,50.524936,1.3645334,1.8532152824,0,0,-8.94776,99.5, -1.7, -2.7,0,0,1024,1024,1603,1268,0,0,88,37,0,0,0,97,,,,,,,0,32,9872.0134379517,50.524936,6,P-GPS,
8200,2023-10-08 20:10:28,38.4982372618509,-112.064413168552,51.837272,,,9873.3257739517,29.855644,0,1.62523627248,3.8458662648,23,5,0,9873.3257739517,51.837272,1.3645334,1.8532152824,0,0,-8.724066,101.5, -1.3, -1.8,0,0,1024,1024,1606,1271,0,0,88,37,0,0,0,97,,,,,,,0,32,9873.3257739517,51.837272,6,P-GPS,
8300,2023-10-08 20:10:28,38.4982372605457,-112.064413057308,53.149608,,,9874.6381099517,29.855644,0,1.59546593032,3.877624796,23,5,0,9874.6381099517,53.149608,1.3645334,1.8532152824,0,0,-8.94776,103.4, -0.7, -1.1,0,0,1024,1024,1608,1273,0,0,88,38,0,0,0,97,,,,,,,0,32,9874.6381099517,53.149608,6,P-GPS,
8400,2023-10-08 20:10:28,38.4982372896219,-112.064412854965,54.461944,,,9875.9504459517,29.855644,0,1.53753613844,3.9363846404,23,5,0,9875.9504459517,54.461944,1.3645334,1.8532152824,0,0,-8.94776,105.3, -0.6, -0.9,0,0,1051,1024,1616,1270,4,0,90,37,0,0,0,97,,,,,,,0,32,9875.9504459517,54.461944,6,P-GPS,
8500,2023-10-08 20:10:28,38.498237274174,-112.064412736749,55.77428,,,9877.2627819517,29.855644,0,1.507874064,3.9706038016,23,5,0,9877.2627819517,55.77428,1.3645334,1.8532152824,0,0,-8.94776,107.4, -0.6, -1.4,0,0,1092,1024,1622,1264,10,0,91,36,0,0,0,97,,,,,,,0,32,9877.2627819517,55.77428,6,P-GPS,
8600,2023-10-08 20:10:28,38.4982371081539,-112.064412825611,57.086616,,,9878.5751179517,29.855644,0,1.55380910484,4.03625341,23,5,0,9878.5751179517,57.086616,1.3645334,1.8532152824,0,0,-9.171454,109.5, -0.6, -1.9,0,0,1130,1024,1628,1264,16,0,92,36,0,0,0,97,,,,,,,0,32,9878.5751179517,57.086616,6,P-GPS,
8700,2023-10-08 20:10:28,38.4982370916754,-112.064412703397,58.398952,,,9879.8874539517,29.855644,0,1.52399611176,4.071686482,23,5,0,9879.8874539517,58.398952,1.3645334,1.8532152824,0,0,-9.171454,111.6, -0.8, -2,0,0,1198,1024,1630,1255,26,0,92,35,0,0,0,97,,,,,,,0,32,9879.8874539517,58.398952,6,P-GPS,
8800,2023-10-08 20:10:28,38.4982370749758,-112.064412572964,60.039372,,,9881.5278739517,29.855644,0,1.49231303988,4.109416142,23,5,0,9881.5278739517,60.039372,1.3645334,1.8532152824,0,0,-9.395148,113.6, -1.4, -1.6,0,0,1227,1024,1632,1237,31,0,92,32,0,0,0,97,,,,,,,0,32,9881.5278739517,60.039372,6,P-GPS,
8900,2023-10-08 20:10:28,38.4982370599953,-112.064412400018,61.351708,,,9882.8402099517,29.855644,0.223694,1.44964571568,4.159120868,23,5,0,9882.8402099517,61.351708,1.3645334,1.8532152824,0,0.223694,-9.395148,115.7, -2.4, -1,0,0,1238,1024,1631,1234,32,0,92,32,0,0,0,97,,,,,,,0,32,9882.8402099517,61.351708,6,P-GPS,
9000,2023-10-08 20:10:29,38.4982370238433,-112.064412202138,62.664044,,,9884.1525459517,29.855644,0.223694,1.40447511056,4.2171261192,23,5,0,9884.1525459517,62.664044,1.3645334,1.8532152824,0,0.223694,-9.618842,117.6, -3.8, -0.7,0,0,1250,1024,1630,1227,34,0,92,31,0,0,0,97,,,,,,,0,32,9884.1525459517,62.664044,6,P-GPS,
9100,2023-10-08 20:10:29,38.4982369467286,-112.064411925564,63.97638,,,9885.4648819517,29.855644,0.447388,1.34767392764,4.3009515812,23,5,0,9885.4648819517,63.97638,1.3645334,1.8532152824,0,0.447388,-9.618842,119.4, -5.3, -0.8,0,0,1256,1024,1629,1224,35,0,92,30,0,0,0,97,,,,,,,0,32,9885.4648819517,63.97638,6,P-GPS,
9200,2023-10-08 20:10:29,38.4982367596911,-112.064411518371,65.6168,,,9887.1053019517,29.855644,0.4921268,1.2843996474,4.4357941052,23,5,0,9887.1053019517,65.6168,1.3645334,1.8532152824,-0.223694,0.447388,-9.618842,121.2, -6.4, -0.9,0,0,1267,1024,1630,1213,37,0,92,29,0,0,0,97,,,,,,,0,32,9887.1053019517,65.6168,6,P-GPS,
9300,2023-10-08 20:10:29,38.4982365647423,-112.064411041712,66.929136,,,9888.4176379517,29.855644,1.006623,1.21940292616,4.5893374172,23,5,0,9888.4176379517,66.929136,1.3645334,1.8532152824,-0.447388,0.894776,-9.842536,123, -7.3, -1.1,0,0,1301,1024,1626,1201,42,0,91,27,0,0,0,97,,,,,,,0,32,9888.4176379517,66.929136,6,P-GPS,
9400,2023-10-08 20:10:29,38.4982364334288,-112.064410320835,68.569556,,,9890.0580579517,29.855644,1.2974252,1.1074639462,4.80068913,23,5,0,9890.0580579517,68.569556,1.3645334,1.8532152824,-0.671082,1.11847,-9.842536,124.6, -7.9, -0.9,0,0,1308,1024,1628,1188,43,0,92,25,0,0,0,97,,,,,,,0,32,9890.0580579517,68.569556,6,P-GPS,
9500,2023-10-08 20:10:29,38.4982361133882,-112.064409586069,69.881892,,,9891.3703939517,29.855644,1.4987498,1.0855807434,5.0408138096,23,5,0,9891.3703939517,69.881892,1.4987498,1.8532152824,-0.671082,1.342164,-9.842536,126.3, -8.4, -0.5,0,0,1320,1024,1629,1188,45,0,92,25,0,0,0,97,,,,,,,0,32,9891.3703939517,69.881892,6,P-GPS,
9600,2023-10-08 20:10:29,38.4982357411207,-112.06440876336,71.522312,,,9893.0108139517,29.855644,1.8119214,1.12812995736,5.312172086,23,5,0,9893.0108139517,71.522312,1.8119214,1.8532152824,-0.894776,1.565858,-9.842536,127.6, -9, 0,0,0,1327,1024,1624,1183,46,0,91,24,0,0,0,97,,,,,,,0,32,9893.0108139517,71.522312,6,P-GPS,
9700,2023-10-08 20:10:29,38.4982352446689,-112.064407770528,72.834648,,,9894.3231499517,29.855644,2.1027236,1.27517064448,5.6485894196,24,5,0,9894.3231499517,72.834648,2.1027236,1.8532152824,-1.11847,1.789552,-9.842536,129, -9.5, 0.3,0,0,1340,1024,1616,1158,48,0,90,20,0,0,0,97,,,,,,,0,32,9894.3231499517,72.834648,6,P-GPS,
9800,2023-10-08 20:10:29,38.4982347240034,-112.064406558749,74.146984,,,9895.6354859517,29.855644,2.5501116,1.50731304036,6.04330728,24,5,0,9895.6354859517,74.146984,2.5501116,1.8532152824,-1.565858,2.013246,-9.842536,130.2, -9.9, 0.5,0,0,1347,1024,1616,1145,49,0,90,18,0,0,0,97,,,,,,,0,32,9895.6354859517,74.146984,6,P-GPS,
9900,2023-10-08 20:10:29,38.4982340058083,-112.064405308718,75.787404,,,9897.2759059517,29.855644,2.8632832,1.86780845872,6.4860894464,24,5,0,9897.2759059517,75.787404,2.8632832,1.86780845872,-1.789552,2.23694,-9.842536,131.3, -10.2, 0.5,0,0,1355,1024,1617,1121,50,0,90,15,0,0,0,97,,,,,,,0,32,9897.2759059517,75.787404,6,P-GPS,
10000,2023-10-08 20:10:30,38.4982330370305,-112.064403986461,77.09974,,,9898.5882419517,29.855644,3.1764548,2.34821529824,7.003281064,24,5,0,9898.5882419517,77.09974,3.1764548,2.34821529824,-2.013246,2.460634,-9.618842,132.3, -10.4, 0.5,0,0,1360,1024,1617,1107,51,0,90,13,0,0,0,97,,,,,,,0,32,9898.5882419517,77.09974,6,P-GPS,
10100,2023-10-08 20:10:30,38.4982320636963,-112.064402493387,78.74016,,,9900.2286619517,29.855644,3.802798,2.86844497368,7.5581367248,24,5,0,9900.2286619517,78.74016,3.802798,2.86844497368,-2.460634,2.908022,-9.618842,133.1, -10.4, 0.4,0,0,1367,1024,1611,1097,52,0,89,11,0,0,0,97,,,,,,,0,32,9900.2286619517,78.74016,6,P-GPS,
10200,2023-10-08 20:10:30,38.4982310449565,-112.064401034533,80.052496,,,9901.5409979517,29.855644,4.1159696,3.4077100828,8.1164372676,24,5,0,9901.5409979517,80.052496,4.1159696,3.4077100828,-2.684328,3.131716,-9.618842,133.8, -10.5, 0.4,0,0,1374,1024,1611,1087,53,0,89,10,0,0,0,97,,,,,,,0,32,9901.5409979517,80.052496,6,P-GPS,
10300,2023-10-08 20:10:30,38.498229832834,-112.064399306303,81.364832,,,9902.8533339517,29.855644,4.585727,4.0547573476,8.7790685224,24,5,0,9902.8533339517,81.364832,4.585727,4.0547573476,-3.131716,3.35541,-9.618842,134.3, -10.8, 0.1,0,0,1397,1024,1607,1072,57,0,88,7,0,0,0,97,,,,,,,0,32,9902.8533339517,81.364832,6,P-GPS,
10400,2023-10-08 20:10:30,38.4982284381055,-112.064397536858,83.005252,,,9904.4937539517,29.855644,4.585727,4.7658138008,9.4961617212,24,5,0,9904.4937539517,83.005252,4.585727,4.7658138008,-3.35541,3.579104,-9.395148,134.7, -11.2, -0.2,0,0,1405,1024,1597,1062,58,0,87,6,0,0,0,97,,,,,,,0,32,9904.4937539517,83.005252,6,P-GPS,
10500,2023-10-08 20:10:30,38.4982269753171,-112.064395542203,84.317588,,,9905.8060899517,29.855644,5.2120702,5.5382547704,10.2767063656,24,5,0,9905.8060899517,84.317588,5.2120702,5.5382547704,-3.579104,3.802798,-9.395148,135, -11.7, -0.5,0,0,1418,1024,1590,1058,60,0,86,5,0,0,0,97,,,,,,,0,32,9905.8060899517,84.317588,6,P-GPS,
10600,2023-10-08 20:10:30,38.4982253549004,-112.064393534829,85.629924,,,9907.1184259517,29.855644,5.704197,6.3590553216,11.1001315888,24,5,0,9907.1184259517,85.629924,5.704197,6.3590553216,-4.026492,4.026492,-9.395148,135.3, -12, -0.9,0,0,1438,1024,1577,1058,63,0,84,5,0,0,0,97,,,,,,,0,32,9907.1184259517,85.629924,6,P-GPS,
10700,2023-10-08 20:10:30,38.4982236486804,-112.064391245796,86.94226,,,9908.4307619517,29.855644,5.704197,7.2564962952,12.0027562896,24,5,0,9908.4307619517,86.94226,5.704197,7.2564962952,-4.250186,4.47388,-9.171454,135.6, -12.3, -1.1,0,0,1438,1024,1577,1058,63,0,84,5,0,0,0,97,,,,,,,0,32,9908.4307619517,86.94226,6,P-GPS,
10800,2023-10-08 20:10:30,38.4982218756625,-112.064388759769,88.58268,,,9910.0711819517,29.855644,6.487126,8.2105317588,12.9631565828,24,5,0,9910.0711819517,88.58268,6.487126,8.2105317588,-4.47388,4.697574,-9.171454,135.8, -12.8, -1.2,0,0,1439,1024,1568,1059,63,0,82,5,0,0,0,97,,,,,,,0,32,9910.0711819517,88.58268,6,P-GPS,
10900,2023-10-08 20:10:31,38.4982199485748,-112.064386142895,89.895016,,,9911.3835179517,29.855644,7.1134692,9.2326774608,13.989173676,24,5,0,9911.3835179517,89.895016,7.1134692,9.2326774608,-4.921268,5.144962,-8.94776,136.1, -13.3, -0.9,0,0,1438,1024,1563,1061,63,0,82,6,0,0,0,97,,,,,,,0,32,9911.3835179517,89.895016,6,P-GPS,
11000,2023-10-08 20:10:31,38.4982179646019,-112.06438359314,91.207352,,,9912.6958539517,29.855644,7.1134692,10.2579727692,15.0158469372,24,5,0,9912.6958539517,91.207352,7.1134692,10.2579727692,-5.144962,5.368656,-8.94776,136.3, -13.6, -0.2,0,0,1442,1024,1562,1062,63,0,82,6,0,0,0,97,,,,,,,0,32,9912.6958539517,91.207352,6,P-GPS,
11100,2023-10-08 20:10:31,38.4982157922067,-112.064380682164,92.519688,,,9914.0081899517,29.855644,7.9187676,11.4039701812,16.164370596,24,5,0,9914.0081899517,92.519688,7.9187676,11.4039701812,-5.59235,5.59235,-8.724066,136.6, -13.6, 0.2,0,0,1443,1024,1559,1060,63,0,81,5,0,0,0,97,,,,,,,0,32,9914.0081899517,92.519688,6,P-GPS,
11200,2023-10-08 20:10:31,38.4982133497589,-112.064377660395,93.832024,,,9915.3205259517,29.855644,8.388525,12.6440948928,17.4047577748,24,5,0,9915.3205259517,93.832024,8.388525,12.6440948928,-5.816044,6.039738,-8.500372,136.9, -13.3, 0.7,0,0,1450,1024,1550,1051,65,0,80,4,0,0,0,97,,,,,,,0,32,9915.3205259517,93.832024,6,P-GPS,
11300,2023-10-08 20:10:31,38.498210893575,-112.064374479891,95.14436,,,9916.6328619517,29.855644,8.8582824,13.9188652748,18.680610834,24,5,0,9916.6328619517,95.14436,8.8582824,13.9188652748,-6.263432,6.263432,-8.500372,137.1, -13.4, 1.1,0,0,1449,1024,1542,1051,64,0,78,4,0,0,0,97,,,,,,,0,32,9916.6328619517,95.14436,6,P-GPS,
11400,2023-10-08 20:10:31,38.4982082467573,-112.064371268193,96.128612,,,9917.6171139517,29.855644,9.3280398,15.2505910392,20.0123694068,24,5,0,9917.6171139517,96.128612,9.3280398,15.2505910392,-6.71082,6.487126,-8.276678,137.1, -13.8, 1.1,0,0,1449,1024,1539,1054,64,0,78,5,0,0,0,97,,,,,,,0,32,9917.6171139517,96.128612,6,P-GPS,
11500,2023-10-08 20:10:31,38.4982055055603,-112.064367849417,97.440948,,,9918.9294499517,29.855644,9.6412114,16.6479007952,21.4099744384,24,5,0,9918.9294499517,97.440948,9.6412114,16.6479007952,-6.934514,6.71082,-8.052984,137.1, -14, 0.6,0,0,1450,1024,1537,1053,65,0,78,4,0,0,0,97,,,,,,,0,32,9918.9294499517,97.440948,6,P-GPS,
11600,2023-10-08 20:10:31,38.4982025737445,-112.064364371024,98.753284,,,9920.2417859517,29.855644,10.1333382,18.1075465112,22.8696529628,24,5,0,9920.2417859517,98.753284,10.1333382,18.1075465112,-7.381902,6.934514,-8.052984,137, -13.9, -0.1,0,0,1450,1024,1535,1054,65,0,77,5,0,0,0,97,,,,,,,0,32,9920.2417859517,98.753284,6,P-GPS,
11700,2023-10-08 20:10:31,38.4981995442055,-112.0643606667,99.737536,,,9921.2260379517,29.855644,10.4465098,19.6374022032,24.3995414632,24,5,0,9921.2260379517,99.737536,10.4465098,19.6374022032,-7.605596,7.158208,-7.82929,137.1, -13.6, -0.8,0,0,1451,1024,1525,1054,65,0,76,5,0,0,0,97,,,,,,,0,32,9921.2260379517,99.737536,6,P-GPS,
11800,2023-10-08 20:10:31,38.4981963092295,-112.064356923447,101.049872,,,9922.5383739517,29.855644,10.9162672,21.2294298132,25.9918643488,24,5,0,9922.5383739517,101.049872,10.9162672,21.2294298132,-7.82929,7.605596,-7.82929,137.1, -13.4, -1,0,0,1451,1024,1521,1061,65,0,75,6,0,0,0,97,,,,,,,0,32,9922.5383739517,101.049872,6,P-GPS,
11900,2023-10-08 20:10:31,38.4981930262728,-112.064352910432,102.034124,,,9923.5226259517,29.855644,11.3860246,22.8870086064,27.6494759504,24,5,0,9923.5226259517,102.034124,11.3860246,22.8870086064,-8.276678,7.82929,-7.605596,137.2, -13, -0.7,0,0,1451,1024,1519,1066,65,0,75,6,0,0,0,97,,,,,,,0,32,9923.5226259517,102.034124,6,P-GPS,
12000,2023-10-08 20:10:32,38.498189367366,-112.064348421982,103.34646,,,9924.8349619517,29.855644,11.6991962,24.7375007916,29.5000665608,24,5,0,9924.8349619517,103.34646,11.6991962,24.7375007916,-8.500372,8.052984,-7.605596,137.3, -12.7, 0,0,0,1452,1024,1502,1062,65,0,72,6,0,0,0,97,,,,,,,0,32,9924.8349619517,103.34646,6,P-GPS,
12100,2023-10-08 20:10:32,38.4981858263803,-112.064344106729,104.330712,,,9925.8192139517,29.855644,12.0347372,26.5227698776,31.2854012636,24,5,0,9925.8192139517,104.330712,12.0347372,26.5227698776,-8.724066,8.276678,-7.381902,137.4, -12.4, 0.6,0,0,1453,1024,1493,1060,65,0,71,5,0,0,0,97,,,,,,,0,32,9925.8192139517,104.330712,6,P-GPS,
12200,2023-10-08 20:10:32,38.4981822580872,-112.064339830459,105.314964,,,9926.8034659517,29.855644,12.5044946,28.3076780712,33.070211032,24,5,0,9926.8034659517,105.314964,12.5044946,28.3076780712,-9.171454,8.500372,-7.381902,137.5, -12.2, 0.9,0,0,1452,1024,1491,1061,65,0,71,6,0,0,0,97,,,,,,,0,32,9926.8034659517,105.314964,6,P-GPS,
12300,2023-10-08 20:10:32,38.4981784880584,-112.064335317162,106.6273,,,9928.1158019517,29.855644,12.8176662,30.1925534596,34.955053612,24,5,0,9928.1158019517,106.6273,12.8176662,30.1925534596,-9.395148,8.724066,-7.158208,137.6, -12.3, 0.6,0,0,1452,1024,1489,1061,65,0,70,6,0,0,0,97,,,,,,,0,32,9928.1158019517,106.6273,6,P-GPS,
12400,2023-10-08 20:10:32,38.4981744503201,-112.064330843128,107.611552,,,9929.1000539517,29.855644,13.1308378,32.1409787188,36.905184908,24,5,0,9929.1000539517,107.611552,13.1308378,32.1409787188,-9.618842,8.94776,-6.934514,137.8, -12.3, 0.3,0,0,1453,1024,1489,1061,65,0,70,6,0,0,0,97,,,,,,,0,32,9929.1000539517,107.611552,6,P-GPS,
12500,2023-10-08 20:10:32,38.4981704501649,-112.064326134057,108.595804,,,9930.0843059517,29.855644,13.4440094,34.125329176,38.88943694,24,5,0,9930.0843059517,108.595804,13.4440094,34.125329176,-9.842536,9.171454,-6.934514,137.9, -12.2, 0.2,0,0,1449,1024,1529,1047,64,0,77,3,0,0,0,97,,,,,,,0,32,9930.0843059517,108.595804,6,P-GPS,
12600,2023-10-08 20:10:32,38.4981667915792,-112.064321837054,109.580056,,,9931.0685579517,29.855644,13.7795504,35.93832136,40.702757208,24,5,0,9931.0685579517,109.580056,13.7795504,35.93832136,-10.06623,9.395148,-6.71082,138, -12.1, 0.2,0,0,1454,1024,1539,1046,65,0,78,3,0,0,0,97,,,,,,,0,32,9931.0685579517,109.580056,6,P-GPS,
12700,2023-10-08 20:10:32,38.4981626107446,-112.064316959475,110.564308,,,9932.0528099517,29.855644,14.092722,38.003938224,42.768374072,24,5,0,9932.0528099517,110.564308,14.092722,38.003938224,-10.513618,9.395148,-6.71082,138, -11.8, 0,0,0,1462,1024,1515,1033,66,0,74,1,0,0,0,97,,,,,,,0,32,9932.0528099517,110.564308,6,P-GPS,
12800,2023-10-08 20:10:32,38.4981577541565,-112.064311353361,111.54856,,,9933.0370619517,29.855644,14.4058936,40.391405492,45.156169424,24,5,0,9933.0370619517,111.54856,14.4058936,40.391405492,-10.737312,9.618842,-6.487126,138.2, -12.2, -0.5,0,0,1463,1024,1507,1031,67,0,73,1,0,0,0,97,,,,,,,0,32,9933.0370619517,111.54856,6,P-GPS,
12900,2023-10-08 20:10:32,38.4981533544601,-112.064306240236,112.532812,,,9934.0213139517,29.855644,14.7414346,42.561024984,47.326117,24,5,0,9934.0213139517,112.532812,14.7414346,42.561024984,-10.961006,9.842536,-6.039738,138.4, -13.5, -0.9,0,0,1470,1024,1504,1032,68,0,73,1,0,0,0,97,,,,,,,0,32,9934.0213139517,112.532812,6,P-GPS,
13000,2023-10-08 20:10:33,38.4981494271589,-112.064301895841,113.18898,,,9934.6774819517,29.855644,14.875651,44.455053916,49.221130184,24,5,0,9934.6774819517,113.18898,14.875651,44.455053916,-10.961006,10.06623,-5.368656,138.6, -15, -1.1,0,0,1462,1024,1506,1024,66,0,73,0,0,0,0,97,,,,,,,0,32,9934.6774819517,113.18898,6,P-GPS,
13100,2023-10-08 20:10:33,38.4981449273439,-112.064296668423,113.845148,,,9935.3336499517,29.855644,15.1888226,46.673886008,51.44029036,24,5,0,9935.3336499517,113.845148,15.1888226,46.673886008,-11.1847,10.289924,-4.47388,138.7, -15.9, -0.8,0,0,1464,1024,1511,1024,67,0,74,0,0,0,0,97,,,,,,,0,32,9935.3336499517,113.845148,6,P-GPS,
13200,2023-10-08 20:10:33,38.4981403529623,-112.064291298462,114.501316,,,9935.9898179517,29.855644,15.3677778,48.94029028,53.706694632,24,5,0,9935.9898179517,114.501316,15.3677778,48.94029028,-11.408394,10.289924,-3.802798,138.8, -16.2, -0.7,0,0,1463,1024,1520,1024,67,0,75,0,0,0,0,97,,,,,,,0,32,9935.9898179517,114.501316,6,P-GPS,
13300,2023-10-08 20:10:33,38.4981356967184,-112.064285886179,115.157484,,,9936.6459859517,29.855644,15.6809494,51.23687828,56.003282632,24,5,0,9936.6459859517,115.157484,15.6809494,51.23687828,-11.632088,10.513618,-2.908022,138.9, -16, -0.7,0,0,1463,1024,1523,1024,67,0,76,0,0,0,0,97,,,,,,,0,32,9936.6459859517,115.157484,6,P-GPS,
13400,2023-10-08 20:10:33,38.498131015188,-112.064280476106,115.485568,,,9936.9740699517,29.855644,15.994121,53.539699876,58.306104228,24,5,0,9936.9740699517,115.485568,15.994121,53.539699876,-11.855782,10.737312,-2.23694,138.9, -15.4, -0.8,0,0,1470,1024,1519,1024,68,0,75,0,0,0,0,97,,,,,,,0,32,9936.9740699517,115.485568,6,P-GPS,
13500,2023-10-08 20:10:33,38.4981261929845,-112.064274894397,115.813652,,,9937.3021539517,29.855644,15.994121,55.913387616,60.680120052,24,5,0,9937.3021539517,115.813652,15.994121,55.913387616,-12.079476,10.961006,-1.565858,138.9, -14.3, -0.5,0,0,1466,1024,1524,1024,67,0,76,0,0,0,0,97,,,,,,,0,32,9937.3021539517,115.813652,6,P-GPS,
13600,2023-10-08 20:10:33,38.4981211353328,-112.064269222673,115.813652,,,9937.3021539517,29.855644,16.4862478,58.36778402,63.135172624,24,5,0,9937.3021539517,115.813652,16.4862478,58.36778402,-12.30317,10.961006,-1.11847,138.7, -12.9, -0.4,0,0,1467,1024,1530,1024,67,0,77,0,0,0,0,97,,,,,,,0,32,9937.3021539517,115.813652,6,P-GPS,
13700,2023-10-08 20:10:33,38.4981161117275,-112.064263472806,115.813652,,,9937.3021539517,29.855644,16.4862478,60.82841402,65.595802624,24,5,0,9937.3021539517,115.813652,16.4862478,60.82841402,-12.526864,11.1847,-0.894776,138.6, -11.4, -0.5,0,0,1473,1024,1526,1024,68,0,76,0,0,0,0,97,,,,,,,0,32,9937.3021539517,115.813652,6,P-GPS,
13800,2023-10-08 20:10:33,38.4981109274546,-112.064257555941,116.141736,,,9937.6302379517,29.855644,17.112591,63.364175256,68.132220028,24,5,0,9937.6302379517,116.141736,17.112591,63.364175256,-12.750558,11.408394,-0.671082,138.3, -10.4, -0.9,0,0,1482,1024,1510,1024,69,0,74,0,0,0,0,97,,,,,,,0,32,9937.6302379517,116.141736,6,P-GPS,
13900,2023-10-08 20:10:34,38.4981057497838,-112.064251660094,116.141736,,,9937.6302379517,29.855644,17.2691768,65.894359064,70.662403836,24,5,0,9937.6302379517,116.141736,17.2691768,65.894359064,-12.974252,11.408394,-0.671082,138.1, -10, -1.1,0,0,1455,1024,1523,1024,65,0,76,0,0,0,0,97,,,,,,,0,32,9937.6302379517,116.141736,6,P-GPS,
14000,2023-10-08 20:10:34,38.4981001165698,-112.064245375873,116.141736,,,9937.6302379517,29.855644,17.5823484,68.621721356,73.39075038,24,5,0,9937.6302379517,116.141736,17.5823484,68.621721356,-13.197946,11.632088,-0.894776,138, -10.1, -1.1,0,0,1426,1024,1529,1024,61,0,77,0,0,0,0,97,,,,,,,0,32,9937.6302379517,116.141736,6,P-GPS,
14100,2023-10-08 20:10:34,38.4980947879504,-112.06423931107,116.141736,,,9937.6302379517,29.855644,17.5823484,71.225067896,75.994425004,24,5,0,9937.6302379517,116.141736,17.5823484,71.225067896,-13.197946,11.855782,-0.894776,137.9, -10.2, -1.1,0,0,1442,1024,1523,1024,63,0,76,0,0,0,0,97,,,,,,,0,32,9937.6302379517,116.141736,6,P-GPS,
14200,2023-10-08 20:10:34,38.4980898986302,-112.064233896063,116.46982,,,9937.9583219517,29.855644,17.9178894,73.584976108,78.355317468,24,5,0,9937.9583219517,116.46982,17.9178894,73.584976108,-13.42164,11.855782,-1.11847,137.8, -9.9, -0.9,0,0,1460,1024,1517,1024,66,0,75,0,0,0,0,97,,,,,,,0,32,9937.9583219517,116.46982,6,P-GPS,
14300,2023-10-08 20:10:34,38.4980844917707,-112.064227739352,116.46982,,,9937.9583219517,29.855644,18.0521058,76.22703656,80.99737792,24,5,0,9937.9583219517,116.46982,18.0521058,76.22703656,-13.42164,12.079476,-1.342164,137.7, -9.5, -0.7,0,0,1468,1024,1502,1024,67,0,72,0,0,0,0,97,,,,,,,0,32,9937.9583219517,116.46982,6,P-GPS,
14400,2023-10-08 20:10:34,38.4980790040678,-112.064221608649,116.797904,,,9938.2864059517,29.855644,18.231061,78.88615738,83.657154908,24,5,0,9938.2864059517,116.797904,18.231061,78.88615738,-13.645334,12.079476,-1.789552,137.6, -9.4, -0.6,0,0,1462,1024,1498,1024,66,0,72,0,0,0,0,97,,,,,,,0,32,9938.2864059517,116.797904,6,P-GPS,
14500,2023-10-08 20:10:34,38.498073467573,-112.06421533212,117.125988,,,9938.6144899517,29.855644,18.5442326,81.5862887,86.357614312,24,5,0,9938.6144899517,117.125988,18.5442326,81.5862887,-13.869028,12.30317,-2.013246,137.7, -9.8, -0.7,0,0,1454,1024,1507,1024,65,0,73,0,0,0,0,97,,,,,,,0,32,9938.6144899517,117.125988,6,P-GPS,
14600,2023-10-08 20:10:34,38.4980677495082,-112.064208875343,117.454072,,,9938.9425739517,29.855644,18.8574042,84.37008144,89.141735136,24,5,0,9938.9425739517,117.454072,18.8574042,84.37008144,-14.092722,12.526864,-2.23694,137.7, -10.1, -0.7,0,0,1470,1024,1500,1024,68,0,72,0,0,0,0,97,,,,,,,0,32,9938.9425739517,117.454072,6,P-GPS,
14700,2023-10-08 20:10:34,38.498062083301,-112.064202465373,117.782156,,,9939.2706579517,29.855644,18.8574042,87.1309083,91.90289008,24,5,0,9939.2706579517,117.782156,18.8574042,87.1309083,-14.092722,12.526864,-2.460634,137.7, -10.3, -1,0,0,1466,1024,1467,1024,67,0,67,0,0,0,0,97,,,,,,,0,32,9939.2706579517,117.782156,6,P-GPS,
14800,2023-10-08 20:10:34,38.4980564744146,-112.064196031288,118.11024,,,9939.5987419517,29.855644,19.1705758,89.880908388,94.652890168,24,5,0,9939.5987419517,118.11024,19.1705758,89.880908388,-14.316416,12.750558,-2.908022,137.6, -9.7, -1,0,0,1448,1024,1481,1024,64,0,69,0,0,0,0,97,,,,,,,0,32,9939.5987419517,118.11024,6,P-GPS,
14900,2023-10-08 20:10:35,38.4980507024543,-112.064189476455,118.766408,,,9940.2549099517,29.855644,19.349531,92.698165696,97.47047556,24,5,0,9940.2549099517,118.766408,19.349531,92.698165696,-14.54011,12.750558,-3.579104,137.5, -9, -0.7,0,0,1446,1024,1477,1024,64,0,69,0,0,0,0,97,,,,,,,0,32,9940.2549099517,118.766408,6,P-GPS,
15000,2023-10-08 20:10:35,38.4980448730192,-112.064182853413,119.422576,,,9940.9110779517,29.855644,19.349531,95.544294396,100.316276176,24,5,0,9940.9110779517,119.422576,19.349531,95.544294396,-14.54011,12.974252,-4.026492,137.5, -8.5, -0.5,0,0,1462,1024,1472,1024,66,0,68,0,0,0,0,97,,,,,,,0,32,9940.9110779517,119.422576,6,P-GPS,
15100,2023-10-08 20:10:35,38.4980390139732,-112.064176194309,120.078744,,,9941.5672459517,29.855644,19.6627026,98.405186876,103.17749674,24,5,0,9941.5672459517,120.078744,19.6627026,98.405186876,-14.763804,12.974252,-4.697574,137.6, -8.2, -0.6,0,0,1463,1024,1450,1024,67,0,65,0,0,0,0,97,,,,,,,0,32,9941.5672459517,120.078744,6,P-GPS,
15200,2023-10-08 20:10:35,38.4980330339662,-112.064169408306,120.734912,,,9942.2234139517,29.855644,19.796919,101.322837888,106.095475836,24,5,0,9942.2234139517,120.734912,19.796919,101.322837888,-14.763804,13.197946,-5.144962,137.6, -8.9, -0.9,0,0,1465,1024,1430,1024,67,0,62,0,0,0,0,97,,,,,,,0,32,9942.2234139517,120.734912,6,P-GPS,
15300,2023-10-08 20:10:35,38.498027103933,-112.06416265701,121.719164,,,9943.2076659517,29.855644,19.796919,104.220475776,108.993113724,24,5,0,9943.2076659517,121.719164,19.796919,104.220475776,-14.763804,13.197946,-5.59235,137.7, -10.2, -0.9,0,0,1470,1024,1442,1024,68,0,63,0,0,0,0,97,,,,,,,0,32,9943.2076659517,121.719164,6,P-GPS,
15400,2023-10-08 20:10:35,38.4980201471444,-112.064154979156,122.375332,,,9943.8638339517,29.855644,19.9758742,107.573494256,112.347116456,24,5,0,9943.8638339517,122.375332,19.9758742,107.573494256,-14.987498,13.197946,-5.59235,137.9, -12.1, -0.9,0,0,1469,1024,1463,1024,67,0,67,0,0,0,0,97,,,,,,,0,32,9943.8638339517,122.375332,6,P-GPS,
15500,2023-10-08 20:10:35,38.4980140495674,-112.064148047349,123.359584,,,9944.8480859517,29.855644,20.1100906,110.55118464,115.32480684,24,5,0,9944.8480859517,123.359584,20.1100906,110.55118464,-14.987498,13.42164,-5.144962,138.2, -13.8, -1.2,0,0,1468,1024,1462,1024,67,0,66,0,0,0,0,97,,,,,,,0,32,9944.8480859517,123.359584,6,P-GPS,
15600,2023-10-08 20:10:35,38.4980094478613,-112.064142877953,124.015752,,,9945.5042539517,29.855644,20.1100906,112.786420932,117.560371216,24,5,0,9945.5042539517,124.015752,20.1100906,112.786420932,-14.987498,13.42164,-4.697574,138.4, -15.2, -1.5,0,0,1476,1024,1463,1024,68,0,67,0,0,0,0,97,,,,,,,0,32,9945.5042539517,124.015752,6,P-GPS,
15700,2023-10-08 20:10:35,38.4980033565867,-112.064135951661,125.000004,,,9946.4885059517,29.855644,20.4456316,115.761486644,120.535436928,23,5,0,9946.4885059517,125.000004,20.4456316,115.761486644,-15.211192,13.645334,-4.250186,138.5, -16, -1.6,0,0,1471,1024,1467,1024,68,0,67,0,0,0,0,97,,,,,,,0,32,9946.4885059517,125.000004,6,P-GPS,
15800,2023-10-08 20:10:35,38.4979972075118,-112.064129125701,125.328088,,,9946.8165899517,29.855644,20.4456316,118.732943432,123.5072218,23,5,0,9946.8165899517,125.328088,20.4456316,118.732943432,-15.211192,13.645334,-3.35541,138.6, -16.1, -1.8,0,0,1477,1024,1463,1024,69,0,67,0,0,0,0,97,,,,,,,0,32,9946.8165899517,125.328088,6,P-GPS,
15900,2023-10-08 20:10:35,38.4979909924161,-112.064122049906,125.984256,,,9947.4727579517,29.855644,20.7588032,121.769688936,126.544295388,24,5,0,9947.4727579517,125.984256,20.7588032,121.769688936,-15.434886,13.869028,-2.908022,138.7, -15.3, -1.8,0,0,1476,1024,1450,1024,68,0,65,0,0,0,0,97,,,,,,,0,32,9947.4727579517,125.984256,6,P-GPS,
16000,2023-10-08 20:10:35,38.4979840309178,-112.064114034095,126.31234,,,9947.8008419517,29.855644,20.7588032,125.188980384,129.963586836,24,5,0,9947.8008419517,126.31234,20.7588032,125.188980384,-15.65858,14.092722,-2.23694,138.7, -13.6, -1.5,0,0,1473,1024,1460,1024,68,0,66,0,0,0,0,97,,,,,,,0,32,9947.8008419517,126.31234,6,P-GPS,
16100,2023-10-08 20:10:36,38.4979776533307,-112.064106740392,126.640424,,,9948.1289259517,29.855644,21.2285606,128.311683896,133.086290348,24,5,0,9948.1289259517,126.640424,21.2285606,128.311683896,-15.882274,14.092722,-1.789552,138.6, -11.8, -1.1,0,0,1470,1024,1464,1024,68,0,67,0,0,0,0,97,,,,,,,0,32,9948.1289259517,126.640424,6,P-GPS,
16200,2023-10-08 20:10:36,38.4979712458758,-112.064099400604,126.968508,,,9948.4570099517,29.855644,21.3851464,131.451447776,136.226054228,24,5,0,9948.4570099517,126.968508,21.3851464,131.451447776,-15.882274,14.316416,-1.565858,138.5, -10.4, -0.8,0,0,1473,1024,1466,1024,68,0,67,0,0,0,0,97,,,,,,,0,32,9948.4570099517,126.968508,6,P-GPS,
16300,2023-10-08 20:10:36,38.4979648023535,-112.064092040137,127.296592,,,9948.7850939517,29.855644,21.3851464,134.6046631,139.379269552,24,5,0,9948.7850939517,127.296592,21.3851464,134.6046631,-15.882274,14.316416,-1.11847,138.5, -10.1, -0.8,0,0,1474,1024,1447,1024,68,0,64,0,0,0,0,97,,,,,,,0,32,9948.7850939517,127.296592,6,P-GPS,
16400,2023-10-08 20:10:36,38.4979589051679,-112.064085388057,127.296592,,,9948.7850939517,29.855644,21.3851464,137.474741932,142.249348384,24,5,0,9948.7850939517,127.296592,21.3851464,137.474741932,-16.105968,14.316416,-0.894776,138.5, -10.6, -0.8,0,0,1481,1024,1438,1024,69,0,63,0,0,0,0,97,,,,,,,0,32,9948.7850939517,127.296592,6,P-GPS,
16500,2023-10-08 20:10:36,38.497952469575,-112.064078039735,127.624676,,,9949.1131779517,29.855644,21.5417322,140.62336408,145.398298616,24,5,0,9949.1131779517,127.624676,21.5417322,140.62336408,-16.105968,14.316416,-0.447388,138.4, -10.9, -1,0,0,1473,1024,1426,1024,68,0,61,0,0,0,0,97,,,,,,,0,32,9949.1131779517,127.624676,6,P-GPS,
16600,2023-10-08 20:10:36,38.4979459319624,-112.064070728372,127.624676,,,9949.1131779517,29.855644,21.8549038,143.792983604,148.568246224,24,5,0,9949.1131779517,127.624676,21.8549038,143.792983604,-16.329662,14.54011,-0.447388,138.3, -10.6, -1.1,0,0,1465,1024,1424,1024,67,0,61,0,0,0,0,97,,,,,,,0,32,9949.1131779517,127.624676,6,P-GPS,
16700,2023-10-08 20:10:36,38.497939422231,-112.064063296305,127.624676,,,9949.1131779517,29.855644,21.8549038,146.978023076,151.753285696,24,5,0,9949.1131779517,127.624676,21.8549038,146.978023076,-16.329662,14.54011,-0.223694,138.2, -10, -1,0,0,1467,1024,1433,1024,67,0,62,0,0,0,0,97,,,,,,,0,32,9949.1131779517,127.624676,6,P-GPS,
16800,2023-10-08 20:10:36,38.4979327343206,-112.064055490831,127.624676,,,9949.1131779517,29.855644,22.0114896,150.282813208,155.058075828,24,5,0,9949.1131779517,127.624676,22.0114896,150.282813208,-16.329662,14.763804,-0.223694,138.1, -9.3, -0.8,0,0,1461,1024,1436,1024,66,0,62,0,0,0,0,97,,,,,,,0,32,9949.1131779517,127.624676,6,P-GPS,
16900,2023-10-08 20:10:36,38.4979261556742,-112.064047975609,127.624676,,,9949.1131779517,29.855644,22.0114896,153.5023015,158.27756412,24,5,0,9949.1131779517,127.624676,22.0114896,153.5023015,-16.553356,14.763804,-0.447388,138.1, -8.9, -0.7,0,0,1458,1024,1441,1024,66,0,63,0,0,0,0,97,,,,,,,0,32,9949.1131779517,127.624676,6,P-GPS,
17000,2023-10-08 20:10:37,38.4979194498158,-112.064040375526,127.95276,,,9949.4412619517,29.855644,22.1904448,156.772642812,161.547905432,24,5,0,9949.4412619517,127.95276,22.1904448,156.772642812,-16.553356,14.763804,-0.447388,138, -8.7, -0.7,0,0,1451,1024,1459,1024,65,0,66,0,0,0,0,97,,,,,,,0,32,9949.4412619517,127.95276,6,P-GPS,
17100,2023-10-08 20:10:37,38.4979128209559,-112.064032824724,127.95276,,,9949.4412619517,29.855644,22.1904448,160.012800396,164.788063016,24,5,0,9949.4412619517,127.95276,22.1904448,160.012800396,-16.553356,14.763804,-0.671082,137.9, -8.6, -0.8,0,0,1451,1024,1459,1024,65,0,66,0,0,0,0,97,,,,,,,0,32,9949.4412619517,127.95276,6,P-GPS,
17200,2023-10-08 20:10:37,38.4979061260581,-112.064025143193,127.95276,,,9949.4412619517,29.855644,22.1904448,163.2956089,168.07087152,24,5,0,9949.4412619517,127.95276,22.1904448,163.2956089,-16.553356,14.763804,-0.894776,137.8, -8.5, -1,0,0,1483,1024,1421,1024,70,0,60,0,0,0,0,97,,,,,,,0,32,9949.4412619517,127.95276,6,P-GPS,
17300,2023-10-08 20:10:37,38.4978994574317,-112.064017544073,128.280844,,,9949.7693459517,29.855644,22.1904448,166.555451524,171.331042228,24,5,0,9949.7693459517,128.280844,22.1904448,166.555451524,-16.553356,14.763804,-1.11847,137.8, -8.4, -1,0,0,1468,1024,1418,1024,67,0,60,0,0,0,0,97,,,,,,,0,32,9949.7693459517,128.280844,6,P-GPS,
17400,2023-10-08 20:10:37,38.497892597131,-112.064009849807,128.280844,,,9949.7693459517,29.855644,22.1904448,169.885832208,174.661422912,24,5,0,9949.7693459517,128.280844,22.1904448,169.885832208,-16.553356,14.987498,-1.342164,137.7, -8.6, -0.9,0,0,1467,1024,1423,1024,67,0,60,0,0,0,0,97,,,,,,,0,32,9949.7693459517,128.280844,6,P-GPS,
17500,2023-10-08 20:10:37,38.4978858770922,-112.064002192304,128.608928,,,9950.0974299517,29.855644,22.5036164,173.1709373,177.946856088,24,5,0,9950.0974299517,128.608928,22.5036164,173.1709373,-16.77705,14.987498,-1.565858,137.8, -9.2, -0.7,0,0,1482,1024,1402,1024,69,0,57,0,0,0,0,97,,,,,,,0,32,9950.0974299517,128.608928,6,P-GPS,
17600,2023-10-08 20:10:37,38.4978791520527,-112.063994555108,128.937012,,,9950.4255139517,29.855644,22.5036164,176.45341772,181.229336508,24,5,0,9950.4255139517,128.937012,22.5036164,176.45341772,-16.77705,14.987498,-2.013246,137.8, -9.4, -0.7,0,0,1474,1024,1431,1024,68,0,62,0,0,0,0,97,,,,,,,0,32,9950.4255139517,128.937012,6,P-GPS,
17700,2023-10-08 20:10:37,38.4978723723469,-112.063986820491,129.265096,,,9950.7535979517,29.855644,22.5036164,179.769690792,184.545281496,24,5,0,9950.7535979517,129.265096,22.5036164,179.769690792,-16.77705,14.987498,-2.23694,137.8, -9.6, -0.7,0,0,1478,1024,1436,1024,69,0,62,0,0,0,0,97,,,,,,,0,32,9950.7535979517,129.265096,6,P-GPS,
17800,2023-10-08 20:10:37,38.4978655287269,-112.063978900921,129.59318,,,9951.0816819517,29.855644,22.816788,183.13812922,187.914048008,24,5,0,9951.0816819517,129.59318,22.816788,183.13812922,-17.000744,15.211192,-2.460634,137.9, -9.5, -0.6,0,0,1483,1024,1408,1024,70,0,58,0,0,0,0,97,,,,,,,0,32,9951.0816819517,129.59318,6,P-GPS,
17900,2023-10-08 20:10:37,38.4978586711321,-112.063971084199,129.921264,,,9951.4097659517,29.855644,22.816788,186.4911477,191.267066488,24,5,0,9951.4097659517,129.921264,22.816788,186.4911477,-17.000744,15.211192,-2.684328,137.9, -9.2, -0.6,0,0,1498,1024,1395,1024,72,0,56,0,0,0,0,97,,,,,,,0,32,9951.4097659517,129.921264,6,P-GPS,
18000,2023-10-08 20:10:38,38.497851151172,-112.063962523728,130.249348,,,9951.7378499517,29.855644,22.9733738,190.1656885,194.941607288,24,5,0,9951.7378499517,130.249348,22.9733738,190.1656885,-17.224438,15.211192,-2.908022,137.8, -9.2, -0.8,0,0,1510,1024,1367,1024,74,0,52,0,0,0,0,97,,,,,,,0,32,9951.7378499517,130.249348,6,P-GPS,
18100,2023-10-08 20:10:38,38.4978441719483,-112.06395457164,130.577432,,,9952.0659339517,29.855644,23.1299596,193.577434016,198.353352804,24,5,0,9952.0659339517,130.577432,23.1299596,193.577434016,-17.224438,15.434886,-3.131716,137.9, -9.5, -1,0,0,1501,1024,1391,1024,72,0,56,0,0,0,0,97,,,,,,,0,32,9952.0659339517,130.577432,6,P-GPS,
18200,2023-10-08 20:10:38,38.4978378152206,-112.063947535518,131.2336,,,9952.7221019517,29.855644,23.1299596,196.6453475,201.421922456,24,5,0,9952.7221019517,131.2336,23.1299596,196.6453475,-17.224438,15.434886,-3.35541,137.9, -9.8, -1.1,0,0,1500,1024,1415,1024,72,0,59,0,0,0,0,97,,,,,,,0,32,9952.7221019517,131.2336,6,P-GPS,
18300,2023-10-08 20:10:38,38.4978308232209,-112.063939561329,131.889768,,,9953.3782699517,29.855644,23.4431312,200.064638948,204.841213904,24,5,0,9953.3782699517,131.889768,23.4431312,200.064638948,-17.448132,15.65858,-3.579104,137.9, -10, -0.9,0,0,1494,1024,1419,1024,71,0,60,0,0,0,0,97,,,,,,,0,32,9953.3782699517,131.889768,6,P-GPS,
18400,2023-10-08 20:10:38,38.4978239976517,-112.063931712615,132.217852,,,9953.7063539517,29.855644,23.4431312,203.415032756,208.191607712,24,5,0,9953.7063539517,132.217852,23.4431312,203.415032756,-17.448132,15.65858,-3.802798,137.9, -9.9, -0.5,0,0,1490,1024,1420,1024,71,0,60,0,0,0,0,97,,,,,,,0,32,9953.7063539517,132.217852,6,P-GPS,
18500,2023-10-08 20:10:38,38.4978169389976,-112.063923648312,132.87402,,,9954.3625219517,29.855644,23.4431312,206.869757276,211.646332232,24,5,0,9954.3625219517,132.87402,23.4431312,206.869757276,-17.448132,15.65858,-4.026492,138, -9.7, -0.2,0,0,1470,1024,1423,1024,68,0,60,0,0,0,0,97,,,,,,,0,32,9954.3625219517,132.87402,6,P-GPS,
18600,2023-10-08 20:10:38,38.4978097318953,-112.063915621954,133.530188,,,9955.0186899517,29.855644,23.7563028,210.357290196,215.134193236,24,5,0,9955.0186899517,133.530188,23.7563028,210.357290196,-17.671826,15.882274,-4.250186,138, -9.7, -0.3,0,0,1466,1024,1423,1024,67,0,60,0,0,0,0,97,,,,,,,0,32,9955.0186899517,133.530188,6,P-GPS,
18700,2023-10-08 20:10:38,38.4978025849738,-112.06390750649,134.186356,,,9955.6748579517,29.855644,23.7563028,213.845807368,218.622710408,23,5,0,9955.6748579517,134.186356,23.7563028,213.845807368,-17.671826,15.882274,-4.47388,137.9, -9.2, -0.6,0,0,1473,1024,1405,1024,68,0,58,0,0,0,0,97,,,,,,,0,32,9955.6748579517,134.186356,6,P-GPS,
