time(millisecond),datetime(utc),latitude,longitude,height_above_takeoff(feet),height_above_ground_at_drone_location(feet),ground_elevation_at_drone_location(feet),altitude_above_seaLevel(feet),height_sonar(feet),speed(mph),distance(feet),mileage(feet),satellites,gpslevel,voltage(v),max_altitude(feet),max_ascent(feet),max_speed(mph),max_distance(feet), xSpeed(mph), ySpeed(mph), zSpeed(mph), compass_heading(degrees), pitch(degrees), roll(degrees),isPhoto,isVideo,rc_elevator,rc_aileron,rc_throttle,rc_rudder,rc_elevator(percent),rc_aileron(percent),rc_throttle(percent),rc_rudder(percent),gimbal_heading(degrees),gimbal_pitch(degrees),gimbal_roll(degrees),battery_percent,voltageCell1,voltageCell2,voltageCell3,voltageCell4,voltageCell5,voltageCell6,current(A),battery_temperature(f),altitude(feet),ascent(feet),flycStateRaw,flycState,message
0,2023-10-09 18:10:44,38.4981248152679,-112.064386460757,0,Available with any HD 360 subscription,Available with any HD 360 subscription,9819.0703243808,0.656168,0,0,0,16,5,0,9819.0703243808,0,0,0,0,0,0,162.5, -5.1, -3.1,0,0,364,364,364,1684,-100,-100,-100,100,0,0,0,99,4.309,4.312,4.317,4.319,4.317,4.308,0,78.26,9819.0703243808,0,41,Motors_Started,
100,2023-10-09 18:10:44,38.498124823359,-112.064386478353,0,,,9819.0703243808,0.656168,0,0.005827263966,0.005827263966,16,5,0,9819.0703243808,0,0,0.005827263966,0,0,0,162.5, -5.1, -3.1,0,0,364,364,364,1684,-100,-100,-100,100,0,0,0,99,4.309,4.312,4.317,4.319,4.317,4.308,0,78.26,9819.0703243808,0,41,Motors_Started,"Setting new Return-To-Home altitude to 61m (200 ft). Data Recorder File Index is 35. Setting new Maximum Flight Altitude to 500m (1640 ft)"
200,2023-10-09 18:10:44,38.4981248216143,-112.064386472443,0,,,9819.0703243808,0.656168,0,0.0040614502612,0.0076307745224,16,5,0,9819.0703243808,0,0,0.005827263966,0,0,0,162.5, -5.1, -3.1,0,0,364,364,364,1684,-100,-100,-100,100,0,0,0,99,4.309,4.312,4.317,4.319,4.317,4.308,0,78.26,9819.0703243808,0,41,Motors_Started,
300,2023-10-09 18:10:44,38.4981248276979,-112.064386486413,0,,,9819.0703243808,0.656168,0,0.0086160435828,0.0121958337236,16,5,0,9819.0703243808,0,0,0.0086160435828,0,0,0,162.5, -5.1, -3.1,0,0,364,364,364,1684,-100,-100,-100,100,0,0,0,99,4.309,4.312,4.317,4.319,4.317,4.308,0,78.26,9819.0703243808,0,41,Motors_Started,
400,2023-10-09 18:10:44,38.4981248270809,-112.064386481891,0,,,9819.0703243808,0.656168,0,0.007415682652,0.0135066277288,16,5,0,9819.0703243808,0,0,0.0086160435828,0,0,0,162.5, -5.1, -3.1,0,0,364,364,364,1684,-100,-100,-100,100,0,0,0,99,4.309,4.312,4.317,4.319,4.317,4.308,0,78.26,9819.0703243808,0,41,Motors_Started,
500,2023-10-09 18:10:44,38.4981248318232,-112.064386490223,0,,,9819.0703243808,0.656168,0,0.0103572181792,0.0164482616812,16,5,0,9819.0703243808,0,0,0.0103572181792,0,0,0,162.5, -5.1, -3.1,0,0,441,364,365,1684,-88,-100,-100,100,0,0,0,99,4.309,4.312,4.317,4.319,4.317,4.308,0,78.26,9819.0703243808,0,41,Motors_Started,
600,2023-10-09 18:10:44,38.4981248311979,-112.064386486276,0,,,9819.0703243808,0.656168,0,0.0093206367812,0.017598097676,16,5,0,9819.0703243808,0,0,0.0103572181792,0,0,0,162.5, -5.1, -3.1,0,0,1024,1024,1024,1024,0,0,0,0,0,0,0,99,4.309,4.312,4.317,4.319,4.317,4.308,0,78.26,9819.0703243808,0,41,Motors_Started,
700,2023-10-09 18:10:44,38.4981248369446,-112.064386490882,0,,,9819.0703243808,0.656168,0,0.0116850069356,0.020073163372,16,5,0,9819.0703243808,0,0,0.0116850069356,0,0,0,162.5, -5.1, -3.1,0,0,1024,1024,1024,1024,0,0,0,0,0,0,0,99,4.309,4.312,4.317,4.319,4.317,4.308,0,78.26,9819.0703243808,0,41,Motors_Started,
800,2023-10-09 18:10:44,38.498124834114,-112.064386486761,0,,,9819.0703243808,0.656168,0,0.0101197837884,0.0216388786452,16,5,0,9819.0703243808,0,0,0.0116850069356,0,0,0,162.5, -5.1, -3.1,0,0,1024,1024,1024,1024,0,0,0,0,0,0,0,99,4.309,4.312,4.317,4.319,4.317,4.308,0,78.26,9819.0703243808,0,41,Motors_Started,
900,2023-10-09 18:10:45,38.4981248377781,-112.064386492348,0,,,9819.0703243808,0.656168,0,0.0121991801804,0.0237204075832,16,5,0,9819.0703243808,0,0,0.0121991801804,0,0,0,162.6, -5.1, -3.1,0,0,1024,1024,1024,1024,0,0,0,0,0,0,0,99,4.309,4.312,4.317,4.319,4.317,4.308,0,78.26,9819.0703243808,0,41,Motors_Started,
1000,2023-10-09 18:10:45,38.4981248367944,-112.064386489634,0,,,9819.0703243808,0.656168,0,0.011387303514,0.0245745742772,16,5,0,9819.0703243808,0,0,0.0121991801804,0,0,0,162.5, -5.1, -3.1,0,0,1024,1024,1024,1024,0,0,0,0,0,0,0,99,4.309,4.312,4.317,4.319,4.317,4.308,0,78.26,9819.0703243808,0,41,Motors_Started,
1100,2023-10-09 18:10:45,38.4981248360396,-112.064386494737,0,,,9819.0703243808,0.656168,0,0.012311516142,0.0260575139572,16,5,0,9819.0703243808,0,0,0.012311516142,0,0,0,162.5, -5.1, -3.1,0,0,1024,1024,1024,1024,0,0,0,0,0,0,0,99,4.309,4.312,4.317,4.319,4.317,4.308,0,78.26,9819.0703243808,0,41,Motors_Started,
1200,2023-10-09 18:10:45,38.4981248364445,-112.064386492765,0,,,9819.0703243808,0.656168,0,0.011967848152,0.0266394037396,16,5,0,9819.0703243808,0,0,0.012311516142,0,0,0,162.5, -5.1, -3.1,0,0,1024,1024,1024,1024,0,0,0,0,0,0,0,99,4.309,4.312,4.317,4.319,4.317,4.308,0,78.26,9819.0703243808,0,41,Motors_Started,
1300,2023-10-09 18:10:45,38.4981248307567,-112.064386500257,0,,,9819.0703243808,0.656168,0,0.0126153547344,0.029619751604,16,5,0,9819.0703243808,0,0,0.0126153547344,0,0,0,162.5, -5.1, -3.1,0,0,1024,1024,1024,1024,0,0,0,0,0,0,0,99,4.309,4.312,4.317,4.319,4.317,4.308,0,78.26,9819.0703243808,0,41,Motors_Started,
1400,2023-10-09 18:10:45,38.4981248287563,-112.064386500127,0,,,9819.0703243808,0.656168,0,0.012271817978,0.0303505259056,16,5,0,9819.0703243808,0,0,0.0126153547344,0,0,0,162.4, -5.1, -3.1,0,0,1024,1024,1024,1024,0,0,0,0,0,0,0,99,4.309,4.312,4.317,4.319,4.317,4.308,0,78.26,9819.0703243808,0,41,Motors_Started,
1500,2023-10-09 18:10:45,38.4981248399921,-112.064386495975,0,,,9819.0703243808,0.656168,0,0.0135090555504,0.034618111344,16,5,0,9819.0703243808,0,0,0.0135090555504,0,0,0,162.4, -5.1, -3.1,0,0,1024,1024,1024,1024,0,0,0,0,0,0,0,99,4.309,4.312,4.317,4.319,4.317,4.308,0,78.26,9819.0703243808,0,41,Motors_Started,
1600,2023-10-09 18:10:45,38.4981248403218,-112.064386496777,0,,,9819.0703243808,0.656168,0,0.013760007002,0.034876641536,16,5,0,9819.0703243808,0,0,0.013760007002,0,0,0,162.4, -5.1, -3.1,0,0,1024,1024,1024,1024,0,0,0,0,0,0,0,99,4.309,4.312,4.317,4.319,4.317,4.308,0,78.26,9819.0703243808,0,41,Motors_Started,
1700,2023-10-09 18:10:45,38.4981248327768,-112.064386348082,0,,,9819.0703243808,0.656168,0,0.0328015758528,0.077424215076,16,5,25.26,9819.0703243808,0,0,0.0328015758528,0,0,0,162.4, -5.1, -3.1,0,0,1024,1024,1024,1024,0,0,0,0,0,0,0,99,4.309,4.312,4.317,4.319,4.317,4.308,0.634,78.26,9819.0703243808,0,41,Motors_Started,
1800,2023-10-09 18:10:45,38.498124831681,-112.064386333447,0,,,9819.0703243808,0.656168,0,0.03684219278,0.08162237794,16,5,25.26,9819.0703243808,0,0,0.03684219278,0,0,0,162.4, -5.1, -3.1,0,0,1024,1024,1024,1024,0,0,0,0,0,0,0,99,4.309,4.312,4.317,4.319,4.317,4.308,0.634,78.26,9819.0703243808,0,41,Motors_Started,
1900,2023-10-09 18:10:46,38.4981248400406,-112.064386351249,0,,,9819.0703243808,0.656168,0,0.0325491152148,0.087550527736,16,5,25.26,9819.0703243808,0,0,0.03684219278,0,0,0,162.4, -5.1, -3.1,0,0,1024,1024,1024,1024,0,0,0,0,0,0,0,99,4.309,4.312,4.317,4.319,4.317,4.308,0.634,78.26,9819.0703243808,0,41,Motors_Started,
2000,2023-10-09 18:10:46,38.498124841471,-112.064386338553,0,,,9819.0703243808,0.656168,0,0.036180447352,0.091213257512,16,5,25.26,9819.0703243808,0,0,0.03684219278,0,0,0,162.4, -5.1, -3.1,0,0,1024,1024,1024,1024,0,0,0,0,0,0,0,99,4.309,4.312,4.317,4.319,4.317,4.308,0.634,78.26,9819.0703243808,0,10,Assisted_Takeoff,
2100,2023-10-09 18:10:46,38.4981248378088,-112.064386356321,0,,,9819.0703243808,0.656168,0,0.0309342529584,0.096459648756,16,5,25.26,9819.0703243808,0,0,0.03684219278,0,0,0,162.4, -5.1, -3.1,0,0,1024,1024,1024,1024,0,0,0,0,0,0,0,99,4.309,4.312,4.317,4.319,4.317,4.308,0.634,78.26,9819.0703243808,0,10,Assisted_Takeoff,
2200,2023-10-09 18:10:46,38.4981248378267,-112.064386344824,0,,,9819.0703243808,0.656168,0,0.034111549648,0.099742129176,16,5,25.26,9819.0703243808,0,0,0.03684219278,0,0,0,162.4, -5.1, -3.1,0,0,1024,1024,1024,1024,0,0,0,0,0,0,0,99,4.309,4.312,4.317,4.319,4.317,4.308,0.634,78.26,9819.0703243808,0,10,Assisted_Takeoff,
2300,2023-10-09 18:10:46,38.4981248402208,-112.064386361449,0,,,9819.0703243808,0.656168,0,0.0297821203756,0.104568900984,16,5,25.26,9819.0703243808,0,0,0.03684219278,0,0,0,162.4, -5.1, -3.1,0,0,1024,1024,1024,1024,0,0,0,0,0,0,0,99,4.309,4.312,4.317,4.319,4.317,4.308,0.634,78.26,9819.0703243808,0,10,Assisted_Takeoff,
2400,2023-10-09 18:10:46,38.498124838749,-112.064386351182,0,,,9819.0703243808,0.656168,0,0.0324399288596,0.107549544124,16,5,25.26,9819.0703243808,0,0,0.03684219278,0,0,0,162.4, -5.1, -3.1,0,0,1024,1024,1024,1024,0,0,0,0,0,0,0,99,4.309,4.312,4.317,4.319,4.317,4.308,0.634,78.26,9819.0703243808,0,10,Assisted_Takeoff,
2500,2023-10-09 18:10:46,38.4981248386738,-112.064386366027,0,,,9819.0703243808,0.656168,0,0.0283654208552,0.111788389404,16,5,25.26,9819.0703243808,0,0,0.03684219278,0,0,0,162.4, -5.1, -3.1,0,0,1024,1024,1024,1024,0,0,0,0,0,0,0,99,4.309,4.312,4.317,4.319,4.317,4.308,0.634,78.26,9819.0703243808,0,10,Assisted_Takeoff,
2600,2023-10-09 18:10:46,38.4981248378528,-112.064386356141,0,,,9819.0703243808,0.656168,0,0.0309877962672,0.114626972172,16,5,25.26,9819.0703243808,0,0,0.03684219278,0,0,0,162.4, -5.1, -3.1,0,0,1024,1024,1024,1024,0,0,0,0,0,0,0,99,4.309,4.312,4.317,4.319,4.317,4.308,0.634,78.26,9819.0703243808,0,10,Assisted_Takeoff,
2700,2023-10-09 18:10:46,38.4981248355771,-112.064386369529,0,,,9819.0703243808,0.656168,0,0.027082678032,0.118539045788,16,5,25.26,9819.0703243808,0,0,0.03684219278,0,0,0,162.4, -5.1, -3.1,0,0,1024,1024,1024,1024,0,0,0,0,0,0,0,99,4.323,4.334,4.339,4.34,4.338,4.34,4.724,78.26,9819.0703243808,0,10,Assisted_Takeoff,
2800,2023-10-09 18:10:46,38.4981248350229,-112.06438636125,0,,,9819.0703243808,0.656168,0,0.0293132883396,0.120911749276,16,5,25.26,9819.0703243808,0,0,0.03684219278,0,0,0,162.4, -5.1, -3.1,0,0,1024,1024,1024,1024,0,0,0,0,0,0,0,99,4.323,4.334,4.339,4.34,4.338,4.34,4.724,78.26,9819.0703243808,0,10,Assisted_Takeoff,
2900,2023-10-09 18:10:47,38.4981248344003,-112.064386216525,0,,,9819.0703243808,0.656168,0,0.0700869445,0.162237209916,16,5,25.26,9819.0703243808,0,0,0.0700869445,0,0,0,162.4, -5.1, -3.1,0,0,1024,1024,1024,1024,0,0,0,0,0,0,0,99,4.323,4.334,4.339,4.34,4.338,4.34,4.724,78.26,9819.0703243808,0,10,Assisted_Takeoff,
3000,2023-10-09 18:10:47,38.4981248330593,-112.064386193668,0,,,9819.0703243808,0.656168,0,0.076540684864,0.168782157632,16,5,25.26,9819.0703243808,0,0,0.076540684864,0,0,0,162.4, -5.1, -3.1,0,0,1024,1024,1024,1024,0,0,0,0,0,0,0,99,4.323,4.334,4.339,4.34,4.338,4.34,4.724,78.26,9819.0703243808,0,10,Assisted_Takeoff,
3100,2023-10-09 18:10:47,38.4981248345968,-112.064386227,0,,,9819.0703243808,0.656168,0,0.067118768552,0.178316278672,16,5,25.26,9819.0703243808,0,0,0.076540684864,0,0,0,162.4, -5.1, -3.1,0,0,1024,1024,1024,1024,0,0,0,0,0,0,0,99,4.323,4.334,4.339,4.34,4.338,4.34,4.724,78.26,9819.0703243808,0,10,Assisted_Takeoff,
3200,2023-10-09 18:10:47,38.4981248331337,-112.064386207615,0,,,9819.0703243808,0.656168,0,0.072576117808,0.183877302472,16,5,25.26,9819.0703243808,0,0,0.076540684864,0,0,0,162.4, -5.1, -3.1,0,0,1024,1024,1024,1024,0,0,0,0,0,0,0,99,4.323,4.334,4.339,4.34,4.338,4.34,4.724,78.26,9819.0703243808,0,10,Assisted_Takeoff,
3300,2023-10-09 18:10:47,38.498124834977,-112.064386237374,0,,,9819.0703243808,0.656168,0,0.064189306516,0.192401252876,16,5,25.26,9819.0703243808,0,0,0.076540684864,0,0,0,162.4, -5.1, -3.1,0,0,1024,1024,1024,1024,0,0,0,0,0,0,0,99,4.323,4.334,4.339,4.34,4.338,4.34,4.724,78.26,9819.0703243808,0,10,Assisted_Takeoff,
3400,2023-10-09 18:10:47,38.4981248339431,-112.064386218837,0,,,9819.0703243808,0.656168,0,0.069413716132,0.197708011576,16,5,25.26,9819.0703243808,0,0,0.076540684864,0,0,0,162.4, -5.1, -3.1,0,0,1024,1024,1024,1024,0,0,0,0,0,0,0,99,4.323,4.334,4.339,4.34,4.338,4.34,4.724,78.26,9819.0703243808,0,10,Assisted_Takeoff,
3500,2023-10-09 18:10:47,38.4981249930922,-112.06438624598,0,,,9819.0703243808,0.656168,0,0.089276905744,0.256288394028,16,5,25.26,9819.0703243808,0,0,0.089276905744,0,0,0,162.4, -5.1, -3.1,0,0,1024,1024,1054,1024,0,0,5,0,0,0,0,99,4.323,4.334,4.339,4.34,4.338,4.34,4.724,78.26,9819.0703243808,0,10,Assisted_Takeoff,
3600,2023-10-09 18:10:47,38.498125006401,-112.064386231276,0,,,9819.0703243808,0.656168,0,0.095690291776,0.262707685572,16,5,25.26,9819.0703243808,0,0,0.095690291776,0,0,0,162.4, -5.1, -3.1,0,0,1024,1024,1154,1024,0,0,20,0,0,0,0,99,4.323,4.334,4.339,4.34,4.338,4.34,4.724,78.26,9819.0703243808,0,10,Assisted_Takeoff,
3700,2023-10-09 18:10:47,38.4981249840696,-112.064386095715,0,,,9819.0703243808,0.656168,0,0.12106955768,0.302264117284,16,5,25.26,9819.0703243808,0,0,0.12106955768,0,0,0,162.4, -5.1, -3.1,0,0,1024,1024,1154,1024,0,0,20,0,0,0,0,99,4.323,4.334,4.339,4.34,4.338,4.34,4.724,78.26,9819.0703243808,0,10,Assisted_Takeoff,
3800,2023-10-09 18:10:47,38.4981249960512,-112.064386066514,0,,,9819.0703243808,0.656168,0,0.130472773204,0.311678487664,16,5,25.254,9819.0703243808,0,0,0.130472773204,0,0,0,162.4, -5.1, -3.1,0,0,1024,1024,1245,1024,0,0,33,0,0,0,0,99,4.339,4.334,4.337,4.34,4.338,4.337,2.958,78.26,9819.0703243808,0,10,Assisted_Takeoff,
3900,2023-10-09 18:10:48,38.4981249783339,-112.064386112227,0,,,9819.0703243808,0.656168,0,0.115947510272,0.326244433012,16,5,25.254,9819.0703243808,0,0,0.130472773204,0,0,0,162.4, -4.9, -3.1,0,0,1024,1024,1281,1024,0,0,39,0,0,0,0,99,4.339,4.334,4.337,4.34,4.338,4.337,2.958,78.26,9819.0703243808,0,10,Assisted_Takeoff,
4000,2023-10-09 18:10:48,38.4981249957943,-112.064386091228,0,,,9819.0703243808,0.656168,0,0.124385830752,0.33499344904,16,5,25.254,9819.0703243808,0,0,0.130472773204,0,0,0,162.4, -4.7, -3.1,0,0,1024,1024,1291,1024,0,0,40,0,0,0,0,99,4.339,4.334,4.337,4.34,4.338,4.337,2.958,78.26,9819.0703243808,0,10,Assisted_Takeoff,
4100,2023-10-09 18:10:48,38.4981249840588,-112.064386131366,0,,,9819.0703243808,0.656168,0,0.112422575776,0.3472277014,16,5,25.254,9819.0703243808,0,0,0.130472773204,0,0,0,162.4, -4.7, -3.1,0,0,1024,1024,1298,1024,0,0,42,0,0,0,0,99,4.339,4.334,4.337,4.34,4.338,4.337,2.958,78.26,9819.0703243808,0,10,Assisted_Takeoff,
4200,2023-10-09 18:10:48,38.4981249893017,-112.064386109331,0,,,9819.0703243808,0.656168,0,0.118748691464,0.35380250476,16,5,25.254,9819.0703243808,0,0,0.130472773204,0,0,0,162.4, -4.8, -3.1,0,0,1024,1024,1343,1024,0,0,48,0,0,0,0,99,4.339,4.334,4.337,4.34,4.338,4.337,2.958,78.26,9819.0703243808,0,10,Assisted_Takeoff,
4300,2023-10-09 18:10:48,38.4981249693084,-112.064385983082,0,,,9819.0703243808,0.656168,0,0.14752133018,0.390584002,16,5,25.254,9819.0703243808,0,0,0.14752133018,0,0,0,162.4, -4.7, -3.1,0,0,1024,1024,1384,1024,0,0,55,0,0,0,0,99,4.339,4.334,4.337,4.34,4.338,4.337,2.958,78.26,9819.0703243808,0,10,Assisted_Takeoff,
4400,2023-10-09 18:10:48,38.4981249809723,-112.064385949324,0,,,9819.0703243808,0.656168,0,0.158055123168,0.40112206008,16,5,25.254,9819.0703243808,0,0,0.158055123168,0,0,0,162.3, -4.5, -3.1,0,0,1024,1024,1413,1024,0,0,59,0,0,0,0,99,4.339,4.334,4.337,4.34,4.338,4.337,2.958,78.26,9819.0703243808,0,10,Assisted_Takeoff,
4500,2023-10-09 18:10:48,38.4981251128255,-112.06438598434,0,,,9819.0703243808,0.656168,0,0.174046265412,0.45025591992,16,5,25.254,9819.0703243808,0,0,0.174046265412,0,0,0,162.2, -4.2, -3.1,0,0,1024,1024,1429,1024,0,0,61,0,0,0,0,99,4.339,4.334,4.337,4.34,4.338,4.337,2.958,78.26,9819.0703243808,0,10,Assisted_Takeoff,
4600,2023-10-09 18:10:48,38.4981251373999,-112.064385944364,0,,,9819.0703243808,0.656168,0,0.188561029656,0.46477035608,16,5,25.254,9819.0703243808,0,0,0.188561029656,0,0,0,161.9, -3.7, -3,0,0,1024,1024,1423,1024,0,0,60,0,0,0,0,99,4.339,4.334,4.337,4.34,4.338,4.337,2.958,78.26,9819.0703243808,0,10,Assisted_Takeoff,
4700,2023-10-09 18:10:48,38.4981251137143,-112.064385971637,0,,,9819.0703243808,0.656168,0,0.177095150024,0.47640421472,16,5,25.194,9819.0703243808,0,0,0.188561029656,0,0,0,161.4, -2.4, -2.8,0,0,1024,1024,1425,1024,0,0,61,0,0,0,0,99,4.306,4.305,4.323,4.307,4.332,4.327,1.76,78.26,9819.0703243808,0,10,Assisted_Takeoff,
4800,2023-10-09 18:10:48,38.4981251271981,-112.064385893462,0,,,9819.0703243808,0.656168,0,0.197968838356,0.499261827,16,5,25.194,9819.0703243808,0,0,0.197968838356,0,0,-0.223694,160.7, 1.3, -2.8,0,0,1024,1024,1431,1024,0,0,62,0,0,0,0,99,4.306,4.305,4.323,4.307,4.332,4.327,1.76,78.26,9819.0703243808,0,10,Assisted_Takeoff,
4900,2023-10-09 18:10:49,38.498125115237,-112.064385680023,0,,,9819.0703243808,0.656168,0.223694,0.248347776976,0.56036419116,16,5,25.194,9819.0703243808,0,0.223694,0.248347776976,0,0.223694,-0.447388,159.9, 5.3, -1.9,0,0,1024,1024,1423,1024,0,0,60,0,0,0,0,99,4.306,4.305,4.323,4.307,4.332,4.327,1.76,78.26,9819.0703243808,0,6,P-GPS,
5000,2023-10-09 18:10:49,38.4981252194615,-112.064385556348,0,,,9819.0703243808,0.656168,0.223694,0.297386164372,0.61225723744,16,5,25.194,9819.0703243808,0,0.223694,0.297386164372,0.223694,0,-0.894776,159.3, 6.4, 0,0,0,1024,1024,1421,1024,0,0,60,0,0,0,0,99,4.306,4.305,4.323,4.307,4.332,4.327,1.76,78.26,9819.0703243808,0,6,P-GPS,
5100,2023-10-09 18:10:49,38.4981254242951,-112.064385599756,0.328084,,,9819.3984083808,0.984252,0.447388,0.33138780588,0.68801183304,16,5,25.194,9819.3984083808,0.328084,0.447388,0.33138780588,0.447388,0,-1.11847,158.9, 4.8, 0.8,0,0,1024,1024,1420,1024,0,0,60,0,0,0,0,99,4.306,4.305,4.323,4.307,4.332,4.327,1.76,78.26,9819.3984083808,0.328084,6,P-GPS,
5200,2023-10-09 18:10:49,38.4981256628889,-112.064385632831,0.328084,,,9819.3984083808,1.312336,0.447388,0.38926510432,0.7755741718,16,5,25.194,9819.3984083808,0.328084,0.447388,0.38926510432,0.447388,0,-1.565858,158.7, 2.4, 0.9,0,0,1024,1024,1422,1024,0,0,60,0,0,0,0,99,4.306,4.305,4.323,4.307,4.332,4.327,1.76,78.26,9819.3984083808,0.328084,6,P-GPS,
5300,2023-10-09 18:10:49,38.4981258526512,-112.06438579031,0.656168,,,9819.7264923808,1.312336,0.4921268,0.42415027604,0.85812994872,16,5,25.194,9819.7264923808,0.656168,0.4921268,0.42415027604,0.447388,-0.223694,-2.013246,158.6, 0.3, 0.7,0,0,1024,1024,1422,1024,0,0,60,0,0,0,0,99,4.306,4.305,4.323,4.307,4.332,4.327,1.76,78.26,9819.7264923808,0.656168,6,P-GPS,
5400,2023-10-09 18:10:49,38.4981260817416,-112.064385919554,0.984252,,,9820.0545763808,1.968504,0.4921268,0.48722770588,0.94949806188,16,5,25.194,9820.0545763808,0.984252,0.4921268,0.48722770588,0.447388,-0.223694,-2.460634,158.5, -0.5, 0.2,0,0,1024,1024,1434,1024,0,0,62,0,0,0,0,99,4.306,4.305,4.323,4.307,4.332,4.327,1.76,78.26,9820.0545763808,0.984252,6,P-GPS,
5500,2023-10-09 18:10:49,38.4981264631762,-112.064386132633,1.64042,,,9820.7107443808,2.296588,0.4921268,0.60849411396,1.10138126884,16,5,25.194,9820.7107443808,1.64042,0.4921268,0.60849411396,0.447388,-0.223694,-2.908022,158.6, -1.1, -0.1,0,0,1024,1024,1435,1024,0,0,62,0,0,0,0,99,4.306,4.305,4.323,4.307,4.332,4.327,1.76,78.26,9820.7107443808,1.64042,6,P-GPS,
5600,2023-10-09 18:10:49,38.4981266493955,-112.064386307738,1.968504,,,9821.0388283808,2.624672,0.3131716,0.670603696,1.18573822692,16,5,25.194,9821.0388283808,1.968504,0.4921268,0.670603696,0.223694,-0.223694,-3.35541,158.7, -1.4, -0.7,0,0,1024,1024,1425,1024,0,0,61,0,0,0,0,99,4.306,4.305,4.323,4.307,4.332,4.327,1.76,78.26,9821.0388283808,1.968504,6,P-GPS,
5700,2023-10-09 18:10:49,38.4981264748266,-112.064386541262,2.624672,,,9821.6949963808,3.28084,0.3131716,0.60592521624,1.27794951596,16,5,25.194,9821.6949963808,2.624672,0.4921268,0.670603696,0.223694,-0.223694,-4.026492,158.8, -1.8, -0.8,0,0,1024,1024,1427,1024,0,0,61,0,0,0,0,99,4.306,4.305,4.323,4.307,4.332,4.327,1.76,78.26,9821.6949963808,2.624672,6,P-GPS,
5800,2023-10-09 18:10:49,38.4981265575455,-112.064386688113,3.28084,,,9822.3511643808,3.608924,0.223694,0.6389763984,1.32961290344,16,5,25.212,9822.3511643808,3.28084,0.4921268,0.670603696,0,-0.223694,-4.47388,159, -2.1, -0.8,0,0,1024,1024,1427,1024,0,0,61,0,0,0,0,99,4.206,4.205,4.213,4.214,4.237,4.231,2.23,78.26,9822.3511643808,3.28084,6,P-GPS,
5900,2023-10-09 18:10:50,38.4981267109564,-112.064386780018,3.937008,,,9823.0073323808,4.265092,0.223694,0.6976214134,1.39143377156,16,5,25.212,9823.0073323808,3.937008,0.4921268,0.6976214134,0,-0.223694,-4.697574,159.1, -2.1, -0.9,0,0,1024,1024,1430,1024,0,0,62,0,0,0,0,99,4.206,4.205,4.213,4.214,4.237,4.231,2.23,78.26,9823.0073323808,3.937008,6,P-GPS,
6000,2023-10-09 18:10:50,38.4981267093913,-112.064386872865,4.593176,,,9823.6635003808,5.249344,0,0.7010170828,1.41794952044,16,5,25.212,9823.6635003808,4.593176,0.4921268,0.7010170828,0,0,-5.144962,159.2, -1.9, -0.9,0,0,1024,1024,1428,1024,0,0,61,0,0,0,0,99,4.206,4.205,4.213,4.214,4.237,4.231,2.23,78.26,9823.6635003808,4.593176,6,P-GPS,
6100,2023-10-09 18:10:50,38.4981266402376,-112.064386867023,5.249344,,,9824.3196683808,5.905512,0,0.6758694442,1.44323823516,16,5,25.212,9824.3196683808,5.249344,0.4921268,0.7010170828,0,0,-5.368656,159.3, -1.7, -1,0,0,1024,1024,1421,1024,0,0,60,0,0,0,0,99,4.206,4.205,4.213,4.214,4.237,4.231,2.23,78.26,9824.3196683808,5.249344,6,P-GPS,
6200,2023-10-09 18:10:50,38.4981265611949,-112.064386891457,6.233596,,,9825.3039203808,6.56168,0,0.64876314412,1.47290687128,16,5,25.212,9825.3039203808,6.233596,0.4921268,0.7010170828,0,0,-5.59235,159.5, -1.4, -1,0,0,1024,1024,1397,1024,0,0,57,0,0,0,0,99,4.206,4.205,4.213,4.214,4.237,4.231,2.23,78.26,9825.3039203808,6.233596,6,P-GPS,
6300,2023-10-09 18:10:50,38.4981268419306,-112.064386657733,7.217848,,,9826.2881723808,7.217848,0,0.74156170352,1.59515753136,16,5,25.212,9826.2881723808,7.217848,0.4921268,0.74156170352,0,0,-5.816044,159.5, -1.1, -1,0,0,1024,1024,1379,1024,0,0,54,0,0,0,0,99,4.206,4.205,4.213,4.214,4.237,4.231,2.23,78.26,9826.2881723808,7.217848,6,P-GPS,
6400,2023-10-09 18:10:50,38.4981267390937,-112.064386616562,7.874016,,,9826.9443403808,7.874016,0.223694,0.7033136708,1.63447511792,16,5,25.212,9826.9443403808,7.874016,0.4921268,0.74156170352,-0.223694,0,-5.816044,159.7, -0.8, -0.9,0,0,1024,1024,1356,899,0,0,50,-19,0,0,0,99,4.206,4.205,4.213,4.214,4.237,4.231,2.23,78.26,9826.9443403808,7.874016,6,P-GPS,
6500,2023-10-09 18:10:50,38.4981264076689,-112.064386719837,8.858268,,,9827.9285923808,8.530184,0.223694,0.58567587176,1.758940345,16,5,25.212,9827.9285923808,8.858268,0.4921268,0.74156170352,-0.223694,0,-5.816044,159.6, -0.7, -1,0,0,1024,1024,1354,886,0,0,50,-21,0,0,0,99,4.206,4.205,4.213,4.214,4.237,4.231,2.23,78.26,9827.9285923808,8.858268,6,P-GPS,
6600,2023-10-09 18:10:50,38.4981262528114,-112.064386661347,9.84252,,,9828.9128443808,9.186352,0.223694,0.52760500376,1.81785766972,16,5,25.212,9828.9128443808,9.84252,0.4921268,0.74156170352,-0.223694,0,-5.59235,159, -0.5, -1,0,0,1056,1024,1347,883,5,0,49,-21,0,0,0,99,4.206,4.205,4.213,4.214,4.237,4.231,2.23,78.26,9828.9128443808,9.84252,6,P-GPS,
6700,2023-10-09 18:10:50,38.4981263050886,-112.064386742803,10.498688,,,9829.5690123808,9.84252,0.223694,0.54949476824,1.84793641084,16,5,25.212,9829.5690123808,10.498688,0.4921268,0.74156170352,-0.223694,0,-5.144962,158, -0.5, -0.9,0,0,1085,1024,1338,875,9,0,48,-23,0,0,0,99,4.206,4.205,4.213,4.214,4.237,4.231,2.23,78.26,9829.5690123808,10.498688,6,P-GPS,
6800,2023-10-09 18:10:50,38.498126136867,-112.064386677726,11.154856,,,9830.2251803808,10.170604,0.223694,0.48614830952,1.91206370948,16,5,25.224,9830.2251803808,11.154856,0.4921268,0.74156170352,-0.223694,0,-4.921268,157, -0.3, -1,0,0,1137,1024,1339,872,17,0,48,-23,0,0,0,99,4.208,4.211,4.225,4.207,4.213,4.218,14.796,78.26,9830.2251803808,11.154856,6,P-GPS,
6900,2023-10-09 18:10:51,38.4981258172617,-112.064386686176,11.811024,,,9830.8813483808,10.498688,0.447388,0.37120079928,2.02869429064,16,5,25.224,9830.8813483808,11.811024,0.4921268,0.74156170352,-0.447388,0,-4.697574,155.7, -0.3, -1.4,0,0,1210,1024,1367,892,28,0,52,-20,0,0,0,99,4.208,4.211,4.225,4.207,4.213,4.218,14.796,78.26,9830.8813483808,11.811024,6,P-GPS,
7000,2023-10-09 18:10:51,38.4981256128511,-112.064386602539,12.795276,,,9831.8656003808,10.826772,0.447388,0.293800534336,2.1070046606,16,5,25.224,9831.8656003808,12.795276,0.4921268,0.74156170352,-0.447388,0,-4.47388,154.5, -0.6, -1.6,0,0,1240,1024,1377,892,33,0,53,-20,0,0,0,99,4.208,4.211,4.225,4.207,4.213,4.218,14.796,78.26,9831.8656003808,12.795276,6,P-GPS,
7100,2023-10-09 18:10:51,38.4981252506118,-112.064386713101,13.12336,,,9832.1936843808,11.154856,0.447388,0.174414703744,2.24288721088,16,5,25.224,9832.1936843808,13.12336,0.4921268,0.74156170352,-0.447388,0,-4.250186,153.2, -1.5, -1.6,0,0,1276,1024,1394,894,38,0,56,-20,0,0,0,99,4.208,4.211,4.225,4.207,4.213,4.218,14.796,78.26,9832.1936843808,13.12336,6,P-GPS,
7200,2023-10-09 18:10:51,38.4981249998272,-112.064386595812,13.779528,,,9832.8498523808,11.48294,0.447388,0.077597443428,2.3403215972,16,5,25.224,9832.8498523808,13.779528,0.4921268,0.74156170352,-0.447388,0,-4.250186,151.9, -3, -1.5,0,0,1298,1024,1390,890,42,0,55,-20,0,0,0,99,4.208,4.211,4.225,4.207,4.213,4.218,14.796,78.26,9832.8498523808,13.779528,6,P-GPS,
7300,2023-10-09 18:10:51,38.4981248061923,-112.064386465543,14.435696,,,9833.5060203808,11.811024,0.447388,0.0035821195372,2.42016411944,16,5,25.224,9833.5060203808,14.435696,0.4921268,0.74156170352,-0.671082,0.223694,-4.250186,150.6, -4.7, -1.2,0,0,1321,1024,1399,897,45,0,57,-19,0,0,0,99,4.208,4.211,4.225,4.207,4.213,4.218,14.796,78.26,9833.5060203808,14.435696,6,P-GPS,
7400,2023-10-09 18:10:51,38.4981244587486,-112.064386251741,15.091864,,,9834.1621883808,12.139108,0.9171454,0.143114505892,2.56086294284,16,5,25.224,9834.1621883808,15.091864,0.9171454,0.74156170352,-0.894776,0.223694,-4.250186,149.3, -6.5, -1.2,0,0,1341,1024,1406,911,48,0,58,-17,0,0,0,99,4.208,4.211,4.225,4.207,4.213,4.218,14.796,78.26,9834.1621883808,15.091864,6,P-GPS,
7500,2023-10-09 18:10:51,38.4981240100159,-112.064385911394,15.748032,,,9834.8183563808,12.139108,1.2079476,0.33305119176,2.75125336888,16,5,25.224,9834.8183563808,15.748032,1.2079476,0.74156170352,-1.11847,0.447388,-4.250186,148, -8.1, -1.4,0,0,1382,1024,1411,919,54,0,59,-16,0,0,0,99,4.208,4.211,4.225,4.207,4.213,4.218,14.796,78.26,9834.8183563808,15.748032,6,P-GPS,
7600,2023-10-09 18:10:51,38.4981234704464,-112.064385508034,16.4042,,,9835.4745243808,12.139108,1.4987498,0.56102692084,2.97933408484,16,5,25.224,9835.4745243808,16.4042,1.4987498,0.74156170352,-1.342164,0.671082,-4.47388,146.8, -9.4, -1.6,0,0,1398,1024,1408,918,57,0,58,-16,0,0,0,99,4.208,4.211,4.225,4.207,4.213,4.218,14.796,78.26,9835.4745243808,16.4042,6,P-GPS,
7700,2023-10-09 18:10:51,38.498122652587,-112.064384996431,17.060368,,,9836.1306923808,12.467192,1.4987498,0.89299215456,3.3115814708,16,5,25.224,9836.1306923808,17.060368,1.4987498,0.89299215456,-1.565858,0.894776,-4.47388,145.7, -10.4, -1.8,0,0,1420,1024,1407,916,60,0,58,-16,0,0,0,99,4.208,4.211,4.225,4.207,4.213,4.218,14.796,78.26,9836.1306923808,17.060368,6,P-GPS,
7800,2023-10-09 18:10:51,38.4981218452307,-112.06438432018,17.716536,,,9836.7868603808,12.795276,2.4158952,1.24411421304,3.6637796448,16,5,24.978,9836.7868603808,17.716536,2.4158952,1.24411421304,-2.013246,1.342164,-4.697574,144.6, -11.1, -2,0,0,1428,1024,1407,937,61,0,58,-13,0,0,0,99,4.21,4.206,4.209,4.218,4.22,4.218,28.45,78.26,9836.7868603808,17.716536,6,P-GPS,
7900,2023-10-09 18:10:51,38.4981208895581,-112.064383581515,18.700788,,,9837.7711123808,9.84252,2.7290668,1.65147971164,4.0712927812,16,5,24.978,9837.7711123808,18.700788,2.7290668,1.65147971164,-2.23694,1.565858,-4.697574,143.5, -11.7, -2,0,0,1451,1024,1415,968,65,0,59,-8,0,0,0,99,4.21,4.206,4.209,4.218,4.22,4.218,28.45,78.26,9837.7711123808,18.700788,6,P-GPS,
8000,2023-10-09 18:10:52,38.4981198070033,-112.064382585911,19.356956,,,9838.4272803808,10.170604,3.2211936,2.13613523896,4.5579397784,16,5,24.978,9838.4272803808,19.356956,3.2211936,2.13613523896,-2.684328,1.789552,-4.921268,142.6, -12.2, -1.9,0,0,1464,1024,1413,989,67,0,59,-5,0,0,0,99,4.21,4.206,4.209,4.218,4.22,4.218,28.45,78.26,9838.4272803808,19.356956,6,P-GPS,
8100,2023-10-09 18:10:52,38.498118488844,-112.06438158089,20.013124,,,9839.0834483808,10.826772,3.8475368,2.69616806528,5.1179791664,16,5,24.978,9839.0834483808,20.013124,3.8475368,2.69616806528,-3.131716,2.23694,-4.921268,141.8, -12.4, -1.6,0,0,1512,1024,1413,1016,74,0,59,-1,0,0,0,99,4.21,4.206,4.209,4.218,4.22,4.218,28.45,78.26,9839.0834483808,20.013124,6,P-GPS,
8200,2023-10-09 18:10:52,38.4981171029839,-112.064380242125,20.669292,,,9839.7396163808,7.217848,4.2949248,3.327263886,5.7518374544,16,5,24.978,9839.7396163808,20.669292,4.2949248,3.327263886,-3.35541,2.684328,-5.144962,141.2, -12.5, -1.3,0,0,1565,1024,1412,1024,82,0,59,0,0,0,0,99,4.21,4.206,4.209,4.218,4.22,4.218,28.45,78.26,9839.7396163808,20.669292,6,P-GPS,
8300,2023-10-09 18:10:52,38.4981156198722,-112.064378655626,21.653544,,,9840.7238683808,7.874016,4.7870516,4.027723226,6.4575461384,16,5,24.978,9840.7238683808,21.653544,4.7870516,4.027723226,-3.802798,2.908022,-5.144962,140.7, -12.8, -1,0,0,1577,1024,1389,1024,84,0,55,0,0,0,0,99,4.21,4.206,4.209,4.218,4.22,4.218,28.45,78.26,9840.7238683808,21.653544,6,P-GPS,
8400,2023-10-09 18:10:52,38.4981139445792,-112.064376966738,22.309712,,,9841.3800363808,8.2021,5.4133948,4.804134012,7.2361222788,16,5,24.978,9841.3800363808,22.309712,5.4133948,4.804134012,-4.250186,3.35541,-5.144962,140.4, -13.2, -1,0,0,1584,1024,1380,1024,85,0,54,0,0,0,0,99,4.21,4.206,4.209,4.218,4.22,4.218,28.45,78.26,9841.3800363808,22.309712,6,P-GPS,
8500,2023-10-09 18:10:52,38.4981119301332,-112.064375074261,22.96588,,,9842.0362043808,9.186352,5.7265664,5.7159122564,8.1483598408,16,5,24.978,9842.0362043808,22.96588,5.7265664,5.7159122564,-4.47388,3.579104,-5.144962,140.1, -13.6, -1.1,0,0,1589,1024,1378,1024,86,0,54,0,0,0,0,99,4.21,4.206,4.209,4.218,4.22,4.218,28.45,78.26,9842.0362043808,22.96588,6,P-GPS,
8600,2023-10-09 18:10:52,38.4981099417059,-112.064373034589,23.950132,,,9843.0204563808,3.28084,6.3529096,6.6442259344,9.0787076396,16,5,24.978,9843.0204563808,23.950132,6.3529096,6.6442259344,-4.921268,4.026492,-4.921268,139.9, -13.7, -1.1,0,0,1602,1024,1378,1024,88,0,54,0,0,0,0,99,4.21,4.206,4.209,4.218,4.22,4.218,28.45,78.26,9843.0204563808,23.950132,6,P-GPS,
8700,2023-10-09 18:10:52,38.4981079435254,-112.064371015026,24.6063,,,9843.6766243808,3.937008,6.6660812,7.5725396124,10.0082352284,16,5,24.978,9843.6766243808,24.6063,6.6660812,7.5725396124,-5.144962,4.250186,-4.921268,139.9, -13.9, -0.8,0,0,1618,1024,1378,1024,90,0,54,0,0,0,0,99,4.21,4.206,4.209,4.218,4.22,4.218,28.45,78.26,9843.6766243808,24.6063,6,P-GPS,
8800,2023-10-09 18:10:52,38.4981056785193,-112.064368660032,25.262468,,,9844.3327923808,4.593176,7.2924244,8.6362207488,11.07365521,16,5,24.978,9844.3327923808,25.262468,7.2924244,8.6362207488,-5.59235,4.697574,-4.697574,139.8, -14.1, -0.5,0,0,1625,1024,1379,1024,91,0,54,0,0,0,0,99,4.195,4.194,4.201,4.2,4.203,4.205,25.548,78.26,9844.3327923808,25.262468,6,P-GPS,
8900,2023-10-09 18:10:52,38.4981032044473,-112.064366191818,25.918636,,,9844.9889603808,5.249344,7.7845512,9.780840208,12.2188652204,16,5,24.978,9844.9889603808,25.918636,7.7845512,9.780840208,-6.039738,4.921268,-4.697574,139.8, -14.5, -0.4,0,0,1627,1024,1376,1024,91,0,53,0,0,0,0,99,4.195,4.194,4.201,4.2,4.203,4.205,25.548,78.26,9844.9889603808,25.918636,6,P-GPS,
9000,2023-10-09 18:10:53,38.4981006289786,-112.064363512819,26.574804,,,9845.6451283808,5.905512,8.276678,10.9911748924,13.4305122408,16,5,24.978,9845.6451283808,26.574804,8.276678,10.9911748924,-6.487126,5.144962,-4.47388,139.8, -14.7, -0.2,0,0,1634,1024,1377,1024,92,0,53,0,0,0,0,99,4.195,4.194,4.201,4.2,4.203,4.205,25.548,78.26,9845.6451283808,26.574804,6,P-GPS,
9100,2023-10-09 18:10:53,38.4980976075827,-112.064360493595,27.230972,,,9846.3012963808,6.889764,8.7464354,12.3902234936,14.8299545428,16,5,24.978,9846.3012963808,27.230972,8.7464354,12.3902234936,-6.71082,5.59235,-4.47388,139.7, -14.8, -0.4,0,0,1658,1024,1381,1024,96,0,54,0,0,0,0,98,4.195,4.194,4.201,4.2,4.203,4.205,25.548,78.26,9846.3012963808,27.230972,6,P-GPS,
9200,2023-10-09 18:10:53,38.4980946949433,-112.064357453243,27.88714,,,9846.9574643808,6.889764,9.3727786,13.7612537212,16.2021658728,16,5,24.978,9846.9574643808,27.88714,9.3727786,13.7612537212,-7.158208,6.039738,-4.47388,139.8, -15.1, -0.6,0,0,1665,1024,1384,1024,97,0,55,0,0,0,0,98,4.195,4.194,4.201,4.2,4.203,4.205,25.548,78.26,9846.9574643808,27.88714,6,P-GPS,
9300,2023-10-09 18:10:53,38.4980917037534,-112.064354555016,28.543308,,,9847.6136323808,6.889764,9.842536,15.1308731876,17.5717853392,16,5,24.978,9847.6136323808,28.543308,9.842536,15.1308731876,-7.605596,6.263432,-4.47388,139.8, -15.3, -0.8,0,0,1668,1024,1379,1024,98,0,54,0,0,0,0,98,4.195,4.194,4.201,4.2,4.203,4.205,25.548,78.26,9847.6136323808,28.543308,6,P-GPS,
9400,2023-10-09 18:10:53,38.4980884844213,-112.06435118748,29.52756,,,9848.5978843808,6.889764,10.4912486,16.6477367532,19.0897643904,16,5,24.978,9848.5978843808,29.52756,10.4912486,16.6477367532,-8.052984,6.71082,-4.47388,139.8, -15.4, -0.9,0,0,1669,1024,1377,1024,98,0,53,0,0,0,0,98,4.195,4.194,4.201,4.2,4.203,4.205,25.548,78.26,9848.5978843808,29.52756,6,P-GPS,
9500,2023-10-09 18:10:53,38.4980846558996,-112.064347582778,30.183728,,,9849.2540523808,6.889764,10.8044202,18.3826777536,20.8248694328,16,5,24.978,9849.2540523808,30.183728,10.8044202,18.3826777536,-8.276678,6.934514,-4.47388,139.9, -15.4, -0.6,0,0,1679,1024,1382,1024,99,0,54,0,0,0,0,98,4.195,4.194,4.201,4.2,4.203,4.205,25.548,78.26,9849.2540523808,30.183728,6,P-GPS,
9600,2023-10-09 18:10:53,38.4980810891962,-112.064343856975,30.839896,,,9849.9102203808,6.889764,11.4307634,20.0624678336,22.5057093816,16,5,24.978,9849.9102203808,30.839896,11.4307634,20.0624678336,-8.724066,7.381902,-4.47388,139.8, -15.6, -0.2,0,0,1684,1024,1378,1024,100,0,54,0,0,0,0,98,4.195,4.194,4.201,4.2,4.203,4.205,25.548,78.26,9849.9102203808,30.839896,6,P-GPS,
9700,2023-10-09 18:10:53,38.4980774047514,-112.06434012127,31.496064,,,9850.5663883808,6.889764,11.9228902,21.7782487284,24.221785552,16,5,24.978,9850.5663883808,31.496064,11.9228902,21.7782487284,-9.171454,7.605596,-4.47388,139.8, -16, 0.2,0,0,1684,1024,1366,1024,100,0,52,0,0,0,0,98,4.195,4.194,4.201,4.2,4.203,4.205,25.548,78.26,9850.5663883808,31.496064,6,P-GPS,
9800,2023-10-09 18:10:53,38.4980735121269,-112.064336077249,32.152232,,,9851.2225563808,6.889764,12.5492334,23.607940388,26.0521989964,16,5,24.648,9851.2225563808,32.152232,12.5492334,23.607940388,-9.618842,8.052984,-4.47388,139.7, -16.3, 0.5,0,0,1684,1024,1360,1024,100,0,51,0,0,0,0,98,4.192,4.197,4.201,4.194,4.197,4.199,21.588,78.26,9851.2225563808,32.152232,6,P-GPS,
9900,2023-10-09 18:10:54,38.4980696326082,-112.064332127149,32.8084,,,9851.8787243808,6.889764,13.0413602,25.4175533068,27.8620743824,16,5,24.648,9851.8787243808,32.8084,13.0413602,25.4175533068,-10.06623,8.276678,-4.47388,139.7, -16.3, 0.3,0,0,1684,1024,1353,1024,100,0,50,0,0,0,0,98,4.192,4.197,4.201,4.194,4.197,4.199,21.588,78.26,9851.8787243808,32.8084,6,P-GPS,
10000,2023-10-09 18:10:54,38.4980654175608,-112.064327778285,33.464568,,,9852.5348923808,6.889764,13.6677034,27.393701664,29.8387148656,16,5,24.648,9852.5348923808,33.464568,13.6677034,27.393701664,-10.513618,8.724066,-4.250186,139.7, -16.2, -0.2,0,0,1684,1024,1351,1024,100,0,50,0,0,0,0,98,4.192,4.197,4.201,4.194,4.197,4.199,21.588,78.26,9852.5348923808,33.464568,6,P-GPS,
10100,2023-10-09 18:10:54,38.4980608300139,-112.064323333969,34.120736,,,9853.1910603808,6.889764,13.980875,29.4940626236,31.9391742504,16,5,24.648,9853.1910603808,34.120736,13.980875,29.4940626236,-10.737312,8.94776,-4.250186,139.8, -16.5, -0.5,0,0,1684,1024,1347,1024,100,0,49,0,0,0,0,98,4.192,4.197,4.201,4.194,4.197,4.199,21.588,78.26,9853.1910603808,34.120736,6,P-GPS,
10200,2023-10-09 18:10:54,38.4980562965082,-112.064318653671,34.776904,,,9853.8472283808,6.889764,14.6072182,31.620079752,34.065617888,16,5,24.648,9853.8472283808,34.776904,14.6072182,31.620079752,-11.1847,9.395148,-4.250186,139.7, -17, -0.6,0,0,1684,1024,1343,1024,100,0,48,0,0,0,0,98,4.192,4.197,4.201,4.194,4.197,4.199,21.588,78.26,9853.8472283808,34.776904,6,P-GPS,
10300,2023-10-09 18:10:54,38.4980510726012,-112.06431377018,35.433072,,,9854.5033963808,6.889764,15.099345,33.980972216,36.42716652,16,5,24.648,9854.5033963808,35.433072,15.099345,33.980972216,-11.632088,9.618842,-4.026492,139.7, -17.4, -0.4,0,0,1684,1024,1338,1024,100,0,48,0,0,0,0,98,4.192,4.197,4.201,4.194,4.197,4.199,21.588,78.26,9854.5033963808,35.433072,6,P-GPS,
10400,2023-10-09 18:10:54,38.498046176238,-112.064308725983,35.761156,,,9854.8314803808,6.889764,15.7256882,36.274935544,38.7221141,16,5,24.648,9854.8314803808,35.761156,15.7256882,36.274935544,-12.079476,10.06623,-4.026492,139.6, -17.5, -0.2,0,0,1684,1024,1338,1024,100,0,48,0,0,0,0,98,4.192,4.197,4.201,4.194,4.197,4.199,21.588,78.26,9854.8314803808,35.761156,6,P-GPS,
10500,2023-10-09 18:10:54,38.4980411136068,-112.064303733511,36.417324,,,9855.4876483808,6.889764,15.7256882,38.608268952,41.055119424,16,5,24.648,9855.4876483808,36.417324,15.7256882,38.608268952,-12.30317,10.289924,-4.026492,139.6, -17.2, -0.1,0,0,1684,1024,1338,1024,100,0,48,0,0,0,0,98,4.192,4.197,4.201,4.194,4.197,4.199,21.588,78.26,9855.4876483808,36.417324,6,P-GPS,
10600,2023-10-09 18:10:54,38.498035899376,-112.064298353409,37.073492,,,9856.1438163808,6.889764,16.665203,41.05315092,43.500329476,16,5,24.648,9856.1438163808,37.073492,16.665203,41.05315092,-12.750558,10.737312,-3.802798,139.7, -16.7, 0,0,0,1684,1024,1338,1024,100,0,48,0,0,0,0,98,4.192,4.197,4.201,4.194,4.197,4.199,21.588,78.26,9856.1438163808,37.073492,6,P-GPS,
10700,2023-10-09 18:10:54,38.4980307148504,-112.064292643622,37.72966,,,9856.7999843808,6.889764,16.665203,43.547245488,45.997704884,16,5,24.648,9856.7999843808,37.72966,16.665203,43.547245488,-13.197946,11.1847,-3.802798,139.7, -16, 0,0,0,1684,1024,1339,1024,100,0,48,0,0,0,0,98,4.192,4.197,4.201,4.194,4.197,4.199,21.588,78.26,9856.7999843808,37.72966,6,P-GPS,
10800,2023-10-09 18:10:54,38.4980252213285,-112.064286930487,38.385828,,,9857.4561523808,6.889764,17.6047178,46.130906988,48.582022552,16,5,24.648,9857.4561523808,38.385828,17.6047178,46.130906988,-13.42164,11.408394,-3.802798,139.8, -15.9, 0.1,0,0,1684,1024,1338,1024,100,0,48,0,0,0,0,98,4.192,4.197,4.201,4.194,4.197,4.199,21.588,78.26,9857.4561523808,38.385828,6,P-GPS,
10900,2023-10-09 18:10:54,38.4980196052101,-112.064281116309,38.713912,,,9857.7842363808,6.889764,17.6047178,48.767718096,51.219161744,16,5,24.42,9857.7842363808,38.713912,17.6047178,48.767718096,-13.869028,11.632088,-3.802798,139.8, -15.9, 0.2,0,0,1684,1024,1335,1024,100,0,47,0,0,0,0,98,4.19,4.192,4.195,4.193,4.195,4.197,24.222,78.44,9857.7842363808,38.713912,6,P-GPS,
11000,2023-10-09 18:10:55,38.4980138268054,-112.064275115614,39.37008,,,9858.4404043808,6.889764,18.566602,51.483925532,53.936025348,16,5,24.42,9858.4404043808,39.37008,18.566602,51.483925532,-14.092722,12.079476,-3.579104,139.8, -16, 0.4,0,0,1684,1024,1326,1024,100,0,46,0,0,0,0,98,4.19,4.192,4.195,4.193,4.195,4.197,24.222,78.44,9858.4404043808,39.37008,6,P-GPS,
11100,2023-10-09 18:10:55,38.4980079243999,-112.064269158104,40.026248,,,9859.0965723808,6.889764,19.0363594,54.228348192,56.680119924,16,5,24.42,9859.0965723808,40.026248,19.0363594,54.228348192,-14.54011,12.30317,-3.579104,139.8, -16.1, 0.4,0,0,1684,1024,1310,1024,100,0,43,0,0,0,0,98,4.19,4.192,4.195,4.193,4.195,4.197,24.222,78.44,9859.0965723808,40.026248,6,P-GPS,
11200,2023-10-09 18:10:55,38.4980018638698,-112.064262901469,40.354332,,,9859.4246563808,6.889764,19.3719004,57.070867968,59.522967784,16,5,24.42,9859.4246563808,40.354332,19.3719004,57.070867968,-14.763804,12.526864,-3.579104,139.9, -16.2, 0.3,0,0,1684,1024,1291,1024,100,0,40,0,0,0,0,98,4.19,4.192,4.195,4.193,4.195,4.197,24.222,78.44,9859.4246563808,40.354332,6,P-GPS,
11300,2023-10-09 18:10:55,38.4979958322056,-112.064256537061,41.0105,,,9860.0808243808,6.889764,19.3719004,59.924214516,62.3769705,16,5,24.42,9860.0808243808,41.0105,19.3719004,59.924214516,-15.211192,12.750558,-3.579104,140, -16.2, 0.2,0,0,1684,1024,1284,1024,100,0,39,0,0,0,0,98,4.19,4.192,4.195,4.193,4.195,4.197,24.222,78.44,9860.0808243808,41.0105,6,P-GPS,
11400,2023-10-09 18:10:55,38.4979895181248,-112.064250016553,41.666668,,,9860.7369923808,6.889764,20.3114152,62.885828784,65.338912852,16,5,24.42,9860.7369923808,41.666668,20.3114152,62.885828784,-15.434886,13.197946,-3.35541,140, -16.2, 0.2,0,0,1684,1024,1284,1024,100,0,39,0,0,0,0,98,4.19,4.192,4.195,4.193,4.195,4.197,24.222,78.44,9860.7369923808,41.666668,6,P-GPS,
11500,2023-10-09 18:10:55,38.4979833227701,-112.064243997268,41.994752,,,9861.0650763808,6.889764,20.3114152,65.72506772,68.178479872,16,5,24.42,9861.0650763808,41.994752,20.3114152,65.72506772,-15.882274,13.42164,-3.131716,140.1, -16.2, 0.2,0,0,1684,1024,1257,1024,100,0,35,0,0,0,0,98,4.19,4.192,4.195,4.193,4.195,4.197,24.222,78.44,9861.0650763808,41.994752,6,P-GPS,
11600,2023-10-09 18:10:55,38.4979767850749,-112.064237300769,42.322836,,,9861.3931603808,6.889764,21.1167136,68.782154432,71.235566584,16,5,24.42,9861.3931603808,42.322836,21.1167136,68.782154432,-16.105968,13.645334,-3.131716,140.1, -17.3, 0.3,0,0,1684,1024,1257,1024,100,0,35,0,0,0,0,98,4.19,4.192,4.195,4.193,4.195,4.197,24.222,78.44,9861.3931603808,42.322836,6,P-GPS,
11700,2023-10-09 18:10:55,38.4979702465319,-112.064230401669,42.979004,,,9862.0493283808,6.889764,21.586471,71.8750023,74.329398704,16,5,24.42,9862.0493283808,42.979004,21.586471,71.8750023,-16.553356,13.869028,-2.908022,140, -18.8, 0.3,0,0,1684,1024,1251,1024,100,0,34,0,0,0,0,98,4.19,4.192,4.195,4.193,4.195,4.197,24.222,78.44,9862.0493283808,42.979004,6,P-GPS,
11800,2023-10-09 18:10:55,38.4979634449675,-112.064223440356,43.307088,,,9862.3774123808,6.889764,21.8996426,75.054464344,77.509188832,16,5,24.42,9862.3774123808,43.307088,21.8996426,75.054464344,-16.77705,14.092722,-2.684328,140, -19.7, 0.1,0,0,1684,1024,1242,1024,100,0,33,0,0,0,0,98,4.197,4.199,4.203,4.2,4.201,4.202,24.222,78.44,9862.3774123808,43.307088,6,P-GPS,
11900,2023-10-09 18:10:55,38.4979557997069,-112.064215905957,43.635172,,,9862.7054963808,6.889764,22.3917694,78.577102252,81.03182674,16,5,24.42,9862.7054963808,43.635172,22.3917694,78.577102252,-17.224438,14.316416,-2.460634,140, -20.1, 0,0,0,1684,1024,1236,1024,100,0,32,0,0,0,0,98,4.197,4.199,4.203,4.2,4.201,4.202,24.222,78.44,9862.7054963808,43.635172,6,P-GPS,
12000,2023-10-09 18:10:56,38.4979486283403,-112.064208602059,44.29134,,,9863.3616643808,6.889764,23.0181126,81.922902884,84.377627372,16,5,24.42,9863.3616643808,44.29134,23.0181126,81.922902884,-17.671826,14.763804,-2.460634,140, -19.8, -0.2,0,0,1684,1024,1235,1024,100,0,32,0,0,0,0,98,4.197,4.199,4.203,4.2,4.201,4.202,24.222,78.44,9863.3616643808,44.29134,6,P-GPS,
12100,2023-10-09 18:10:56,38.4979414712055,-112.064201148484,44.619424,,,9863.6897483808,6.889764,23.3536536,85.291341312,87.746393884,16,5,24.42,9863.6897483808,44.619424,23.3536536,85.291341312,-17.89552,14.987498,-2.23694,140.1, -19.5, -0.5,0,0,1684,1024,1235,1024,100,0,32,0,0,0,0,98,4.197,4.199,4.203,4.2,4.201,4.202,24.222,78.44,9863.6897483808,44.619424,6,P-GPS,
12200,2023-10-09 18:10:56,38.4979340303097,-112.064193552748,44.947508,,,9864.0178323808,6.889764,23.9799968,88.766078956,91.221131528,16,5,24.42,9864.0178323808,44.947508,23.9799968,88.766078956,-18.342908,15.434886,-2.23694,140.1, -19.3, -0.4,0,0,1684,1024,1233,1024,100,0,32,0,0,0,0,98,4.197,4.199,4.203,4.2,4.201,4.202,24.222,78.44,9864.0178323808,44.947508,6,P-GPS,
12300,2023-10-09 18:10:56,38.4979270907952,-112.064186300384,45.275592,,,9864.3459163808,6.889764,24.4497542,92.036420268,94.492129008,16,5,24.42,9864.3459163808,45.275592,24.4497542,92.036420268,-18.790296,15.65858,-2.013246,140, -18.9, -0.1,0,0,1684,1024,1228,1024,100,0,31,0,0,0,0,98,4.197,4.199,4.203,4.2,4.201,4.202,24.222,78.44,9864.3459163808,45.275592,6,P-GPS,
12400,2023-10-09 18:10:56,38.4979194282545,-112.064178482615,45.603676,,,9864.6740003808,6.889764,24.7852952,95.614176288,98.069556944,16,5,24.42,9864.6740003808,45.603676,24.7852952,95.614176288,-19.01399,15.882274,-2.013246,140.1, -18.6, -0.1,0,0,1684,1024,1218,1024,100,0,29,0,0,0,0,98,4.197,4.199,4.203,4.2,4.201,4.202,24.222,78.44,9864.6740003808,45.603676,6,P-GPS,
12500,2023-10-09 18:10:56,38.4979108591993,-112.064170099792,45.603676,,,9864.6740003808,6.889764,25.0984668,99.551184288,102.007221112,16,5,24.42,9864.6740003808,45.603676,25.0984668,99.551184288,-19.237684,16.105968,-1.565858,140.3, -19.8, -0.5,0,0,1684,1024,1213,1024,100,0,29,0,0,0,0,98,4.197,4.199,4.203,4.2,4.201,4.202,24.222,78.44,9864.6740003808,45.603676,6,P-GPS,
12600,2023-10-09 18:10:56,38.4979028989227,-112.064162033698,45.93176,,,9865.0020843808,6.889764,25.5682242,103.25787732,105.713914144,16,5,24.42,9865.0020843808,45.93176,25.5682242,103.25787732,-19.685072,16.329662,-1.11847,140.4, -20.8, -1,0,0,1684,1024,1196,1024,100,0,26,0,0,0,0,98,4.197,4.199,4.203,4.2,4.201,4.202,24.222,78.44,9865.0020843808,45.93176,6,P-GPS,
12700,2023-10-09 18:10:56,38.4978954375784,-112.064154598045,46.259844,,,9865.3301683808,6.889764,25.8813958,106.709977168,109.166342076,16,5,24.42,9865.3301683808,46.259844,25.8813958,106.709977168,-19.908766,16.553356,-0.894776,140.4, -20.9, -1.3,0,0,1684,1024,1193,1024,100,0,26,0,0,0,0,98,4.197,4.199,4.203,4.2,4.201,4.202,24.222,78.44,9865.3301683808,46.259844,6,P-GPS,
12800,2023-10-09 18:10:56,38.497887287203,-112.06414633144,46.259844,,,9865.3301683808,6.889764,26.3735226,110.506565216,112.962930124,16,5,24.396,9865.3301683808,46.259844,26.3735226,110.506565216,-20.356154,16.77705,-0.671082,140.4, -20.6, -1.2,0,0,1684,1024,1193,1024,100,0,26,0,0,0,0,98,4.209,4.246,4.225,4.215,4.22,4.217,24.32,78.26,9865.3301683808,46.259844,6,P-GPS,
12900,2023-10-09 18:10:56,38.497878357902,-112.064137312136,46.259844,,,9865.3301683808,6.889764,26.6866942,114.659452488,117.115817396,16,5,24.396,9865.3301683808,46.259844,26.6866942,114.659452488,-20.579848,17.000744,-0.223694,140.2, -19.8, -0.9,0,0,1684,1024,1193,1014,100,0,26,-2,0,0,0,98,4.209,4.246,4.225,4.215,4.22,4.217,24.32,78.26,9865.3301683808,46.259844,6,P-GPS,
13000,2023-10-09 18:10:57,38.4978699129419,-112.064128719895,46.259844,,,9865.3301683808,6.889764,27.1564516,118.598100908,121.054465816,16,5,24.396,9865.3301683808,46.259844,27.1564516,118.598100908,-20.803542,17.448132,-0.223694,140.1, -19, -0.3,0,0,1684,1024,1193,1001,100,0,26,-3,0,0,0,98,4.209,4.246,4.225,4.215,4.22,4.217,24.32,78.26,9865.3301683808,46.259844,6,P-GPS,
13100,2023-10-09 18:10:57,38.4978620581445,-112.064120714963,46.259844,,,9865.3301683808,6.889764,27.6485784,122.26378344,124.720148348,16,5,24.396,9865.3301683808,46.259844,27.6485784,122.26378344,-21.25093,17.671826,0,140, -18.2, -0.1,0,0,1684,1024,1186,942,100,0,25,-12,0,0,0,98,4.209,4.246,4.225,4.215,4.22,4.217,24.32,78.26,9865.3301683808,46.259844,6,P-GPS,
13200,2023-10-09 18:10:57,38.497853444613,-112.064111963262,46.259844,,,9865.3301683808,6.889764,27.8051642,126.278875432,128.73524034,16,5,24.396,9865.3301683808,46.259844,27.8051642,126.278875432,-21.474624,17.671826,0,140, -17.6, -0.9,0,0,1684,1024,1185,933,100,0,24,-14,0,0,0,98,4.209,4.246,4.225,4.215,4.22,4.217,24.32,78.26,9865.3301683808,46.259844,6,P-GPS,
13300,2023-10-09 18:10:57,38.4978447649066,-112.064103012101,46.259844,,,9865.3301683808,6.889764,28.2749216,130.348429368,132.804794276,16,5,24.396,9865.3301683808,46.259844,28.2749216,130.348429368,-21.698318,18.119214,0,139.7, -17.1, -3,0,0,1684,1024,1184,915,100,0,24,-17,0,0,0,98,4.209,4.246,4.225,4.215,4.22,4.217,24.32,78.26,9865.3301683808,46.259844,6,P-GPS,
13400,2023-10-09 18:10:57,38.4978359885239,-112.064094016627,46.259844,,,9865.3301683808,6.889764,28.5880932,134.453416376,136.909781284,16,5,24.396,9865.3301683808,46.259844,28.5880932,134.453416376,-21.922012,18.342908,0,139.3, -16.2, -8.2,0,0,1684,1024,1179,917,100,0,23,-16,0,0,0,98,4.209,4.246,4.225,4.215,4.22,4.217,24.32,78.26,9865.3301683808,46.259844,6,P-GPS,
13500,2023-10-09 18:10:57,38.4978276666829,-112.064085615422,46.259844,,,9865.3301683808,6.889764,28.8788954,138.322839072,140.77920398,16,5,24.396,9865.3301683808,46.259844,28.8788954,138.322839072,-21.922012,18.790296,0,138.6, -14.8, -14,0,0,1684,1024,1179,921,100,0,23,-16,0,0,0,98,4.209,4.246,4.225,4.215,4.22,4.217,24.32,78.26,9865.3301683808,46.259844,6,P-GPS,
13600,2023-10-09 18:10:57,38.49781899804,-112.064076225206,46.259844,,,9865.3301683808,6.889764,28.9907424,142.466868076,144.925857656,16,5,24.396,9865.3301683808,46.259844,28.9907424,142.466868076,-21.698318,19.237684,0,137.6, -13.5, -17.9,0,0,1684,1024,1181,924,100,0,24,-15,0,0,0,98,4.209,4.246,4.225,4.215,4.22,4.217,24.32,78.26,9865.3301683808,46.259844,6,P-GPS,
13700,2023-10-09 18:10:57,38.4978096197635,-112.064065712102,46.259844,,,9865.3301683808,6.889764,29.1249588,147.013456148,149.477695072,16,5,24.396,9865.3301683808,46.259844,29.1249588,147.013456148,-21.25093,19.908766,0,136.4, -12.7, -18.8,0,0,1684,1024,1188,917,100,0,25,-16,0,0,0,98,4.209,4.246,4.225,4.215,4.22,4.217,24.32,78.26,9865.3301683808,46.259844,6,P-GPS,
13800,2023-10-09 18:10:57,38.4978011981121,-112.064055615184,46.259844,,,9865.3301683808,6.889764,29.2591752,151.213587516,153.6909498,16,5,24.396,9865.3301683808,46.259844,29.2591752,151.213587516,-20.803542,20.579848,0,135.4, -12.3, -17.1,0,0,1684,1024,1186,918,100,0,25,-16,0,0,0,98,4.209,4.246,4.225,4.215,4.22,4.217,24.32,78.26,9865.3301683808,46.259844,6,P-GPS,
13900,2023-10-09 18:10:58,38.4977933093197,-112.064045105384,46.259844,,,9865.3301683808,6.889764,29.5723468,155.336619144,157.849086416,16,5,24.366,9865.3301683808,46.259844,29.5723468,155.336619144,-20.579848,21.25093,0,134.5, -12.3, -14.6,0,0,1684,1024,1185,917,100,0,24,-16,0,0,0,98,4.209,4.246,4.225,4.215,4.22,4.217,22.078,78.44,9865.3301683808,46.259844,6,P-GPS,
14000,2023-10-09 18:10:58,38.4977852141245,-112.064034485536,46.259844,,,9865.3301683808,6.889764,29.4381304,159.540031352,162.082354268,16,5,24.366,9865.3301683808,46.259844,29.5723468,159.540031352,-20.13246,21.474624,0,133.7, -12.5, -11.9,0,0,1684,1024,1184,917,100,0,24,-16,0,0,0,98,4.209,4.246,4.225,4.215,4.22,4.217,22.078,78.44,9865.3301683808,46.259844,6,P-GPS,
14100,2023-10-09 18:10:58,38.4977773853074,-112.064023538738,46.259844,,,9865.3301683808,6.889764,29.6170856,163.72867978,166.316606372,16,5,24.366,9865.3301683808,46.259844,29.6170856,163.72867978,-19.908766,21.922012,0,132.9, -13, -10.2,0,0,1684,1024,1186,961,100,0,25,-10,0,0,0,98,4.209,4.246,4.225,4.215,4.22,4.217,22.078,78.44,9865.3301683808,46.259844,6,P-GPS,
14200,2023-10-09 18:10:58,38.4977695134012,-112.064012535745,46.259844,,,9865.3301683808,6.889764,29.639455,167.941934508,170.573168188,16,5,24.366,9865.3301683808,46.259844,29.639455,167.941934508,-19.685072,22.145706,0,132.2, -13.3, -9.4,0,0,1684,1024,1183,972,100,0,24,-8,0,0,0,98,4.209,4.246,4.225,4.215,4.22,4.217,22.078,78.44,9865.3301683808,46.259844,6,P-GPS,
14300,2023-10-09 18:10:58,38.4977624073364,-112.064002226675,46.259844,,,9865.3301683808,6.889764,29.6841938,171.81595038,174.495740492,16,5,24.366,9865.3301683808,46.259844,29.6841938,171.81595038,-19.237684,22.593094,0,131.7, -13.7, -7.9,0,0,1684,1024,1182,992,100,0,24,-5,0,0,0,98,4.209,4.246,4.225,4.215,4.22,4.217,22.078,78.44,9865.3301683808,46.259844,6,P-GPS,
14400,2023-10-09 18:10:58,38.4977547456692,-112.06399097004,46.259844,,,9865.3301683808,6.889764,29.7065632,176.021003008,178.755583148,16,5,24.366,9865.3301683808,46.259844,29.7065632,176.021003008,-19.01399,22.816788,0,131.2, -14.7, -5.3,0,0,1684,1024,1181,1024,100,0,24,0,0,0,0,98,4.209,4.246,4.225,4.215,4.22,4.217,22.078,78.44,9865.3301683808,46.259844,6,P-GPS,
14500,2023-10-09 18:10:58,38.4977463668328,-112.063978408672,45.93176,,,9865.0020843808,6.889764,29.863149,180.668640952,183.468509808,16,5,24.366,9865.3301683808,46.259844,29.863149,180.668640952,-19.01399,23.040482,0,130.8, -16, -1.9,0,0,1684,1024,1178,1024,100,0,23,0,0,0,0,98,4.209,4.246,4.225,4.215,4.22,4.217,22.078,78.44,9865.0020843808,45.93176,6,P-GPS,
14600,2023-10-09 18:10:58,38.4977386196382,-112.063966802001,45.93176,,,9865.0020843808,6.889764,30.19869,184.967525604,187.824152992,16,5,24.366,9865.3301683808,46.259844,30.19869,184.967525604,-19.237684,23.264176,0,130.4, -16.6, 2.2,0,0,1684,1024,1174,1024,100,0,23,0,0,0,0,98,4.209,4.246,4.225,4.215,4.22,4.217,22.078,78.44,9865.0020843808,45.93176,6,P-GPS,
14700,2023-10-09 18:10:58,38.4977308466175,-112.063955449608,45.93176,,,9865.0020843808,6.889764,30.3329064,189.22900868,192.131239744,16,5,24.366,9865.3301683808,46.259844,30.3329064,189.22900868,-19.461378,23.264176,0,130.2, -17, 3.5,0,0,1684,1024,1171,1024,100,0,22,0,0,0,0,98,4.209,4.246,4.225,4.215,4.22,4.217,22.078,78.44,9865.0020843808,45.93176,6,P-GPS,
14800,2023-10-09 18:10:58,38.4977228854161,-112.063943786699,45.93176,,,9865.0020843808,6.889764,30.646078,193.6023684,196.55020314,16,5,24.366,9865.3301683808,46.259844,30.646078,193.6023684,-19.685072,23.48787,0,130.3, -17, 2.5,0,0,1684,1024,1165,1024,100,0,21,0,0,0,0,98,4.209,4.246,4.225,4.215,4.22,4.217,22.078,78.44,9865.0020843808,45.93176,6,P-GPS,
14900,2023-10-09 18:10:59,38.4977153719231,-112.063932742851,45.93176,,,9865.0020843808,6.889764,30.7802944,197.738851472,200.728680964,16,5,24.36,9865.3301683808,46.259844,30.7802944,197.738851472,-19.908766,23.48787,0,130.5, -16.6, 0.6,0,0,1684,1024,1158,1024,100,0,20,0,0,0,0,98,4.19,4.194,4.192,4.195,4.194,4.196,21.788,78.44,9865.0020843808,45.93176,6,P-GPS,
15000,2023-10-09 18:10:59,38.49770725991,-112.063921017883,45.93176,,,9865.0020843808,6.889764,30.7802944,202.168969724,205.197513128,16,5,24.36,9865.3301683808,46.259844,30.7802944,202.168969724,-20.13246,23.711564,0,130.6, -16.6, -0.9,0,0,1684,1024,1143,1024,100,0,18,0,0,0,0,98,4.19,4.194,4.192,4.195,4.194,4.196,21.788,78.44,9865.0020843808,45.93176,6,P-GPS,
15100,2023-10-09 18:10:59,38.4976982704624,-112.063908242983,45.93176,,,9865.0020843808,6.889764,31.429007,207.039376704,210.102697012,16,5,24.36,9865.3301683808,46.259844,31.429007,207.039376704,-20.356154,23.935258,0,130.7, -17.2, -1.5,0,0,1684,1024,1138,1024,100,0,17,0,0,0,0,98,4.19,4.194,4.192,4.195,4.194,4.196,21.788,78.44,9865.0020843808,45.93176,6,P-GPS,
15200,2023-10-09 18:10:59,38.497689954547,-112.06389626365,45.93176,,,9865.0020843808,6.889764,31.5632234,211.576778424,214.67520372,16,5,24.36,9865.3301683808,46.259844,31.5632234,211.576778424,-20.579848,23.935258,0,130.7, -17.4, -1.3,0,0,1684,1024,1063,1024,100,0,6,0,0,0,0,98,4.19,4.194,4.192,4.195,4.194,4.196,21.788,78.44,9865.0020843808,45.93176,6,P-GPS,
15300,2023-10-09 18:10:59,38.4976815384443,-112.063884414564,45.93176,,,9865.0020843808,6.889764,31.5632234,216.118445236,219.244101504,16,5,24.36,9865.3301683808,46.259844,31.5632234,216.118445236,-20.803542,24.158952,0,130.7, -17.5, -1,0,0,1684,1024,1031,1024,100,0,1,0,0,0,0,98,4.19,4.194,4.192,4.195,4.194,4.196,21.788,78.44,9865.0020843808,45.93176,6,P-GPS,
15400,2023-10-09 18:10:59,38.4976730616812,-112.063872300258,45.93176,,,9865.0020843808,6.889764,32.1895666,220.728025436,223.8845216,16,5,24.36,9865.3301683808,46.259844,32.1895666,220.728025436,-21.027236,24.382646,0,130.8, -17.4, -1,0,0,1684,1024,1024,1024,100,0,0,0,0,0,0,98,4.19,4.194,4.192,4.195,4.194,4.196,21.788,78.44,9865.0020843808,45.93176,6,P-GPS,
15500,2023-10-09 18:10:59,38.4976646023524,-112.063860261098,45.93176,,,9865.0020843808,6.889764,32.3461524,225.3198891,228.504272404,16,5,24.36,9865.3301683808,46.259844,32.3461524,225.3198891,-21.25093,24.382646,0,130.8, -17.2, -1.2,0,0,1684,1024,1024,1024,100,0,0,0,0,0,0,98,4.19,4.194,4.192,4.195,4.194,4.196,21.788,78.44,9865.0020843808,45.93176,6,P-GPS,
15600,2023-10-09 18:10:59,38.4976560028301,-112.063848023637,45.93176,,,9865.0020843808,6.889764,32.5027382,229.98852442,233.20046678,16,5,24.36,9865.3301683808,46.259844,32.5027382,229.98852442,-21.25093,24.60634,0,130.9, -16.8, -1.4,0,0,1684,1024,1024,1024,100,0,0,0,0,0,0,98,4.19,4.194,4.192,4.195,4.194,4.196,21.788,78.44,9865.0020843808,45.93176,6,P-GPS,
15700,2023-10-09 18:10:59,38.4976473460041,-112.063835836288,45.93176,,,9865.0020843808,6.889764,32.659324,234.664377588,237.899941996,16,5,24.36,9865.3301683808,46.259844,32.659324,234.664377588,-21.474624,24.60634,0,130.9, -16.5, -1.2,0,0,1684,1024,1024,1024,100,0,0,0,0,0,0,98,4.19,4.194,4.192,4.195,4.194,4.196,21.788,78.44,9865.0020843808,45.93176,6,P-GPS,
15800,2023-10-09 18:10:59,38.4976386343406,-112.063823478253,45.93176,,,9865.0020843808,6.889764,32.659324,239.388787188,242.64928598,16,5,24.36,9865.3301683808,46.259844,32.659324,239.388787188,-21.698318,24.830034,0,130.9, -16.3, -1.3,0,0,1684,1024,1024,1024,100,0,0,0,0,0,0,98,4.19,4.194,4.192,4.195,4.194,4.196,21.788,78.44,9865.0020843808,45.93176,6,P-GPS,
15900,2023-10-09 18:11:00,38.4976291761881,-112.063810335724,45.93176,,,9865.0020843808,6.889764,32.9724956,244.466215172,247.747383256,16,5,24.402,9865.3301683808,46.259844,32.9724956,244.466215172,-21.698318,24.830034,0,131, -16.3, -1.9,0,0,1684,1024,1024,1024,100,0,0,0,0,0,0,98,4.185,4.192,4.201,4.188,4.193,4.192,22.578,78.44,9865.0020843808,45.93176,6,P-GPS,
16000,2023-10-09 18:11:00,38.4976202859687,-112.063797770066,45.93176,,,9865.0020843808,6.889764,32.9724956,249.280519788,252.584325668,16,5,24.402,9865.3301683808,46.259844,32.9724956,249.280519788,-21.922012,24.830034,0,131.1, -15.8, -2.5,0,0,1684,1024,1024,1024,100,0,0,0,0,0,0,98,4.185,4.192,4.201,4.188,4.193,4.192,22.578,78.44,9865.0020843808,45.93176,6,P-GPS,
16100,2023-10-09 18:11:00,38.4976122699641,-112.063786424281,45.93176,,,9865.0020843808,6.889764,33.2856672,253.625008116,256.94882712,16,5,24.402,9865.3301683808,46.259844,33.2856672,253.625008116,-21.922012,25.053728,0,131, -15.4, -2.3,0,0,1684,1024,1024,1024,100,0,0,0,0,0,0,98,4.185,4.192,4.201,4.188,4.193,4.192,22.578,78.44,9865.0020843808,45.93176,6,P-GPS,
16200,2023-10-09 18:11:00,38.4976034029676,-112.063773797483,45.93176,,,9865.0020843808,6.889764,33.2856672,258.44653058,261.79298738,16,5,24.402,9865.3301683808,46.259844,33.2856672,258.44653058,-21.922012,25.053728,0,130.9, -15.1, -1.7,0,0,1684,1027,1024,1024,100,0,0,0,0,0,0,98,4.185,4.192,4.201,4.188,4.193,4.192,22.578,78.44,9865.0020843808,45.93176,6,P-GPS,
16300,2023-10-09 18:11:00,38.4975946049547,-112.06376124745,45.93176,,,9865.0020843808,6.889764,33.5988388,263.235572728,266.604011156,16,5,24.402,9865.3301683808,46.259844,33.5988388,263.235572728,-22.145706,25.277422,0,130.9, -15.1, -1.2,0,0,1684,1058,1024,1046,100,5,0,3,0,0,0,98,4.185,4.192,4.201,4.188,4.193,4.192,22.578,78.44,9865.0020843808,45.93176,6,P-GPS,
16400,2023-10-09 18:11:00,38.4975856858609,-112.063748480427,45.93176,,,9865.0020843808,6.889764,33.777794,268.099746112,271.490494252,16,5,24.402,9865.3301683808,46.259844,33.777794,268.099746112,-22.145706,25.501116,0,130.7, -15, -0.6,0,0,1684,1063,1024,1051,100,6,0,4,0,0,0,98,4.185,4.192,4.201,4.188,4.193,4.192,22.578,78.44,9865.0020843808,45.93176,6,P-GPS,
16500,2023-10-09 18:11:00,38.497576636575,-112.063735775989,45.93176,,,9865.0020843808,6.889764,34.0909656,272.98721346,276.395678136,16,5,24.402,9865.3301683808,46.259844,34.0909656,272.98721346,-22.3694,25.72481,0,130.6, -15, -0.4,0,0,1684,1063,1024,1052,100,6,0,4,0,0,0,98,4.185,4.192,4.201,4.188,4.193,4.192,22.578,78.44,9865.0020843808,45.93176,6,P-GPS,
16600,2023-10-09 18:11:00,38.4975676452779,-112.063722917454,45.93176,,,9865.0020843808,6.889764,34.0909656,277.890100756,281.319562808,16,5,24.402,9865.3301683808,46.259844,34.0909656,277.890100756,-22.3694,25.72481,0,130.5, -14.9, 0,0,0,1684,1060,1024,1069,100,5,0,7,0,0,0,98,4.185,4.192,4.201,4.188,4.193,4.192,22.578,78.44,9865.0020843808,45.93176,6,P-GPS,
16700,2023-10-09 18:11:00,38.4975585550266,-112.063709980797,45.93176,,,9865.0020843808,6.889764,34.0909656,282.835310888,286.283801812,16,5,24.402,9865.3301683808,46.259844,34.0909656,282.835310888,-22.3694,25.72481,0,130.5, -14.8, 0.3,0,0,1684,1061,1024,1070,100,6,0,7,0,0,0,98,4.185,4.192,4.201,4.188,4.193,4.192,22.578,78.44,9865.0020843808,45.93176,6,P-GPS,
