time(millisecond),datetime(utc),latitude,longitude,height_above_takeoff(feet),height_above_ground_at_drone_location(feet),ground_elevation_at_drone_location(feet),altitude_above_seaLevel(feet),height_sonar(feet),speed(mph),distance(feet),mileage(feet),satellites,gpslevel,voltage(v),max_altitude(feet),max_ascent(feet),max_speed(mph),max_distance(feet), xSpeed(mph), ySpeed(mph), zSpeed(mph), compass_heading(degrees), pitch(degrees), roll(degrees),isPhoto,isVideo,rc_elevator,rc_aileron,rc_throttle,rc_rudder,rc_elevator(percent),rc_aileron(percent),rc_throttle(percent),rc_rudder(percent),gimbal_heading(degrees),gimbal_pitch(degrees),gimbal_roll(degrees),battery_percent,voltageCell1,voltageCell2,voltageCell3,voltageCell4,voltageCell5,voltageCell6,current(A),battery_temperature(f),altitude(feet),ascent(feet),flycStateRaw,flycState,message
0,2023-10-09 21:17:50,38.4981564612537,-112.064381761115,0,Available with any HD 360 subscription,Available with any HD 360 subscription,9819.6614520244,0.656168,0,0,0,17,5,0,9819.6614520244,0,0,0,0,0,0,149.3, -6.4, 0.6,0,0,364,364,364,1684,-100,-100,-100,100,0,0,0,100,3.869,3.873,3.878,3.878,3.88,3.881,0,91.22,9819.6614520244,0,6,P-GPS,
100,2023-10-09 21:17:50,38.4981564492132,-112.06438177959,0,,,9819.6614520244,0.656168,0,0.0068649280412,0.0068649280412,17,5,0,9819.6614520244,0,0,0.0068649280412,0,0,0,149.3, -6.4, 0.6,0,0,364,364,364,1684,-100,-100,-100,100,0,0,0,100,3.869,3.873,3.878,3.878,3.88,3.881,0,91.22,9819.6614520244,0,41,Motors_Started,
200,2023-10-09 21:17:50,38.4981564546692,-112.064381768597,0,,,9819.6614520244,0.656168,0,0.00321488527348,0.010581857294,17,5,0,9819.6614520244,0,0,0.0068649280412,0,0,0,149.3, -6.4, 0.5,0,0,364,364,364,1684,-100,-100,-100,100,0,0,0,100,3.869,3.873,3.878,3.878,3.88,3.881,0,91.22,9819.6614520244,0,41,Motors_Started,
300,2023-10-09 21:17:50,38.4981564449704,-112.06438178599,0,,,9819.6614520244,0.656168,0,0.0092599412412,0.0166800530272,17,5,0,9819.6614520244,0,0,0.0092599412412,0,0,0,149.3, -6.4, 0.5,0,0,364,364,364,1684,-100,-100,-100,100,0,0,0,100,3.869,3.873,3.878,3.878,3.88,3.881,0,91.22,9819.6614520244,0,41,Motors_Started,
400,2023-10-09 21:17:50,38.498156449369,-112.064381776818,0,,,9819.6614520244,0.656168,0,0.00623769705,0.0197515426268,17,5,0,9819.6614520244,0,0,0.0092599412412,0,0,0,149.3, -6.4, 0.5,0,0,364,364,364,1684,-100,-100,-100,100,0,0,0,100,3.869,3.873,3.878,3.878,3.88,3.881,0,91.22,9819.6614520244,0,41,Motors_Started,"Setting new Return-To-Home altitude to 61m (200 ft). Data Recorder File Index is 41. Setting new Maximum Flight Altitude to 500m (1640 ft)"
500,2023-10-09 21:17:50,38.498156441681,-112.064381637693,0,,,9819.6614520244,0.656168,0,0.035958334484,0.059576445476,17,5,0,9819.6614520244,0,0,0.035958334484,0,0,0,149.3, -6.4, 0.5,0,0,364,364,404,1684,-100,-100,-94,100,0,0,0,100,3.869,3.873,3.878,3.878,3.88,3.881,0,91.22,9819.6614520244,0,41,Motors_Started,
600,2023-10-09 21:17:50,38.4981564449867,-112.064381616809,0,,,9819.6614520244,0.656168,0,0.04163057876,0.065660435172,17,5,0,9819.6614520244,0,0,0.04163057876,0,0,0,149.3, -6.4, 0.5,0,0,606,521,1021,1024,-63,-76,-0,0,0,0,0,100,3.869,3.873,3.878,3.878,3.88,3.881,0,91.22,9819.6614520244,0,41,Motors_Started,
700,2023-10-09 21:17:50,38.4981564389284,-112.064381654382,0,,,9819.6614520244,0.656168,0,0.0315463920856,0.07661417568,17,5,0,9819.6614520244,0,0,0.04163057876,0,0,0,149.3, -6.5, 0.5,0,0,1024,1024,1024,1024,0,0,0,0,0,0,0,100,3.869,3.873,3.878,3.878,3.88,3.881,0,91.22,9819.6614520244,0,41,Motors_Started,
800,2023-10-09 21:17:50,38.4981564425308,-112.064381638523,0,,,9819.6614520244,0.656168,0,0.035665355472,0.081329398928,17,5,0,9819.6614520244,0,0,0.04163057876,0,0,0,149.3, -6.4, 0.5,0,0,1024,1024,1024,1024,0,0,0,0,0,0,0,100,3.869,3.873,3.878,3.878,3.88,3.881,0,91.22,9819.6614520244,0,41,Motors_Started,
900,2023-10-09 21:17:51,38.4981564342479,-112.06438166918,0,,,9819.6614520244,0.656168,0,0.0280393053592,0.090590225996,17,5,0,9819.6614520244,0,0,0.04163057876,0,0,0,149.2, -6.5, 0.6,0,0,1024,1024,1024,1024,0,0,0,0,0,0,0,100,3.869,3.873,3.878,3.878,3.88,3.881,0,91.22,9819.6614520244,0,41,Motors_Started,
1000,2023-10-09 21:17:51,38.4981564378378,-112.064381655701,0,,,9819.6614520244,0.656168,0,0.031289042996,0.094655842924,17,5,0,9819.6614520244,0,0,0.04163057876,0,0,0,149.2, -6.5, 0.6,0,0,1024,1024,1024,1024,0,0,0,0,0,0,0,100,3.869,3.873,3.878,3.878,3.88,3.881,0,91.22,9819.6614520244,0,41,Motors_Started,
1100,2023-10-09 21:17:51,38.4981565888379,-112.064381682209,0,,,9819.6614520244,0.656168,0,0.051715224752,0.15026575284,17,5,0,9819.6614520244,0,0,0.051715224752,0,0,0,149.1, -6.5, 0.6,0,0,1024,1024,1024,1024,0,0,0,0,0,0,0,100,3.869,3.873,3.878,3.878,3.88,3.881,0,91.22,9819.6614520244,0,41,Motors_Started,
1200,2023-10-09 21:17:51,38.4981566054642,-112.064381673319,0,,,9819.6614520244,0.656168,0,0.058282154096,0.156841540452,17,5,0,9819.6614520244,0,0,0.058282154096,0,0,0,149.1, -6.4, 0.6,0,0,1024,1024,1024,1024,0,0,0,0,0,0,0,100,3.869,3.873,3.878,3.878,3.88,3.881,0,91.22,9819.6614520244,0,41,Motors_Started,
1300,2023-10-09 21:17:51,38.498156581827,-112.064381535665,0,,,9819.6614520244,0.656168,0,0.077970474936,0.197082355388,17,5,0,9819.6614520244,0,0,0.077970474936,0,0,0,149.3, -6.5, 0.5,0,0,1024,1024,1024,1024,0,0,0,0,0,0,0,100,3.869,3.873,3.878,3.878,3.88,3.881,0,91.22,9819.6614520244,0,41,Motors_Started,
1400,2023-10-09 21:17:51,38.4981565933666,-112.064381512103,0,,,9819.6614520244,0.656168,0,0.085901249468,0.205019035432,17,5,0,9819.6614520244,0,0,0.085901249468,0,0,0,149.3, -6.6, 0.6,0,0,1024,1024,1024,1024,0,0,0,0,0,0,0,100,3.869,3.873,3.878,3.878,3.88,3.881,0,91.22,9819.6614520244,0,41,Motors_Started,
1500,2023-10-09 21:17:51,38.49815658559,-112.064381539781,0,,,9819.6614520244,0.656168,0,0.07779527808,0.213416345412,17,5,0,9819.6614520244,0,0,0.085901249468,0,0,0,149.3, -6.5, 0.6,0,0,1024,1024,1024,1024,0,0,0,0,0,0,0,100,3.869,3.873,3.878,3.878,3.88,3.881,0,91.22,9819.6614520244,0,41,Motors_Started,
1600,2023-10-09 21:17:51,38.4981565982496,-112.064381514682,0,,,9819.6614520244,0.656168,0,0.086312010636,0.221942592404,17,5,0,9819.6614520244,0,0,0.086312010636,0,0,0,149.3, -6.5, 0.5,0,0,1024,1024,1024,1024,0,0,0,0,0,0,0,100,3.869,3.873,3.878,3.878,3.88,3.881,0,91.22,9819.6614520244,0,41,Motors_Started,
1700,2023-10-09 21:17:51,38.4981565594734,-112.064381554756,0,,,9819.6614520244,0.656168,0,0.068965225304,0.240138787212,17,5,0,9819.6614520244,0,0,0.086312010636,0,0,0,149.2, -6.5, 0.5,0,0,1024,1024,1024,1024,0,0,0,0,0,0,0,100,3.869,3.873,3.878,3.878,3.88,3.881,0,91.22,9819.6614520244,0,41,Motors_Started,
1800,2023-10-09 21:17:51,38.4981565692716,-112.064381537736,0,,,9819.6614520244,0.656168,0,0.07497703652,0.246171923888,17,5,0,9819.6614520244,0,0,0.086312010636,0,0,0,149.3, -6.4, 0.5,0,0,1024,1024,1024,1024,0,0,0,0,0,0,0,100,3.869,3.873,3.878,3.878,3.88,3.881,0,91.22,9819.6614520244,0,41,Motors_Started,
1900,2023-10-09 21:17:51,38.4981565564319,-112.064381575804,0,,,9819.6614520244,0.656168,0,0.063291012524,0.25800853844,17,5,0,9819.6614520244,0,0,0.086312010636,0,0,0,149.3, -6.5, 0.5,0,0,1024,1024,1024,1024,0,0,0,0,0,0,0,100,3.869,3.873,3.878,3.878,3.88,3.881,0,91.22,9819.6614520244,0,41,Motors_Started,
2000,2023-10-09 21:17:52,38.4981565654969,-112.064381560492,0,,,9819.6614520244,0.656168,0,0.068762141308,0.26349082208,17,5,0,9819.6614520244,0,0,0.086312010636,0,0,0,149.3, -6.4, 0.5,0,0,1024,1024,1024,1024,0,0,0,0,0,0,0,100,3.869,3.873,3.878,3.878,3.88,3.881,0,91.22,9819.6614520244,0,41,Motors_Started,
2100,2023-10-09 21:17:52,38.4981567050832,-112.064381427046,0,,,9819.6614520244,0.656168,0,0.130435371628,0.327095810992,17,5,0,9819.6614520244,0,0,0.130435371628,0,0,0,149.3, -6.4, 0.5,0,0,1024,1024,1066,1024,0,0,6,0,0,0,0,100,3.869,3.873,3.878,3.878,3.88,3.881,0,91.22,9819.6614520244,0,10,Assisted_Takeoff,
2200,2023-10-09 21:17:52,38.4981567249907,-112.064381401759,0,,,9819.6614520244,0.656168,0,0.140670280092,0.3373359688,17,5,0,9819.6614520244,0,0,0.140670280092,0,0,0,149.3, -6.4, 0.5,0,0,1024,1024,1091,1024,0,0,10,0,0,0,0,100,3.869,3.873,3.878,3.878,3.88,3.881,0,91.22,9819.6614520244,0,10,Assisted_Takeoff,
2300,2023-10-09 21:17:52,38.4981566957164,-112.064381447279,0,,,9819.6614520244,0.656168,0,0.123888127324,0.35416011632,17,5,0,9819.6614520244,0,0,0.140670280092,0,0,0,149.3, -6.4, 0.5,0,0,1024,1024,1128,1024,0,0,16,0,0,0,0,100,3.869,3.873,3.878,3.878,3.88,3.881,0,91.22,9819.6614520244,0,10,Assisted_Takeoff,
2400,2023-10-09 21:17:52,38.498156712878,-112.06438142626,0,,,9819.6614520244,0.656168,0,0.132553153848,0.36283465728,17,5,0,9819.6614520244,0,0,0.140670280092,0,0,0,149.3, -6.4, 0.5,0,0,1024,1024,1170,1024,0,0,22,0,0,0,0,100,3.869,3.873,3.878,3.878,3.88,3.881,0,91.22,9819.6614520244,0,10,Assisted_Takeoff,
2500,2023-10-09 21:17:52,38.4981566823756,-112.064381457533,0,,,9819.6614520244,0.656168,0,0.11841863896,0.37710303044,17,5,0,9819.6614520244,0,0,0.140670280092,0,0,0,149.3, -6.4, 0.5,0,0,1024,1024,1232,1024,0,0,32,0,0,0,0,100,3.869,3.873,3.878,3.878,3.88,3.881,0,91.22,9819.6614520244,0,10,Assisted_Takeoff,
2600,2023-10-09 21:17:52,38.498156697866,-112.064381438045,0,,,9819.6614520244,0.656168,0,0.126342851812,0.38503282072,17,5,0,9819.6614520244,0,0,0.140670280092,0,0,0,149.3, -6.3, 0.5,0,0,1024,1024,1257,1024,0,0,35,0,0,0,0,100,3.869,3.873,3.878,3.878,3.88,3.881,0,91.22,9819.6614520244,0,10,Assisted_Takeoff,
2700,2023-10-09 21:17:52,38.4981566797267,-112.064381310961,0,,,9819.6614520244,0.656168,0,0.151246724,0.42191930484,17,5,0,9819.6614520244,0,0,0.151246724,0,0,0,149.3, -6.3, 0.5,0,0,1024,1024,1272,1024,0,0,38,0,0,0,0,100,3.869,3.873,3.878,3.878,3.88,3.881,0,91.22,9819.6614520244,0,10,Assisted_Takeoff,
2800,2023-10-09 21:17:52,38.4981566911804,-112.06438127772,0,,,9819.6614520244,0.656168,0,0.161521986796,0.43229004008,17,5,0,9819.6614520244,0,0,0.161521986796,0,0,0,149.3, -6.3, 0.5,0,0,1024,1024,1318,1024,0,0,45,0,0,0,0,100,3.869,3.873,3.878,3.878,3.88,3.881,0,91.22,9819.6614520244,0,10,Assisted_Takeoff,
2900,2023-10-09 21:17:52,38.498156670968,-112.064381325832,0,,,9819.6614520244,0.656168,0,0.145954400996,0.4478838726,17,5,0,9819.6614520244,0,0,0.161521986796,0,0,0,149.3, -6.2, 0.5,0,0,1024,1024,1371,1024,0,0,53,0,0,0,0,100,3.869,3.873,3.878,3.878,3.88,3.881,0,91.22,9819.6614520244,0,10,Assisted_Takeoff,
3000,2023-10-09 21:17:53,38.4981566786009,-112.064381297974,0,,,9819.6614520244,0.656168,0,0.154198823832,0.45631235056,17,5,0,9819.6614520244,0,0,0.161521986796,0,0,0,149.3, -6.2, 0.5,0,0,1024,1024,1379,1024,0,0,54,0,0,0,0,100,3.869,3.873,3.878,3.878,3.88,3.881,0,91.22,9819.6614520244,0,10,Assisted_Takeoff,
3100,2023-10-09 21:17:53,38.4981566547212,-112.064381193373,0,,,9819.6614520244,0.656168,0,0.176814638204,0.48742455628,17,5,0,9819.6614520244,0,0,0.176814638204,0,0,0,149.3, -6, 0.5,0,0,1024,1024,1379,1024,0,0,54,0,0,0,0,100,3.869,3.873,3.878,3.878,3.88,3.881,0,91.22,9819.6614520244,0,10,Assisted_Takeoff,
3200,2023-10-09 21:17:53,38.4981566596149,-112.064381162929,0,,,9819.6614520244,0.656168,0,0.185506567616,0.49629922848,17,5,0,9819.6614520244,0,0,0.185506567616,0,0,0,149.2, -5.6, 0.7,0,0,1024,1024,1378,1024,0,0,54,0,0,0,0,100,3.869,3.873,3.878,3.878,3.88,3.881,0,91.22,9819.6614520244,0,10,Assisted_Takeoff,
3300,2023-10-09 21:17:53,38.4981566315967,-112.064381230723,0,,,9819.6614520244,0.656168,0,0.163705057732,0.51818899296,17,5,0,9819.6614520244,0,0,0.185506567616,0,0,0,149.3, -4.2, 0.8,0,0,1024,1024,1397,1024,0,0,57,0,0,0,0,100,3.869,3.873,3.878,3.878,3.88,3.881,0,91.22,9819.6614520244,0,10,Assisted_Takeoff,
3400,2023-10-09 21:17:53,38.4981565892638,-112.064381203872,0,,,9819.6614520244,0.656168,0,0.165828745464,0.535433088,17,5,0,9819.6614520244,0,0,0.185506567616,0,0,-0.223694,149.2, -0.7, 1.1,0,0,1024,1024,1397,1024,0,0,57,0,0,0,0,100,3.869,3.873,3.878,3.878,3.88,3.881,0,91.22,9819.6614520244,0,10,Assisted_Takeoff,
3500,2023-10-09 21:17:53,38.4981564990933,-112.064381270923,0,,,9819.6614520244,0.656168,0,0.140649282716,0.57349739368,17,5,0,9819.6614520244,0,0,0.185506567616,0,0,-0.447388,148.9, 3.4, 1.1,0,0,1024,1024,1400,1024,0,0,57,0,0,0,0,100,3.869,3.873,3.878,3.878,3.88,3.881,0,91.22,9819.6614520244,0,6,P-GPS,"Home Point recorded. Return-to-Home Altitude:200.1 ft"
3600,2023-10-09 21:17:53,38.4981564436494,-112.06438132174,0,,,9819.6614520244,0.656168,0,0.125624019768,0.5983924076,17,5,0,9819.6614520244,0,0,0.185506567616,0,0,-0.671082,148.3, 5.8, 0.7,0,0,1024,1024,1408,1024,0,0,58,0,0,0,0,100,3.869,3.873,3.878,3.878,3.88,3.881,0,91.22,9819.6614520244,0,6,P-GPS,
3700,2023-10-09 21:17:53,38.4981564613588,-112.064381496773,0.328084,,,9819.9895360244,0.984252,0.223694,0.07548064546,0.64878611,17,5,0,9819.9895360244,0.328084,0.223694,0.185506567616,0,-0.223694,-0.894776,147.7, 5.3, 0.3,0,0,1024,1024,1407,1024,0,0,58,0,0,0,0,100,3.869,3.873,3.878,3.878,3.88,3.881,0,91.22,9819.9895360244,0.328084,6,P-GPS,
3800,2023-10-09 21:17:53,38.4981565113549,-112.06438169858,0.328084,,,9819.9895360244,0.984252,0.447388,0.025553478508,0.70922902532,17,5,0,9819.9895360244,0.328084,0.447388,0.185506567616,0,-0.447388,-1.11847,147.3, 3.9, -0.7,0,0,1024,1024,1409,1024,0,0,58,0,0,0,0,100,3.869,3.873,3.878,3.878,3.88,3.881,0,91.22,9819.9895360244,0.328084,6,P-GPS,
3900,2023-10-09 21:17:54,38.4981567141147,-112.064382117913,0.656168,,,9820.3176200244,1.312336,0.4921268,0.13744423012,0.84997378048,17,5,0,9820.3176200244,0.656168,0.4921268,0.185506567616,0.223694,-0.447388,-1.565858,147.1, 1.7, -1.1,0,0,1024,1024,1419,1024,0,0,60,0,0,0,0,100,3.869,3.873,3.878,3.878,3.88,3.881,0,91.22,9820.3176200244,0.656168,6,P-GPS,
4000,2023-10-09 21:17:54,38.4981568400861,-112.064382371467,0.656168,,,9820.3176200244,1.64042,0.4921268,0.222435702656,0.93573165724,17,5,0,9820.3176200244,0.656168,0.4921268,0.222435702656,0.223694,-0.447388,-2.013246,147, 0, -0.6,0,0,1024,1024,1444,1024,0,0,64,0,0,0,0,100,3.869,3.873,3.878,3.878,3.88,3.881,0,91.22,9820.3176200244,0.656168,6,P-GPS,
4100,2023-10-09 21:17:54,38.4981568173575,-112.064382562051,1.312336,,,9820.9737880244,1.968504,0.4921268,0.263028879808,0.9907808716,17,5,0,9820.9737880244,1.312336,0.4921268,0.263028879808,0.223694,-0.447388,-2.460634,146.9, -0.5, -0.4,0,0,1024,1024,1444,1024,0,0,64,0,0,0,0,100,3.869,3.873,3.878,3.878,3.88,3.881,0,91.22,9820.9737880244,1.312336,6,P-GPS,
4200,2023-10-09 21:17:54,38.4981568904837,-112.064382802828,1.64042,,,9821.3018720244,2.296588,0.4921268,0.33615814724,1.06452759312,17,5,0,9821.3018720244,1.64042,0.4921268,0.33615814724,0,-0.447388,-3.131716,146.9, -0.4, -0.8,0,0,1024,1024,1451,1024,0,0,65,0,0,0,0,100,3.869,3.873,3.878,3.878,3.88,3.881,0,91.22,9821.3018720244,1.64042,6,P-GPS,
4300,2023-10-09 21:17:54,38.4981568994776,-112.064382867088,1.968504,,,9821.6299560244,2.952756,0.447388,0.3539698276,1.08316604516,17,5,0,9821.6299560244,1.968504,0.4921268,0.3539698276,0,-0.447388,-3.579104,147, -0.6, -1.6,0,0,1024,1024,1479,1024,0,0,69,0,0,0,0,100,3.869,3.873,3.878,3.878,3.88,3.881,0,91.22,9821.6299560244,1.968504,6,P-GPS,
4400,2023-10-09 21:17:54,38.4981569477684,-112.064383050549,2.624672,,,9822.2861240244,3.28084,0.223694,0.40874017056,1.1384350758,17,5,0,9822.2861240244,2.624672,0.4921268,0.40874017056,0,-0.223694,-4.250186,147, -1.1, -2,0,0,1024,1024,1482,1024,0,0,69,0,0,0,0,100,3.869,3.873,3.878,3.878,3.88,3.881,0,91.22,9822.2861240244,2.624672,6,P-GPS,
4500,2023-10-09 21:17:54,38.4981569843481,-112.064383218669,3.28084,,,9822.9422920244,3.937008,0.223694,0.45786418788,1.18826119288,17,5,0,9822.9422920244,3.28084,0.4921268,0.45786418788,0,-0.223694,-4.697574,147.1, -1.5, -2,0,0,1024,1024,1453,1024,0,0,65,0,0,0,0,100,3.869,3.873,3.878,3.878,3.88,3.881,0,91.22,9822.9422920244,3.28084,6,P-GPS,
4600,2023-10-09 21:17:54,38.4981569901296,-112.064383299895,3.937008,,,9823.5984600244,4.593176,0.223694,0.4798884668,1.21155187604,17,5,0,9823.5984600244,3.937008,0.4921268,0.4798884668,0,0,-5.368656,147.1, -1.4, -1.8,0,0,1024,1024,1447,1024,0,0,64,0,0,0,0,100,3.869,3.873,3.878,3.878,3.88,3.881,0,91.22,9823.5984600244,3.937008,6,P-GPS,
4700,2023-10-09 21:17:54,38.4981570870812,-112.064383416908,4.92126,,,9824.5827120244,5.577428,0,0.52504594856,1.26021001408,17,5,0,9824.5827120244,4.92126,0.4921268,0.52504594856,0,0,-5.59235,147.2, -1.2, -1.6,0,0,1024,1024,1447,1024,0,0,64,0,0,0,0,100,3.869,3.873,3.878,3.878,3.88,3.881,0,91.22,9824.5827120244,4.92126,6,P-GPS,
4800,2023-10-09 21:17:54,38.4981570571521,-112.064383424782,5.577428,,,9825.2388800244,6.233596,0,0.52243439992,1.2713583084,17,5,0,9825.2388800244,5.577428,0.4921268,0.52504594856,0,0,-6.039738,147.3, -1.1, -1.3,0,0,1024,1024,1457,1024,0,0,66,0,0,0,0,100,3.869,3.873,3.878,3.878,3.88,3.881,0,91.22,9825.2388800244,5.577428,6,P-GPS,
4900,2023-10-09 21:17:55,38.4981571655362,-112.06438368134,6.56168,,,9826.2231320244,6.889764,0,0.6055282346,1.35460634256,17,5,0,9826.2231320244,6.56168,0.4921268,0.6055282346,0,0,-6.263432,147.6, -1, -1.1,0,0,1041,1024,1473,1024,3,0,68,0,0,0,0,100,3.869,3.873,3.878,3.878,3.88,3.881,0,91.22,9826.2231320244,6.56168,6,P-GPS,
5000,2023-10-09 21:17:55,38.4981571113741,-112.064383658082,7.545932,,,9827.2073840244,7.874016,0,0.5913221974,1.37545279992,17,5,0,9827.2073840244,7.545932,0.4921268,0.6055282346,0,0,-6.263432,147.7, -0.7, -1.1,0,0,1094,1024,1488,1024,11,0,70,0,0,0,0,100,3.869,3.873,3.878,3.878,3.88,3.881,0,91.22,9827.2073840244,7.545932,6,P-GPS,
5100,2023-10-09 21:17:55,38.4981570013774,-112.064383828325,8.530184,,,9828.1916360244,8.530184,0,0.62229988868,1.43849085968,17,5,0,9828.1916360244,8.530184,0.4921268,0.62229988868,0,0,-6.487126,148, -0.6, -1.2,0,0,1130,1024,1497,1024,16,0,72,0,0,0,0,100,3.869,3.873,3.878,3.878,3.88,3.881,0,91.22,9828.1916360244,8.530184,6,P-GPS,
5200,2023-10-09 21:17:55,38.4981569172945,-112.06438378432,9.514436,,,9829.1758880244,9.186352,0,0.60119096412,1.47164046704,17,5,0,9829.1758880244,9.514436,0.4921268,0.62229988868,0,0,-6.487126,148.1, -0.5, -1.2,0,0,1168,1024,1507,1024,22,0,73,0,0,0,0,100,3.869,3.873,3.878,3.878,3.88,3.881,0,91.22,9829.1758880244,9.514436,6,P-GPS,
5300,2023-10-09 21:17:55,38.498156873538,-112.064383805499,10.498688,,,9830.1601400244,9.84252,0,0.60282482244,1.4887139584,17,5,0,9830.1601400244,10.498688,0.4921268,0.62229988868,0,0,-6.71082,148.2, -0.7, -1.1,0,0,1207,1024,1508,1024,28,0,73,0,0,0,0,100,3.869,3.873,3.878,3.878,3.88,3.881,0,91.22,9830.1601400244,10.498688,6,P-GPS,
5400,2023-10-09 21:17:55,38.4981567686182,-112.064383733704,11.48294,,,9831.1443920244,10.498688,0.223694,0.574311042,1.5321358758,17,5,0,9831.1443920244,11.48294,0.4921268,0.62229988868,-0.223694,0,-6.71082,148.3, -1.7, -0.9,0,0,1222,1024,1512,1024,30,0,74,0,0,0,0,100,3.869,3.873,3.878,3.878,3.88,3.881,0,91.22,9831.1443920244,11.48294,6,P-GPS,
5500,2023-10-09 21:17:55,38.4981567884902,-112.064383836841,12.467192,,,9832.1286440244,10.826772,0.223694,0.6046095994,1.5624672416,17,5,0,9832.1286440244,12.467192,0.4921268,0.62229988868,-0.223694,0,-6.934514,148.4, -3, -0.7,0,0,1251,1024,1519,1024,34,0,75,0,0,0,0,100,3.869,3.873,3.878,3.878,3.88,3.881,0,91.22,9832.1286440244,12.467192,6,P-GPS,
5600,2023-10-09 21:17:55,38.4981566157004,-112.064383722351,13.451444,,,9833.1128960244,11.48294,0.4921268,0.56284122536,1.6334810234,17,5,0,9833.1128960244,13.451444,0.4921268,0.62229988868,-0.447388,0.223694,-6.934514,148.4, -4.4, -0.8,0,0,1314,1024,1550,1024,44,0,80,0,0,0,0,100,3.869,3.873,3.878,3.878,3.88,3.881,0,91.22,9833.1128960244,13.451444,6,P-GPS,
5700,2023-10-09 21:17:55,38.4981561127031,-112.06438350326,14.435696,,,9834.0971480244,11.811024,0.7158208,0.51345146,1.82736882488,18,5,0,9834.0971480244,14.435696,0.7158208,0.62229988868,-0.671082,0.223694,-7.158208,148.3, -5.7, -0.8,0,0,1321,1024,1556,1024,45,0,81,0,0,0,0,100,3.869,3.873,3.878,3.878,3.88,3.881,0,91.22,9834.0971480244,14.435696,6,P-GPS,
5800,2023-10-09 21:17:55,38.4981557614331,-112.064383263383,15.748032,,,9835.4094840244,12.467192,1.006623,0.49919949104,1.97268379016,18,5,0,9835.4094840244,15.748032,1.006623,0.62229988868,-0.894776,0.447388,-7.381902,148.3, -6.9, -0.8,0,0,1333,1024,1559,1024,47,0,81,0,0,0,0,100,3.869,3.873,3.878,3.878,3.88,3.881,0,91.22,9835.4094840244,15.748032,6,P-GPS,
5900,2023-10-09 21:17:55,38.4981553995628,-112.064382873456,16.732284,,,9836.3937360244,13.451444,1.2974252,0.50092849372,2.14539376944,18,5,0,9836.3937360244,16.732284,1.2974252,0.62229988868,-1.11847,0.671082,-7.605596,148.3, -8.1, -0.8,0,0,1351,1024,1571,1024,50,0,83,0,0,0,0,100,3.869,3.873,3.878,3.878,3.88,3.881,0,91.22,9836.3937360244,16.732284,6,P-GPS,
6000,2023-10-09 21:17:56,38.4981548290278,-112.06438245455,18.04462,,,9837.7060720244,9.84252,1.6105968,0.62757219856,2.38547251728,18,5,0,9837.7060720244,18.04462,1.6105968,0.62757219856,-1.342164,0.894776,-7.82929,148.3, -9, -0.7,0,0,1391,1024,1591,1024,56,0,86,0,0,0,0,100,3.869,3.873,3.878,3.878,3.88,3.881,0,91.22,9837.7060720244,18.04462,6,P-GPS,
6100,2023-10-09 21:17:56,38.4981539242475,-112.06438181531,19.028872,,,9838.6903240244,10.826772,2.1027236,0.9257546228,2.76268381544,18,5,0,9838.6903240244,19.028872,2.1027236,0.9257546228,-1.789552,1.11847,-8.052984,148.4, -9.7, -0.7,0,0,1403,1024,1598,1024,57,0,87,0,0,0,0,100,3.869,3.873,3.878,3.878,3.88,3.881,0,91.22,9838.6903240244,19.028872,6,P-GPS,
6200,2023-10-09 21:17:56,38.4981530491628,-112.064381174929,20.341208,,,9840.0026600244,12.139108,2.6172198,1.2561024024,3.13061361724,18,5,0,9840.0026600244,20.341208,2.6172198,1.2561024024,-2.23694,1.342164,-8.276678,148.4, -10.4, -0.7,0,0,1419,1024,1612,1024,60,0,89,0,0,0,0,100,3.869,3.873,3.878,3.878,3.88,3.881,0,91.22,9840.0026600244,20.341208,6,P-GPS,
6300,2023-10-09 21:17:56,38.4981519649784,-112.064380142013,21.653544,,,9841.3149960244,6.233596,2.908022,1.7043635716,3.624015864,18,5,0,9841.3149960244,21.653544,2.908022,1.7043635716,-2.460634,1.565858,-8.500372,148.4, -11.1, -0.7,0,0,1435,1024,1625,1024,62,0,91,0,0,0,0,100,3.869,3.873,3.878,3.878,3.88,3.881,0,91.22,9841.3149960244,21.653544,6,P-GPS,
6400,2023-10-09 21:17:56,38.4981507545343,-112.064379230161,22.96588,,,9842.6273320244,7.545932,3.4225182,2.20395020176,4.1367127308,18,5,0,9842.6273320244,22.96588,3.4225182,2.20395020176,-2.908022,1.789552,-8.724066,148.4, -11.7, -0.8,0,0,1462,1024,1641,1024,66,0,93,0,0,0,0,100,3.869,3.873,3.878,3.878,3.88,3.881,0,91.22,9842.6273320244,22.96588,6,P-GPS,
6500,2023-10-09 21:17:56,38.4981493302333,-112.064378712696,24.278216,,,9843.9396680244,8.2021,3.914645,2.74349746312,4.6769686536,19,5,0,9843.9396680244,24.278216,3.914645,2.74349746312,-3.35541,2.013246,-8.94776,148.4, -12.2, -0.7,0,0,1541,1024,1660,1024,78,0,96,0,0,0,0,100,3.869,3.873,3.878,3.878,3.88,3.881,0,91.22,9843.9396680244,24.278216,6,P-GPS,
6600,2023-10-09 21:17:56,38.4981477466144,-112.064377564448,25.590552,,,9845.2520040244,8.2021,4.6080964,3.3978675628,5.3412731368,19,5,0,9845.2520040244,25.590552,4.6080964,3.3978675628,-4.026492,2.23694,-9.171454,148.3, -12.6, -0.7,0,0,1587,1024,1670,1024,85,0,98,0,0,0,0,100,3.869,3.873,3.878,3.878,3.88,3.881,0,91.22,9845.2520040244,25.590552,6,P-GPS,
6700,2023-10-09 21:17:56,38.4981455455323,-112.064376071498,26.902888,,,9846.5643400244,8.2021,5.2120702,4.3012140484,6.250492326,19,5,0,9846.5643400244,26.902888,5.2120702,4.3012140484,-4.47388,2.684328,-9.618842,148.2, -13.4, -0.7,0,0,1595,1024,1684,1024,87,0,100,0,0,0,0,100,3.869,3.873,3.878,3.878,3.88,3.881,0,91.22,9846.5643400244,26.902888,6,P-GPS,
6800,2023-10-09 21:17:56,38.4981435252656,-112.064374601551,28.543308,,,9848.2047600244,8.2021,5.7265664,5.1434384848,7.0986878912,19,5,0,9848.2047600244,28.543308,5.7265664,5.1434384848,-4.921268,2.908022,-9.842536,148.2, -14.8, -0.6,0,0,1597,1024,1684,1024,87,0,100,0,0,0,0,100,3.869,3.873,3.878,3.878,3.88,3.881,0,91.22,9848.2047600244,28.543308,6,P-GPS,
6900,2023-10-09 21:17:56,38.4981412949483,-112.064372958116,29.855644,,,9849.5170960244,8.2021,6.4200178,6.077592058,8.038058,19,5,0,9849.5170960244,29.855644,6.4200178,6.077592058,-5.59235,3.131716,-10.289924,148.3, -16.4, -0.6,0,0,1605,1024,1684,1024,88,0,100,0,0,0,0,100,3.869,3.873,3.878,3.878,3.88,3.881,0,91.22,9849.5170960244,29.855644,6,P-GPS,
7000,2023-10-09 21:17:57,38.4981388032966,-112.064371131365,31.496064,,,9851.1575160244,8.2021,7.2029468,7.1216865796,9.0861551464,19,5,0,9851.1575160244,31.496064,7.2029468,7.1216865796,-6.263432,3.579104,-10.513618,148.4, -17.8, -0.7,0,0,1612,1024,1684,1024,89,0,100,0,0,0,0,100,3.869,3.873,3.878,3.878,3.88,3.881,0,91.22,9851.1575160244,31.496064,6,P-GPS,
7100,2023-10-09 21:17:57,38.4981359211801,-112.064369160047,33.136484,,,9852.7979360244,8.2021,8.0082452,8.3130580088,10.27887172,19,5,0,9852.7979360244,33.136484,8.0082452,8.3130580088,-6.934514,4.026492,-10.737312,148.5, -18.7, -0.8,0,0,1641,1024,1684,1024,93,0,100,0,0,0,0,100,3.869,3.873,3.878,3.878,3.88,3.881,0,91.22,9852.7979360244,33.136484,6,P-GPS,
7200,2023-10-09 21:17:57,38.4981328966351,-112.064366929819,34.776904,,,9854.4383560244,8.2021,8.6345884,9.5839569996,11.5529531256,19,5,0,9854.4383560244,34.776904,8.6345884,9.5839569996,-7.381902,4.47388,-10.961006,148.5, -19.1, -0.8,0,0,1647,1024,1684,1024,94,0,100,0,0,0,0,100,3.869,3.873,3.878,3.878,3.88,3.881,0,91.22,9854.4383560244,34.776904,6,P-GPS,
7300,2023-10-09 21:17:57,38.4981296006301,-112.064364463893,36.08924,,,9855.7506920244,8.2021,9.4398868,10.9743441832,12.9464571072,19,5,0,9855.7506920244,36.08924,9.4398868,10.9743441832,-8.052984,4.921268,-10.961006,148.5, -19.3, -0.7,0,0,1657,1024,1684,1024,96,0,100,0,0,0,0,100,3.869,3.873,3.878,3.878,3.88,3.881,0,91.22,9855.7506920244,36.08924,6,P-GPS,
7400,2023-10-09 21:17:57,38.4981260576246,-112.064361823479,37.72966,,,9857.3911120244,8.2021,10.1333382,12.468340294,14.442913848,19,5,0,9857.3911120244,37.72966,10.1333382,12.468340294,-8.724066,5.144962,-11.1847,148.6, -19.6, -0.6,0,0,1674,1024,1684,1024,98,0,100,0,0,0,0,100,3.869,3.873,3.878,3.878,3.88,3.881,0,91.22,9857.3911120244,37.72966,6,P-GPS,
7500,2023-10-09 21:17:57,38.4981220832299,-112.064358886771,39.698164,,,9859.3596160244,8.2021,10.9386366,14.1415358856,16.1179795184,19,5,0,9859.3596160244,39.698164,10.9386366,14.1415358856,-9.395148,5.59235,-11.1847,148.7, -20, -0.4,0,0,1684,1024,1684,1024,100,0,100,0,0,0,0,100,3.869,3.873,3.878,3.878,3.88,3.881,0,91.22,9859.3596160244,39.698164,6,P-GPS,
7600,2023-10-09 21:17:57,38.4981180215503,-112.064355845496,41.338584,,,9861.0000360244,8.2021,11.743935,15.8572511636,17.8355976836,19,5,0,9861.0000360244,41.338584,11.743935,15.8572511636,-10.06623,6.039738,-11.1847,148.7, -20.6, -0.3,0,0,1684,1024,1684,1024,100,0,100,0,0,0,0,100,3.869,3.873,3.878,3.878,3.88,3.881,0,91.22,9861.0000360244,41.338584,6,P-GPS,
7700,2023-10-09 21:17:57,38.498113741758,-112.06435256176,42.979004,,,9862.6404560244,8.2021,12.3479088,17.6761160512,19.6569560096,19,5,0,9862.6404560244,42.979004,12.3479088,17.6761160512,-10.513618,6.487126,-11.1847,148.7, -21.3, -0.2,0,0,1684,1024,1684,1024,100,0,100,0,0,0,0,100,3.869,3.873,3.878,3.878,3.88,3.881,0,91.22,9862.6404560244,42.979004,6,P-GPS,
7800,2023-10-09 21:17:57,38.4981091637589,-112.064349123841,44.619424,,,9864.2808760244,8.2021,13.0413602,19.6121069268,21.5943576464,19,5,0,9864.2808760244,44.619424,13.0413602,19.6121069268,-11.1847,6.71082,-11.1847,148.7, -21.7, -0.1,0,0,1684,1024,1684,1024,100,0,100,0,0,0,0,100,3.869,3.873,3.878,3.878,3.88,3.881,0,91.22,9864.2808760244,44.619424,6,P-GPS,
7900,2023-10-09 21:17:58,38.498104389988,-112.064345460769,46.259844,,,9865.9212960244,8.2021,13.8466586,21.6418314012,23.6260178164,19,5,0,9865.9212960244,46.259844,13.8466586,21.6418314012,-11.855782,7.158208,-10.961006,148.7, -21.8, 0,0,0,1684,1024,1684,1024,100,0,100,0,0,0,0,100,3.869,3.873,3.878,3.878,3.88,3.881,0,91.22,9865.9212960244,46.259844,6,P-GPS,
8000,2023-10-09 21:17:58,38.4980992847387,-112.064341626454,47.900264,,,9867.5617160244,8.2021,14.651957,23.8014115228,25.7866149984,19,5,0,9867.5617160244,47.900264,14.651957,23.8014115228,-12.526864,7.605596,-10.961006,148.8, -21.6, 0.1,0,0,1684,1024,1684,1024,100,0,100,0,0,0,0,100,3.869,3.873,3.878,3.878,3.88,3.881,0,91.22,9867.5617160244,47.900264,6,P-GPS,
8100,2023-10-09 21:17:58,38.4980938706003,-112.06433771279,49.540684,,,9869.2021360244,8.2021,15.4572554,26.0708013592,28.0561360684,19,5,0,9869.2021360244,49.540684,15.4572554,26.0708013592,-13.197946,8.052984,-10.961006,148.8, -21.2, 0.1,0,0,1684,1024,1684,1024,100,0,100,0,0,0,0,100,3.869,3.873,3.878,3.878,3.88,3.881,0,91.22,9869.2021360244,49.540684,6,P-GPS,
8200,2023-10-09 21:17:58,38.4980882480424,-112.064333518879,51.181104,,,9870.8425560244,8.2021,16.1507068,28.4454733512,30.4314970368,19,5,0,9870.8425560244,51.181104,16.1507068,28.4454733512,-13.869028,8.276678,-10.961006,148.9, -20.8, 0,0,0,1684,1024,1684,1024,100,0,100,0,0,0,0,100,3.869,3.873,3.878,3.878,3.88,3.881,0,91.22,9870.8425560244,51.181104,6,P-GPS,
8300,2023-10-09 21:17:58,38.4980822425811,-112.064329201298,52.821524,,,9872.4829760244,8.2021,16.1507068,30.9595482348,32.945539112,19,5,0,9872.4829760244,52.821524,16.1507068,30.9595482348,-14.54011,8.724066,-10.961006,148.9, -20.4, 0,0,0,1684,1024,1684,1024,100,0,100,0,0,0,0,100,3.869,3.873,3.878,3.878,3.88,3.881,0,91.22,9872.4829760244,52.821524,6,P-GPS,
8400,2023-10-09 21:17:58,38.4980761348859,-112.064324665823,54.461944,,,9874.1233960244,8.2021,17.6494566,33.536418396,35.522967016,19,5,0,9874.1233960244,54.461944,17.6494566,33.536418396,-15.211192,8.94776,-10.961006,149, -20, -0.2,0,0,1684,1024,1684,1024,100,0,100,0,0,0,0,99,3.869,3.873,3.878,3.878,3.88,3.881,0,91.22,9874.1233960244,54.461944,6,P-GPS,
8500,2023-10-09 21:17:58,38.4980696288225,-112.06432009342,56.102364,,,9875.7638160244,8.2021,18.2534304,36.245407984,38.231956604,20,5,0,9875.7638160244,56.102364,18.2534304,36.245407984,-15.65858,9.395148,-10.961006,149, -19.8, -0.1,0,0,1684,1024,1684,1024,100,0,100,0,0,0,0,99,3.869,3.873,3.878,3.878,3.88,3.881,0,91.22,9875.7638160244,56.102364,6,P-GPS,
8600,2023-10-09 21:17:58,38.4980630694971,-112.064315242774,57.4147,,,9877.0761520244,8.2021,18.2534304,39.010171852,40.997048556,20,5,0,9877.0761520244,57.4147,18.2534304,39.010171852,-16.105968,9.618842,-10.961006,149, -19.8, -0.2,0,0,1684,1024,1684,1024,100,0,100,0,0,0,0,99,3.869,3.873,3.878,3.878,3.88,3.881,0,91.22,9877.0761520244,57.4147,6,P-GPS,
8700,2023-10-09 21:17:58,38.4980563066803,-112.06431037431,59.05512,,,9878.7165720244,8.2021,19.573225,41.84219294,43.829397728,20,5,0,9878.7165720244,59.05512,19.573225,41.84219294,-16.77705,10.06623,-10.961006,149, -19.8, -0.3,0,0,1684,1024,1684,1024,100,0,100,0,0,0,0,99,3.869,3.873,3.878,3.878,3.88,3.881,0,91.22,9878.7165720244,59.05512,6,P-GPS,
8800,2023-10-09 21:17:58,38.4980493241539,-112.064305209953,60.69554,,,9880.3569920244,8.2021,20.0653518,44.785434504,46.772967376,20,5,0,9880.3569920244,60.69554,20.0653518,44.785434504,-17.224438,10.289924,-10.961006,148.9, -19.6, -0.1,0,0,1684,1024,1684,1024,100,0,100,0,0,0,0,99,3.869,3.873,3.878,3.878,3.88,3.881,0,91.22,9880.3569920244,60.69554,6,P-GPS,
8900,2023-10-09 21:17:59,38.4980425373778,-112.064300477227,62.33596,,,9881.9974120244,8.2021,20.8706502,47.606300736,49.593833608,20,5,0,9881.9974120244,62.33596,20.8706502,47.606300736,-17.89552,10.737312,-10.961006,148.9, -19.2, 0,0,0,1684,1024,1684,1024,100,0,100,0,0,0,0,99,3.869,3.873,3.878,3.878,3.88,3.881,0,91.22,9881.9974120244,62.33596,6,P-GPS,
9000,2023-10-09 21:17:59,38.4980351845868,-112.064295055984,63.97638,,,9883.6378320244,8.2021,20.8706502,50.703085612,52.690946568,20,5,0,9883.6378320244,63.97638,20.8706502,50.703085612,-18.342908,10.961006,-10.961006,148.9, -18.6, 0.2,0,0,1684,1024,1684,1024,100,0,100,0,0,0,0,99,3.869,3.873,3.878,3.878,3.88,3.881,0,91.22,9883.6378320244,63.97638,6,P-GPS,
9100,2023-10-09 21:17:59,38.498026911161,-112.064288972974,65.6168,,,9885.2782520244,8.2021,21.8772732,54.185697272,56.173558228,21,5,0,9885.2782520244,65.6168,21.8772732,54.185697272,-18.790296,11.1847,-10.961006,148.8, -18.1, 0.3,0,0,1684,1024,1684,1024,100,0,100,0,0,0,0,99,3.869,3.873,3.878,3.878,3.88,3.881,0,91.22,9885.2782520244,65.6168,6,P-GPS,
9200,2023-10-09 21:17:59,38.498019126409,-112.064283242069,67.25722,,,9886.9186720244,8.2021,22.3694,57.463256432,59.451445472,21,5,0,9886.9186720244,67.25722,22.3694,57.463256432,-19.237684,11.408394,-10.961006,148.8, -18.1, 0.3,0,0,1684,1024,1684,1024,100,0,100,0,0,0,0,99,3.869,3.873,3.878,3.878,3.88,3.881,0,91.22,9886.9186720244,67.25722,6,P-GPS,
9300,2023-10-09 21:17:59,38.4980111309042,-112.06427756378,68.89764,,,9888.5590920244,8.2021,22.8615268,60.800854964,62.789044004,21,5,0,9888.5590920244,68.89764,22.8615268,60.800854964,-19.685072,11.632088,-10.961006,148.9, -18.2, 0.1,0,0,1684,1024,1684,1024,100,0,100,0,0,0,0,99,3.869,3.873,3.878,3.878,3.88,3.881,0,91.22,9888.5590920244,68.89764,6,P-GPS,
9400,2023-10-09 21:17:59,38.4980030001039,-112.064271608555,70.53806,,,9890.1995120244,8.2021,23.3536536,64.219818328,66.208335452,21,5,0,9890.1995120244,70.53806,23.3536536,64.219818328,-20.13246,11.855782,-10.961006,149, -18.1, 0,0,0,1684,1024,1684,1024,100,0,100,0,0,0,0,99,3.869,3.873,3.878,3.878,3.88,3.881,0,91.22,9890.1995120244,70.53806,6,P-GPS,
9500,2023-10-09 21:17:59,38.4979952757211,-112.064266094682,72.506564,,,9892.1680160244,8.2021,23.8681498,67.448164888,69.436682012,22,5,0,9892.1680160244,72.506564,23.8681498,67.448164888,-20.579848,12.079476,-10.961006,149.1, -18.3, -0.2,0,0,1684,1024,1684,1024,100,0,100,0,0,0,0,99,3.869,3.873,3.878,3.878,3.88,3.881,0,91.22,9892.1680160244,72.506564,6,P-GPS,
9600,2023-10-09 21:17:59,38.4979868857013,-112.064259948367,73.8189,,,9893.4803520244,8.2021,23.8681498,70.976708308,72.965225432,22,5,0,9893.4803520244,73.8189,23.8681498,70.976708308,-20.803542,12.30317,-10.961006,149.1, -18.3, -0.3,0,0,1684,1024,1684,1024,100,0,100,0,0,0,0,99,3.869,3.873,3.878,3.878,3.88,3.881,0,91.22,9893.4803520244,73.8189,6,P-GPS,
9700,2023-10-09 21:17:59,38.4979782583492,-112.064253547664,75.787404,,,9895.4488560244,8.2021,24.6734482,74.61614412,76.604989328,22,5,0,9895.4488560244,75.787404,24.6734482,74.61614412,-21.25093,12.526864,-10.961006,149.1, -18.1, -0.4,0,0,1684,1024,1684,1024,100,0,100,0,0,0,0,99,3.869,3.873,3.878,3.878,3.88,3.881,0,91.22,9895.4488560244,75.787404,6,P-GPS,
9800,2023-10-09 21:17:59,38.497969574447,-112.06424715345,77.427824,,,9897.0892760244,8.2021,25.165575,78.2726403,80.261813592,22,5,0,9897.0892760244,77.427824,25.165575,78.2726403,-21.698318,12.750558,-10.961006,149.1, -17.8, -0.3,0,0,1684,1024,1684,1024,100,0,100,0,0,0,0,99,3.869,3.873,3.878,3.878,3.88,3.881,0,91.22,9897.0892760244,77.427824,6,P-GPS,
9900,2023-10-09 21:17:59,38.497960449871,-112.064240664001,79.068244,,,9898.7296960244,8.2021,25.4787466,82.082679792,84.071853084,22,5,0,9898.7296960244,79.068244,25.4787466,82.082679792,-21.922012,12.974252,-10.961006,149.2, -17.6, -0.4,0,0,1684,1024,1684,1024,100,0,100,0,0,0,0,99,3.869,3.873,3.878,3.878,3.88,3.881,0,91.22,9898.7296960244,79.068244,6,P-GPS,
10000,2023-10-09 21:18:00,38.4979514658736,-112.064234077637,80.708664,,,9900.3701160244,8.2021,25.8590264,85.861551304,87.850724596,22,5,0,9900.3701160244,80.708664,25.8590264,85.861551304,-22.3694,12.974252,-10.961006,149.2, -17.7, -0.4,0,0,1684,1024,1684,1024,100,0,100,0,0,0,0,99,3.869,3.873,3.878,3.878,3.88,3.881,0,91.22,9900.3701160244,80.708664,6,P-GPS,
10100,2023-10-09 21:18:00,38.4979422721126,-112.064227372174,82.349084,,,9902.0105360244,8.2021,26.172198,89.723756152,91.712929444,22,5,0,9902.0105360244,82.349084,26.172198,89.723756152,-22.593094,13.197946,-10.961006,149.3, -17.9, -0.6,0,0,1684,1024,1684,1024,100,0,100,0,0,0,0,99,3.869,3.873,3.878,3.878,3.88,3.881,0,91.22,9902.0105360244,82.349084,6,P-GPS,
10200,2023-10-09 21:18:00,38.497933023771,-112.06422058092,83.989504,,,9903.6509560244,8.2021,26.6643248,93.61548856,95.604989936,22,5,0,9903.6509560244,83.989504,26.6643248,93.61548856,-23.040482,13.42164,-10.961006,149.4, -17.9, -0.8,0,0,1684,1024,1684,1024,100,0,100,0,0,0,0,99,3.869,3.873,3.878,3.878,3.88,3.881,0,91.22,9903.6509560244,83.989504,6,P-GPS,
10300,2023-10-09 21:18:00,38.4979233796985,-112.064213739259,85.629924,,,9905.2913760244,8.2021,26.9774964,97.640094988,99.629596364,22,5,0,9905.2913760244,85.629924,26.9774964,97.640094988,-23.264176,13.645334,-11.1847,149.3, -17.6, -0.6,0,0,1684,1024,1684,1024,100,0,100,0,0,0,0,99,3.869,3.873,3.878,3.878,3.88,3.881,0,91.22,9905.2913760244,85.629924,6,P-GPS,
10400,2023-10-09 21:18:00,38.4979138585566,-112.064206762856,87.270344,,,9906.9317960244,8.2021,27.1564516,101.644360208,103.633861584,22,5,0,9906.9317960244,87.270344,27.1564516,101.644360208,-23.48787,13.645334,-11.1847,149.4, -17.5, -0.5,0,0,1684,1024,1684,1024,100,0,100,0,0,0,0,99,3.869,3.873,3.878,3.878,3.88,3.881,0,91.22,9906.9317960244,87.270344,6,P-GPS,
10500,2023-10-09 21:18:00,38.4979043997533,-112.064199748398,88.910764,,,9908.5722160244,8.2021,27.6709478,105.634189732,107.624019192,22,5,0,9908.5722160244,88.910764,27.6709478,105.634189732,-23.935258,13.869028,-11.1847,149.3, -17.9, -0.4,0,0,1684,1024,1684,1024,100,0,100,0,0,0,0,99,3.869,3.873,3.878,3.878,3.88,3.881,0,91.22,9908.5722160244,88.910764,6,P-GPS,
10600,2023-10-09 21:18:00,38.4978946788706,-112.064192607678,90.551184,,,9910.2126360244,8.2021,27.96175,109.725069128,111.714898588,22,5,0,9910.2126360244,90.551184,27.96175,109.725069128,-24.158952,14.092722,-11.1847,149.3, -18.4, -0.4,0,0,1684,1024,1684,1024,100,0,100,0,0,0,0,99,3.869,3.873,3.878,3.878,3.88,3.881,0,91.22,9910.2126360244,90.551184,6,P-GPS,
10700,2023-10-09 21:18:00,38.4978846936136,-112.064185244322,92.191604,,,9911.8530560244,8.2021,28.1630746,113.931106008,115.921263552,22,5,0,9911.8530560244,92.191604,28.1630746,113.931106008,-24.382646,14.092722,-11.1847,149.3, -18.7, -0.5,0,0,1684,1024,1684,1024,100,0,100,0,0,0,0,99,3.869,3.873,3.878,3.878,3.88,3.881,0,91.22,9911.8530560244,92.191604,6,P-GPS,
10800,2023-10-09 21:18:00,38.497874738738,-112.064177911734,93.832024,,,9913.4934760244,8.2021,28.6552014,118.12336336,120.113520904,22,5,0,9913.4934760244,93.832024,28.6552014,118.12336336,-24.830034,14.316416,-10.961006,149.3, -18.6, -0.8,0,0,1684,1024,1684,1024,100,0,100,0,0,0,0,99,3.869,3.873,3.878,3.878,3.88,3.881,0,91.22,9913.4934760244,93.832024,6,P-GPS,
10900,2023-10-09 21:18:01,38.4978648221392,-112.064170447543,95.472444,,,9915.1338960244,8.2021,28.968373,122.321854308,124.31266802,22,5,0,9915.1338960244,95.472444,28.968373,122.321854308,-25.053728,14.54011,-10.961006,149.2, -18.3, -0.8,0,0,1684,1024,1684,1024,100,0,100,0,0,0,0,99,3.869,3.873,3.878,3.878,3.88,3.881,0,91.22,9915.1338960244,95.472444,6,P-GPS,
11000,2023-10-09 21:18:01,38.4978546605526,-112.064162878469,97.112864,,,9916.7743160244,8.2021,28.968373,126.613193028,128.604334824,22,5,0,9916.7743160244,97.112864,28.968373,126.613193028,-25.277422,14.763804,-10.961006,149.2, -17.6, -0.6,0,0,1684,1024,1684,1024,100,0,100,0,0,0,0,99,3.869,3.873,3.878,3.878,3.88,3.881,0,91.22,9916.7743160244,97.112864,6,P-GPS,
11100,2023-10-09 21:18:01,38.4978472784162,-112.064157317745,98.753284,,,9918.4147360244,8.2021,29.5723468,129.73917738,131.730975344,22,5,0,9918.4147360244,98.753284,29.5723468,129.73917738,-25.501116,14.987498,-10.961006,149.2, -16.8, -0.2,0,0,1684,1024,1684,1024,100,0,100,0,0,0,0,99,3.869,3.873,3.878,3.878,3.88,3.881,0,91.22,9918.4147360244,98.753284,6,P-GPS,
11200,2023-10-09 21:18:01,38.4978371938625,-112.064149771713,100.393704,,,9920.0551560244,8.2021,29.8855184,134.00262896,135.994755008,22,5,0,9920.0551560244,100.393704,29.8855184,134.00262896,-25.72481,15.211192,-10.961006,149.1, -16.2, 0,0,0,1684,1024,1684,1024,100,0,100,0,0,0,0,99,3.869,3.873,3.878,3.878,3.88,3.881,0,91.22,9920.0551560244,100.393704,6,P-GPS,
11300,2023-10-09 21:18:01,38.4978232549954,-112.064139506295,102.034124,,,9921.6955760244,8.2021,29.8855184,139.872379804,141.864505852,22,5,0,9921.6955760244,102.034124,29.8855184,139.872379804,-25.948504,15.211192,-11.1847,149.2, -16.2, -0.1,0,0,1684,1024,1684,1024,100,0,100,0,0,0,0,99,3.869,3.873,3.878,3.878,3.88,3.881,0,91.22,9921.6955760244,102.034124,6,P-GPS,
11400,2023-10-09 21:18:01,38.4978126765273,-112.064131616551,103.674544,,,9923.3359960244,8.2021,30.3776452,144.341211968,146.333338016,22,5,0,9923.3359960244,103.674544,30.3776452,144.341211968,-26.172198,15.434886,-11.1847,149.2, -16.5, -0.3,0,0,1684,1024,1684,1024,100,0,100,0,0,0,0,99,3.869,3.873,3.878,3.878,3.88,3.881,0,91.22,9923.3359960244,103.674544,6,P-GPS,
11500,2023-10-09 21:18:01,38.4978020633618,-112.064123682955,105.314964,,,9924.9764160244,8.2021,30.5789698,148.8271045,150.819558632,22,5,0,9924.9764160244,105.314964,30.5789698,148.8271045,-26.395892,15.434886,-11.1847,149.3, -16.9, -0.5,0,0,1684,1024,1684,1024,100,0,100,0,0,0,0,99,3.869,3.873,3.878,3.878,3.88,3.881,0,91.22,9924.9764160244,105.314964,6,P-GPS,
11600,2023-10-09 21:18:01,38.4977913266493,-112.064115679224,106.955384,,,9926.6168360244,8.2021,30.8921414,153.362209632,155.354991848,22,5,0,9926.6168360244,106.955384,30.8921414,153.362209632,-26.619586,15.65858,-11.1847,149.3, -17.6, -0.8,0,0,1684,1024,1684,1024,100,0,100,0,0,0,0,99,3.869,3.873,3.878,3.878,3.88,3.881,0,91.22,9926.6168360244,106.955384,6,P-GPS,
11700,2023-10-09 21:18:01,38.4977812137691,-112.064108402393,108.595804,,,9928.2572560244,8.2021,31.0710966,157.596461736,159.589243952,22,5,0,9928.2572560244,108.595804,31.0710966,157.596461736,-26.84328,15.65858,-11.1847,149.3, -18, -1.1,0,0,1684,1024,1684,1024,100,0,100,0,0,0,0,99,3.869,3.873,3.878,3.878,3.88,3.881,0,91.22,9928.2572560244,108.595804,6,P-GPS,
11800,2023-10-09 21:18:01,38.4977703599489,-112.064100315376,110.236224,,,9929.8976760244,8.2021,31.3842682,162.180451384,164.173561684,22,5,0,9929.8976760244,110.236224,31.3842682,162.180451384,-27.066974,15.882274,-11.1847,149.4, -17.6, -0.8,0,0,1684,1024,1684,1024,100,0,100,0,0,0,0,99,3.869,3.873,3.878,3.878,3.88,3.881,0,91.22,9929.8976760244,110.236224,6,P-GPS,
11900,2023-10-09 21:18:02,38.4977577131371,-112.064090848021,111.876644,,,9931.5380960244,8.2021,31.6974398,167.5278925,169.521330884,23,5,0,9931.5380960244,111.876644,31.6974398,167.5278925,-27.290668,16.105968,-11.1847,149.4, -17, -0.8,0,0,1684,1024,1684,1024,100,0,100,0,0,0,0,99,3.869,3.873,3.878,3.878,3.88,3.881,0,91.22,9931.5380960244,111.876644,6,P-GPS,
12000,2023-10-09 21:18:02,38.4977465358749,-112.06408249839,113.517064,,,9933.1785160244,8.2021,31.6974398,172.251645932,174.245084316,23,5,0,9933.1785160244,113.517064,31.6974398,172.251645932,-27.514362,16.105968,-11.1847,149.4, -16.5, -0.9,0,0,1684,1024,1684,1024,100,0,100,0,0,0,0,99,3.869,3.873,3.878,3.878,3.88,3.881,0,91.22,9933.1785160244,113.517064,6,P-GPS,
12100,2023-10-09 21:18:02,38.4977365231819,-112.06407484789,115.157484,,,9934.8189360244,8.2021,31.988242,176.507223496,178.501646132,23,5,0,9934.8189360244,115.157484,31.988242,176.507223496,-27.514362,16.329662,-11.1847,149.3, -16.4, -0.8,0,0,1684,1024,1684,1024,100,0,100,0,0,0,0,99,3.869,3.873,3.878,3.878,3.88,3.881,0,91.22,9934.8189360244,115.157484,6,P-GPS,
12200,2023-10-09 21:18:02,38.4977253226626,-112.064066441605,116.797904,,,9936.4593560244,8.2021,32.1895666,181.246068792,183.240819512,23,5,0,9936.4593560244,116.797904,32.1895666,181.246068792,-27.738056,16.329662,-10.961006,149.3, -16.7, -0.8,0,0,1684,1024,1684,1024,100,0,100,0,0,0,0,99,3.869,3.873,3.878,3.878,3.88,3.881,0,91.22,9936.4593560244,116.797904,6,P-GPS,
12300,2023-10-09 21:18:02,38.4977139339282,-112.064058244147,118.438324,,,9938.0997760244,8.2021,32.5027382,186.015097816,188.01017662,23,5,0,9938.0997760244,118.438324,32.5027382,186.015097816,-27.96175,16.553356,-10.961006,149.3, -16.6, -0.6,0,0,1684,1024,1684,1024,100,0,100,0,0,0,0,99,3.869,3.873,3.878,3.878,3.88,3.881,0,91.22,9938.0997760244,118.438324,6,P-GPS,
12400,2023-10-09 21:18:02,38.497702589516,-112.064049741534,120.078744,,,9939.7401960244,8.2021,32.5027382,190.813326316,192.80840512,23,5,0,9939.7401960244,120.078744,32.5027382,190.813326316,-27.96175,16.553356,-10.961006,149.3, -16.2, -0.2,0,0,1684,1024,1684,1024,100,0,100,0,0,0,0,99,3.869,3.873,3.878,3.878,3.88,3.881,0,91.22,9939.7401960244,120.078744,6,P-GPS,
12500,2023-10-09 21:18:02,38.4976909690324,-112.064041519042,121.719164,,,9941.3806160244,8.2021,32.6816934,195.65945508,197.654861968,22,5,0,9941.3806160244,121.719164,32.6816934,195.65945508,-28.185444,16.553356,-11.1847,149.3, -16, -0.1,0,0,1684,1024,1684,1024,100,0,100,0,0,0,0,99,3.869,3.873,3.878,3.878,3.88,3.881,0,91.22,9941.3806160244,121.719164,6,P-GPS,
12600,2023-10-09 21:18:02,38.4976794856597,-112.064032971898,123.359584,,,9943.0210360244,8.2021,32.6816934,200.507880432,202.503615404,22,5,0,9943.0210360244,123.359584,32.6816934,200.507880432,-28.409138,16.553356,-11.1847,149.4, -16, -0.4,0,0,1684,1024,1684,1024,100,0,100,0,0,0,0,99,3.869,3.873,3.878,3.878,3.88,3.881,0,91.22,9943.0210360244,123.359584,6,P-GPS,
12700,2023-10-09 21:18:02,38.4976671536927,-112.064023736324,125.000004,,,9944.6614560244,8.2021,32.994865,205.722775612,207.718838668,22,5,0,9944.6614560244,125.000004,32.994865,205.722775612,-28.409138,16.77705,-11.1847,149.4, -15.9, -0.8,0,0,1684,1024,1684,1024,100,0,100,0,0,0,0,99,3.869,3.873,3.878,3.878,3.88,3.881,0,91.22,9944.6614560244,125.000004,6,P-GPS,
12800,2023-10-09 21:18:02,38.4976555045744,-112.064015054382,126.640424,,,9946.3018760244,8.2021,33.1961896,210.64305136,212.639114416,22,5,0,9946.3018760244,126.640424,33.1961896,210.64305136,-28.632832,16.77705,-11.1847,149.3, -16.1, -1,0,0,1684,1024,1684,1024,100,0,100,0,0,0,0,99,3.869,3.873,3.878,3.878,3.88,3.881,0,91.22,9946.3018760244,126.640424,6,P-GPS,
12900,2023-10-09 21:18:02,38.4976447437484,-112.064007300771,128.280844,,,9947.9422960244,8.2021,33.3080366,215.150269352,217.146660492,23,5,0,9947.9422960244,128.280844,33.3080366,215.150269352,-28.632832,17.000744,-11.1847,149.2, -16.6, -0.8,0,0,1684,1024,1684,1024,100,0,100,0,0,0,0,99,3.869,3.873,3.878,3.878,3.88,3.881,0,91.22,9947.9422960244,128.280844,6,P-GPS,
13000,2023-10-09 21:18:03,38.4976331189148,-112.063998621193,129.921264,,,9949.5827160244,8.2021,33.3080366,220.062343,222.059062224,23,5,0,9949.5827160244,129.921264,33.3080366,220.062343,-28.632832,17.000744,-10.961006,149.1, -17.1, -0.3,0,0,1684,1024,1684,1024,100,0,100,0,0,0,0,99,3.869,3.873,3.878,3.878,3.88,3.881,0,91.22,9949.5827160244,129.921264,6,P-GPS,
13100,2023-10-09 21:18:03,38.4976204788507,-112.063989253163,131.561684,,,9951.2231360244,8.2021,33.4869918,225.393708,227.390427224,23,5,0,9951.2231360244,131.561684,33.4869918,225.393708,-28.856526,17.000744,-11.1847,149.1, -17.3, 0,0,0,1684,1024,1684,1024,100,0,100,0,0,0,0,99,3.869,3.873,3.878,3.878,3.88,3.881,0,91.22,9951.2231360244,131.561684,6,P-GPS,
13200,2023-10-09 21:18:03,38.4976086812498,-112.063980445111,133.202104,,,9952.8635560244,8.2021,33.4869918,230.37894438,232.375663604,23,5,0,9952.8635560244,133.202104,33.4869918,230.37894438,-28.856526,17.000744,-11.1847,149.1, -17.5, 0.2,0,0,1684,1024,1684,1024,100,0,100,0,0,0,0,99,3.869,3.873,3.878,3.878,3.88,3.881,0,91.22,9952.8635560244,133.202104,6,P-GPS,
13300,2023-10-09 21:18:03,38.4975981355609,-112.063972216601,134.842524,,,9954.5039760244,8.2021,33.8001634,234.885506204,236.883865848,23,5,0,9954.5039760244,134.842524,33.8001634,234.885506204,-29.08022,17.224438,-10.961006,149.1, -17.6, 0.5,0,0,1684,1024,1684,1024,100,0,100,0,0,0,0,99,3.869,3.873,3.878,3.878,3.88,3.881,0,91.22,9954.5039760244,134.842524,6,P-GPS,
13400,2023-10-09 21:18:03,38.4975863558053,-112.063963401766,136.482944,,,9956.1443960244,8.2021,33.8001634,239.865821324,241.864509052,23,5,0,9956.1443960244,136.482944,33.8001634,239.865821324,-29.08022,17.224438,-10.961006,149.1, -17.5, 0.2,0,0,1684,1024,1684,1024,100,0,100,0,0,0,0,99,3.869,3.873,3.878,3.878,3.88,3.881,0,91.22,9956.1443960244,136.482944,6,P-GPS,
13500,2023-10-09 21:18:03,38.4975746511986,-112.063954279173,138.123364,,,9957.7848160244,8.2021,34.113335,244.866477652,246.8668058,23,5,0,9957.7848160244,138.123364,34.113335,244.866477652,-29.303914,17.448132,-10.961006,149.1, -17.3, -0.1,0,0,1684,1024,1684,1024,100,0,100,0,0,0,0,99,3.869,3.873,3.878,3.878,3.88,3.881,0,91.22,9957.7848160244,138.123364,6,P-GPS,
13600,2023-10-09 21:18:03,38.497562803761,-112.063945360964,139.763784,,,9959.4252360244,8.2021,34.113335,249.882882012,251.883538244,23,5,0,9959.4252360244,139.763784,34.113335,249.882882012,-29.303914,17.448132,-10.961006,149.1, -16.8, -0.5,0,0,1684,1024,1684,1024,100,0,100,0,0,0,0,99,3.869,3.873,3.878,3.878,3.88,3.881,0,91.22,9959.4252360244,139.763784,6,P-GPS,
13700,2023-10-09 21:18:03,38.4975501928454,-112.063935399125,141.07612,,,9960.7375720244,8.2021,34.2922902,255.289706332,257.292987236,23,5,0,9960.7375720244,141.07612,34.2922902,255.289706332,-29.527608,17.448132,-10.961006,149.1, -16.3, -0.6,0,0,1684,1024,1684,1024,100,0,100,0,0,0,0,99,3.869,3.873,3.878,3.878,3.88,3.881,0,91.22,9960.7375720244,141.07612,6,P-GPS,
13800,2023-10-09 21:18:03,38.4975382233335,-112.063926300733,142.71654,,,9962.3779920244,8.2021,34.4041372,260.37074324,262.374352228,23,5,0,9962.3779920244,142.71654,34.4041372,260.37074324,-29.527608,17.671826,-10.961006,149, -16.9, -0.4,0,0,1684,1024,1684,1024,100,0,100,0,0,0,0,99,3.869,3.873,3.878,3.878,3.88,3.881,0,91.22,9962.3779920244,142.71654,6,P-GPS,
13900,2023-10-09 21:18:04,38.497526402407,-112.063917140895,144.35696,,,9964.0184120244,8.2021,34.4041372,265.41339432,267.418315644,23,5,0,9964.0184120244,144.35696,34.4041372,265.41339432,-29.527608,17.671826,-10.961006,149, -17.2, 0.2,0,0,1684,1024,1673,1024,100,0,98,0,0,0,0,99,3.869,3.873,3.878,3.878,3.88,3.881,0,91.22,9964.0184120244,144.35696,6,P-GPS,
14000,2023-10-09 21:18:04,38.4975143701453,-112.063907972742,145.99738,,,9965.6588320244,8.2021,34.6054618,270.524286872,272.52953628,23,5,0,9965.6588320244,145.99738,34.6054618,270.524286872,-29.751302,17.671826,-10.961006,149, -16.8, 0.8,0,0,1684,1024,1652,1024,100,0,95,0,0,0,0,99,3.869,3.873,3.878,3.878,3.88,3.881,0,91.22,9965.6588320244,145.99738,6,P-GPS,
14100,2023-10-09 21:18:04,38.4975023458302,-112.063899054621,147.6378,,,9967.2992520244,8.2021,34.6054618,275.596793596,277.602371088,23,5,0,9967.2992520244,147.6378,34.6054618,275.596793596,-29.751302,17.671826,-10.961006,149, -16.9, 0.9,0,0,1684,1024,1640,1024,100,0,93,0,0,0,0,99,3.869,3.873,3.878,3.878,3.88,3.881,0,91.22,9967.2992520244,147.6378,6,P-GPS,
14200,2023-10-09 21:18:04,38.4974902230746,-112.063889897628,149.27822,,,9968.9396720244,8.2021,34.8067864,280.734589036,282.740166528,23,5,0,9968.9396720244,149.27822,34.8067864,280.734589036,-29.974996,17.671826,-10.961006,149.1, -17.4, 0.2,0,0,1684,1024,1592,1024,100,0,86,0,0,0,0,99,3.869,3.873,3.878,3.878,3.88,3.881,0,91.22,9968.9396720244,149.27822,6,P-GPS,
14300,2023-10-09 21:18:04,38.4974792257726,-112.063881593929,150.91864,,,9970.5800920244,8.2021,34.8067864,285.395022256,287.400927832,23,5,0,9970.5800920244,150.91864,34.8067864,285.395022256,-29.974996,17.89552,-10.737312,149.3, -18, -0.2,0,0,1684,1024,1535,1024,100,0,77,0,0,0,0,99,3.869,3.873,3.878,3.878,3.88,3.881,0,91.22,9970.5800920244,150.91864,6,P-GPS,
14400,2023-10-09 21:18:04,38.4974671513125,-112.063872464333,152.230976,,,9971.8924280244,8.2021,34.9186334,290.51346074,292.5196944,23,5,0,9971.8924280244,152.230976,34.9186334,290.51346074,-29.974996,17.89552,-10.289924,149.3, -18.6, -0.4,0,0,1684,1024,1410,1024,100,0,58,0,0,0,0,99,3.869,3.873,3.878,3.878,3.88,3.881,0,91.22,9971.8924280244,152.230976,6,P-GPS,
14500,2023-10-09 21:18:04,38.4974530837947,-112.063861677822,153.871396,,,9973.5328480244,8.2021,34.9186334,296.498697152,298.50558698,23,5,0,9973.5328480244,153.871396,34.9186334,296.498697152,-29.974996,17.89552,-9.842536,149.4, -19.7, -0.6,0,0,1684,1024,1276,1024,100,0,38,0,0,0,0,99,3.869,3.873,3.878,3.878,3.88,3.881,0,91.22,9973.5328480244,153.871396,6,P-GPS,
14600,2023-10-09 21:18:04,38.4974408109467,-112.063852346818,155.183732,,,9974.8451840244,8.2021,35.0975886,301.708671072,303.715888984,23,5,0,9974.8451840244,155.183732,35.0975886,301.708671072,-30.19869,17.89552,-9.171454,149.5, -20.7, -0.5,0,0,1684,1024,1253,1024,100,0,35,0,0,0,0,99,3.869,3.873,3.878,3.878,3.88,3.881,0,91.22,9974.8451840244,155.183732,6,P-GPS,
14700,2023-10-09 21:18:04,38.4974297837084,-112.063843804466,156.496068,,,9976.1575200244,8.2021,35.0975886,306.412739464,308.420941628,23,5,0,9976.1575200244,156.496068,35.0975886,306.412739464,-30.19869,17.89552,-8.500372,149.7, -21.4, -0.2,0,0,1684,1024,1238,1024,100,0,32,0,0,0,0,99,3.869,3.873,3.878,3.878,3.88,3.881,0,91.22,9976.1575200244,156.496068,6,P-GPS,
14800,2023-10-09 21:18:04,38.4974175816252,-112.063834488911,157.808404,,,9977.4698560244,8.2021,35.2094356,311.598435168,313.606965416,23,5,0,9977.4698560244,157.808404,35.2094356,311.598435168,-30.19869,18.119214,-7.605596,149.8, -22.1, 0,0,0,1684,1024,1228,1024,100,0,31,0,0,0,0,99,3.869,3.873,3.878,3.878,3.88,3.881,0,91.22,9977.4698560244,157.808404,6,P-GPS,
14900,2023-10-09 21:18:05,38.4974063502447,-112.063825982884,158.792656,,,9978.4541080244,8.2021,35.2094356,316.36155868,318.370417012,23,5,0,9978.4541080244,158.792656,35.2094356,316.36155868,-30.19869,18.119214,-6.71082,149.9, -22.4, 0.2,0,0,1684,1024,1204,1024,100,0,27,0,0,0,0,99,3.869,3.873,3.878,3.878,3.88,3.881,0,91.22,9978.4541080244,158.792656,6,P-GPS,
15000,2023-10-09 21:18:05,38.497394224064,-112.063816713151,159.776908,,,9979.4383600244,8.2021,35.2094356,321.516742572,323.525928988,23,5,0,9979.4383600244,159.776908,35.2094356,321.516742572,-30.19869,18.119214,-5.816044,149.9, -22.3, 0.2,0,0,1684,1024,1181,1024,100,0,24,0,0,0,0,99,3.869,3.873,3.878,3.878,3.88,3.881,0,91.22,9979.4383600244,159.776908,6,P-GPS,
15100,2023-10-09 21:18:05,38.497381002229,-112.063806482374,160.433076,,,9980.0945280244,8.2021,35.2094356,327.155194196,329.1666772,23,5,0,9980.0945280244,160.433076,35.2094356,327.155194196,-30.19869,18.119214,-4.921268,149.9, -22.1, 0.2,0,0,1684,1024,1155,1024,100,0,20,0,0,0,0,99,3.869,3.873,3.878,3.878,3.88,3.881,0,91.22,9980.0945280244,160.433076,6,P-GPS,
15200,2023-10-09 21:18:05,38.4973687811701,-112.063797103096,161.089244,,,9980.7506960244,8.2021,35.2094356,332.35565368,334.3668086,23,5,0,9980.7506960244,161.089244,35.2094356,332.35565368,-30.19869,18.119214,-4.026492,149.9, -22.2, 0.3,0,0,1684,1024,1127,1024,100,0,16,0,0,0,0,99,3.869,3.873,3.878,3.878,3.88,3.881,0,91.22,9980.7506960244,161.089244,6,P-GPS,
15300,2023-10-09 21:18:05,38.4973576706994,-112.063788528665,161.417328,,,9981.0787800244,8.2021,35.4107602,337.0899058,339.10434156,23,5,0,9981.0787800244,161.417328,35.4107602,337.0899058,-30.422384,18.119214,-3.131716,149.9, -22.1, 0.4,0,0,1684,1024,1120,1024,100,0,15,0,0,0,0,99,3.869,3.873,3.878,3.878,3.88,3.881,0,91.22,9981.0787800244,161.417328,6,P-GPS,
15400,2023-10-09 21:18:05,38.4973455393123,-112.063779184443,162.073496,,,9981.7349480244,8.2021,35.4107602,342.2572288,344.27166456,23,5,0,9981.7349480244,162.073496,35.4107602,342.2572288,-30.422384,18.119214,-2.460634,149.8, -21.7, 0.6,0,0,1684,1024,1119,1024,100,0,14,0,0,0,0,99,3.869,3.873,3.878,3.878,3.88,3.881,0,91.22,9981.7349480244,162.073496,6,P-GPS,
15500,2023-10-09 21:18:05,38.4973331747374,-112.06376980057,162.073496,,,9981.7349480244,8.2021,35.6120848,347.5065728,349.51772772,23,5,0,9981.7349480244,162.073496,35.6120848,347.5065728,-30.646078,18.119214,-1.789552,149.8, -20.9, 0.6,0,0,1684,1024,1124,1024,100,0,15,0,0,0,0,99,3.869,3.873,3.878,3.878,3.88,3.881,0,91.22,9981.7349480244,162.073496,6,P-GPS,
15600,2023-10-09 21:18:05,38.4973209868345,-112.063760408688,162.40158,,,9982.0630320244,8.2021,35.6120848,352.69686168,354.71129744,23,5,0,9982.0630320244,162.40158,35.6120848,352.69686168,-30.646078,18.119214,-1.342164,149.8, -19.5, 0.5,0,0,1684,1024,1139,1024,100,0,17,0,0,0,0,99,3.869,3.873,3.878,3.878,3.88,3.881,0,91.22,9982.0630320244,162.40158,6,P-GPS,
15700,2023-10-09 21:18:05,38.4973078167201,-112.063750170208,162.40158,,,9982.0630320244,8.2021,35.79104,358.32022144,360.3346572,23,5,0,9982.0630320244,162.40158,35.79104,358.32022144,-30.869772,18.119214,-0.894776,149.6, -18.1, 0.3,0,0,1684,1024,1193,1024,100,0,26,0,0,0,0,99,3.869,3.873,3.878,3.878,3.88,3.881,0,91.22,9982.0630320244,162.40158,6,P-GPS,
15800,2023-10-09 21:18:05,38.4972955149634,-112.063740650093,162.729664,,,9982.3911160244,8.2021,35.902887,363.5662846,365.5840012,23,5,0,9982.3911160244,162.729664,35.902887,363.5662846,-30.869772,18.342908,-0.671082,149.4, -17.1, 0.5,0,0,1684,1024,1252,1024,100,0,35,0,0,0,0,99,3.869,3.873,3.878,3.878,3.88,3.881,0,91.22,9982.3911160244,162.729664,6,P-GPS,
15900,2023-10-09 21:18:05,38.4972832856155,-112.063731158513,162.729664,,,9982.3911160244,8.2021,35.902887,368.78610104,370.80381764,23,5,0,9982.3911160244,162.729664,35.902887,368.78610104,-30.869772,18.342908,-0.671082,149.1, -16.3, 0.7,0,0,1684,1024,1278,1024,100,0,38,0,0,0,0,99,3.869,3.873,3.878,3.878,3.88,3.881,0,91.22,9982.3911160244,162.729664,6,P-GPS,
16000,2023-10-09 21:18:06,38.4972709488532,-112.06372158483,162.729664,,,9982.3911160244,8.2021,36.1042116,374.05184924,376.06956584,23,5,0,9982.3911160244,162.729664,36.1042116,374.05184924,-31.093466,18.342908,-0.671082,148.8, -14.8, 0.8,0,0,1684,1024,1290,1024,100,0,40,0,0,0,0,99,3.869,3.873,3.878,3.878,3.88,3.881,0,91.22,9982.3911160244,162.729664,6,P-GPS,
16100,2023-10-09 21:18:06,38.4972586428493,-112.063712034998,162.729664,,,9982.3911160244,8.2021,36.1042116,379.30447408,381.32219068,23,5,0,9982.3911160244,162.729664,36.1042116,379.30447408,-31.093466,18.342908,-1.11847,148.6, -13.4, 0.8,0,0,1684,1024,1334,1024,100,0,47,0,0,0,0,99,3.869,3.873,3.878,3.878,3.88,3.881,0,91.22,9982.3911160244,162.729664,6,P-GPS,
16200,2023-10-09 21:18:06,38.4972462867688,-112.063702435931,163.057748,,,9982.7192000244,8.2021,36.1042116,384.5800648,386.5977814,23,5,0,9982.7192000244,163.057748,36.1042116,384.5800648,-31.093466,18.342908,-1.565858,148.4, -13, 0.7,0,0,1684,1024,1356,1024,100,0,50,0,0,0,0,99,3.869,3.873,3.878,3.878,3.88,3.881,0,91.22,9982.7192000244,163.057748,6,P-GPS,
16300,2023-10-09 21:18:06,38.4972349024187,-112.063693628711,163.057748,,,9982.7192000244,8.2021,36.1042116,389.435708,391.4534246,23,5,0,9982.7192000244,163.057748,36.1042116,389.435708,-31.093466,18.342908,-2.013246,148.2, -13.4, 0.6,0,0,1684,1024,1357,1024,100,0,50,0,0,0,0,99,3.869,3.873,3.878,3.878,3.88,3.881,0,91.22,9982.7192000244,163.057748,6,P-GPS,
16400,2023-10-09 21:18:06,38.4972226454637,-112.063684084087,163.385832,,,9983.0472840244,8.2021,36.1042116,394.67192864,396.68964524,23,5,0,9983.0472840244,163.385832,36.1042116,394.67192864,-31.093466,18.342908,-2.460634,148, -14.1, 0.6,0,0,1684,1024,1359,1024,100,0,51,0,0,0,0,99,3.869,3.873,3.878,3.878,3.88,3.881,0,91.22,9983.0472840244,163.385832,6,P-GPS,
16500,2023-10-09 21:18:06,38.4972101546358,-112.063674529573,163.713916,,,9983.3753680244,8.2021,36.2160586,399.9836086,402.0013252,23,5,0,9983.3753680244,163.713916,36.2160586,399.9836086,-31.093466,18.566602,-2.908022,147.9, -14.9, 0.7,0,0,1684,1024,1369,1024,100,0,52,0,0,0,0,99,3.869,3.873,3.878,3.878,3.88,3.881,0,91.22,9983.3753680244,163.713916,6,P-GPS,
16600,2023-10-09 21:18:06,38.4971978502074,-112.063664914881,164.042,,,9983.7034520244,8.2021,36.2160586,405.24279512,407.26379256,23,5,0,9983.7034520244,164.042,36.2160586,405.24279512,-31.093466,18.566602,-3.131716,147.9, -15.5, 0.7,0,0,1684,1024,1403,1024,100,0,57,0,0,0,0,99,3.869,3.873,3.878,3.878,3.88,3.881,0,91.22,9983.7034520244,164.042,6,P-GPS,
16700,2023-10-09 21:18:06,38.4971843943626,-112.063654450002,164.698168,,,9984.3596200244,8.2021,36.3279056,410.9908268,413.01182424,23,5,0,9984.3596200244,164.698168,36.3279056,410.9908268,-31.093466,18.790296,-3.579104,147.9, -15.8, 0.9,0,0,1684,1024,1428,1024,100,0,61,0,0,0,0,99,3.869,3.873,3.878,3.878,3.88,3.881,0,91.22,9984.3596200244,164.698168,6,P-GPS,
16800,2023-10-09 21:18:06,38.497171926552,-112.063644673116,165.026252,,,9984.6877040244,8.2021,36.5292302,416.32547264,418.34975092,23,5,0,9984.6877040244,165.026252,36.5292302,416.32547264,-31.31716,18.790296,-3.802798,148, -15.6, 1.3,0,0,1684,1024,1445,1024,100,0,64,0,0,0,0,99,3.869,3.873,3.878,3.878,3.88,3.881,0,91.22,9984.6877040244,165.026252,6,P-GPS,
