time(millisecond),datetime(utc),latitude,longitude,height_above_takeoff(feet),height_above_ground_at_drone_location(feet),ground_elevation_at_drone_location(feet),altitude_above_seaLevel(feet),height_sonar(feet),speed(mph),distance(feet),mileage(feet),satellites,gpslevel,voltage(v),max_altitude(feet),max_ascent(feet),max_speed(mph),max_distance(feet), xSpeed(mph), ySpeed(mph), zSpeed(mph), compass_heading(degrees), pitch(degrees), roll(degrees),isPhoto,isVideo,rc_elevator,rc_aileron,rc_throttle,rc_rudder,rc_elevator(percent),rc_aileron(percent),rc_throttle(percent),rc_rudder(percent),gimbal_heading(degrees),gimbal_pitch(degrees),gimbal_roll(degrees),battery_percent,voltageCell1,voltageCell2,voltageCell3,voltageCell4,voltageCell5,voltageCell6,current(A),battery_temperature(f),altitude(feet),ascent(feet),flycStateRaw,flycState,message
0,2023-10-10 00:16:40,38.4981560913682,-112.064373646865,0,Available with any HD 360 subscription,Available with any HD 360 subscription,9819.5084638306,0.656168,0,0,0,16,5,0,9819.5084638306,0,0,0,0,0,0,142.5, -6.6, -0.5,0,0,1024,1024,1024,1024,0,0,0,0,0,0,0,100,4.3,4.311,4.318,4.293,4.309,4.3,0,32,9819.5084638306,0,41,Motors_Started,"Setting new Return-To-Home altitude to 61m (200 ft). Data Recorder File Index is 42. Setting new Maximum Flight Altitude to 500m (1640 ft)"
100,2023-10-10 00:16:40,38.4981561192631,-112.064373633861,0,,,9819.5084638306,0.656168,0,0.0108336289556,0.0108336289556,16,5,0,9819.5084638306,0,0,0.0108336289556,0,0,0,142.5, -6.6, -0.5,0,0,1024,1024,1024,1024,0,0,0,0,0,0,0,100,4.3,4.311,4.318,4.293,4.309,4.3,0,32,9819.5084638306,0,41,Motors_Started,
200,2023-10-10 00:16:40,38.4981560644791,-112.064373665286,0,,,9819.5084638306,0.656168,0,0.011131562036,0.0327432425176,16,5,0,9819.5084638306,0,0,0.011131562036,0,0,0,142.5, -6.6, -0.5,0,0,1024,1024,1024,1024,0,0,0,0,0,0,0,100,4.3,4.311,4.318,4.293,4.309,4.3,0,32,9819.5084638306,0,41,Motors_Started,
300,2023-10-10 00:16:40,38.4981560857023,-112.064373656861,0,,,9819.5084638306,0.656168,0,0.0035241799028,0.040851707344,16,5,0,9819.5084638306,0,0,0.011131562036,0,0,0,142.5, -6.6, -0.5,0,0,1024,1024,1024,1024,0,0,0,0,0,0,0,100,4.3,4.311,4.318,4.293,4.309,4.3,0,32,9819.5084638306,0,41,Motors_Started,
400,2023-10-10 00:16:40,38.4981562092494,-112.064373517536,0,,,9819.5084638306,0.656168,0,0.056687665856,0.10097277226,16,5,0,9819.5084638306,0,0,0.056687665856,0,0,0,142.5, -6.6, -0.5,0,0,1024,1024,1024,1024,0,0,0,0,0,0,0,100,4.3,4.311,4.318,4.293,4.309,4.3,0,32,9819.5084638306,0,41,Motors_Started,
500,2023-10-10 00:16:40,38.498156240746,-112.064373498656,0,,,9819.5084638306,0.656168,0,0.069001970712,0.113666014136,16,5,0,9819.5084638306,0,0,0.069001970712,0,0,0,142.5, -6.6, -0.5,0,0,423,364,497,1604,-91,-100,-80,88,0,0,0,100,4.3,4.311,4.318,4.293,4.309,4.3,0,32,9819.5084638306,0,41,Motors_Started,
600,2023-10-10 00:16:40,38.4981561831112,-112.064373540837,0,,,9819.5084638306,0.656168,0,0.045133203544,0.137898954544,16,5,0,9819.5084638306,0,0,0.069001970712,0,0,0,142.4, -6.7, -0.5,0,0,962,960,939,1024,-9,-10,-13,0,0,0,0,100,4.3,4.311,4.318,4.293,4.309,4.3,0,32,9819.5084638306,0,41,Motors_Started,
700,2023-10-10 00:16:40,38.4981562087553,-112.064373527575,0,,,9819.5084638306,0.656168,0,0.054722114612,0.147992786888,16,5,0,9819.5084638306,0,0,0.069001970712,0,0,0,142.4, -6.6, -0.5,0,0,1024,1024,1024,1024,0,0,0,0,0,0,0,100,4.3,4.311,4.318,4.293,4.309,4.3,0,32,9819.5084638306,0,41,Motors_Started,
800,2023-10-10 00:16:40,38.4981563245121,-112.06437339386,0,,,9819.5084638306,0.656168,0,0.111600725356,0.204926843828,16,5,0,9819.5084638306,0,0,0.111600725356,0,0,0,142.4, -6.7, -0.5,0,0,1024,1024,1024,1024,0,0,0,0,0,0,0,100,4.3,4.311,4.318,4.293,4.309,4.3,0,32,9819.5084638306,0,41,Motors_Started,
900,2023-10-10 00:16:40,38.4981563603042,-112.064373371879,0,,,9819.5084638306,0.656168,0,0.125670607696,0.219415689436,16,5,0,9819.5084638306,0,0,0.125670607696,0,0,0,142.4, -6.7, -0.5,0,0,1024,1024,1024,1024,0,0,0,0,0,0,0,100,4.3,4.311,4.318,4.293,4.309,4.3,0,32,9819.5084638306,0,41,Motors_Started,
1000,2023-10-10 00:16:41,38.4981562948043,-112.064373424293,0,,,9819.5084638306,0.656168,0,0.09771489814,0.247612868816,16,5,0,9819.5084638306,0,0,0.125670607696,0,0,0,142.3, -6.6, -0.5,0,0,1024,1024,1024,1024,0,0,0,0,0,0,0,100,4.3,4.311,4.318,4.293,4.309,4.3,0,32,9819.5084638306,0,41,Motors_Started,
1100,2023-10-10 00:16:41,38.4981563187885,-112.064373403252,0,,,9819.5084638306,0.656168,0,0.108275265932,0.258227698552,16,5,0,9819.5084638306,0,0,0.125670607696,0,0,0,142.3, -6.7, -0.5,0,0,1024,1024,1024,1024,0,0,0,0,0,0,0,100,4.3,4.311,4.318,4.293,4.309,4.3,0,32,9819.5084638306,0,41,Motors_Started,
1200,2023-10-10 00:16:41,38.498156264839,-112.064373446582,0,,,9819.5084638306,0.656168,0,0.085301183832,0.28147638696,16,5,0,9819.5084638306,0,0,0.125670607696,0,0,0,142.3, -6.6, -0.5,0,0,1024,1024,1024,1024,0,0,0,0,0,0,0,100,4.3,4.311,4.318,4.293,4.309,4.3,0,32,9819.5084638306,0,41,Motors_Started,
1300,2023-10-10 00:16:41,38.4981562817577,-112.064373431229,0,,,9819.5084638306,0.656168,0,0.09282480612,0.289047581428,16,5,0,9819.5084638306,0,0,0.125670607696,0,0,0,142.4, -6.6, -0.5,0,0,1024,1024,1024,1024,0,0,0,0,0,0,0,100,4.3,4.311,4.318,4.293,4.309,4.3,0,32,9819.5084638306,0,41,Motors_Started,
1400,2023-10-10 00:16:41,38.4981562464791,-112.064373465441,0,,,9819.5084638306,0.656168,0,0.0767224434,0.305206374596,16,5,0,9819.5084638306,0,0,0.125670607696,0,0,0,142.4, -6.6, -0.5,0,0,1024,1024,1024,1024,0,0,0,0,0,0,0,100,4.3,4.311,4.318,4.293,4.309,4.3,0,32,9819.5084638306,0,41,Motors_Started,
1500,2023-10-10 00:16:41,38.498156258131,-112.064373455983,0,,,9819.5084638306,0.656168,0,0.08168635432,0.310243120164,16,5,0,9819.5084638306,0,0,0.125670607696,0,0,0,142.4, -6.6, -0.5,0,0,1024,1024,1024,1024,0,0,0,0,0,0,0,100,4.3,4.311,4.318,4.293,4.309,4.3,0,32,9819.5084638306,0,41,Motors_Started,
1600,2023-10-10 00:16:41,38.4981563896922,-112.064373310072,0,,,9819.5084638306,0.656168,0,0.145241802548,0.3738025054,16,5,0,9819.5084638306,0,0,0.145241802548,0,0,0,142.3, -6.7, -0.5,0,0,1024,1024,1024,1024,0,0,0,0,0,0,0,100,4.3,4.311,4.318,4.293,4.309,4.3,0,32,9819.5084638306,0,41,Motors_Started,
1700,2023-10-10 00:16:41,38.4981564111512,-112.064373290548,0,,,9819.5084638306,0.656168,0,0.154803810728,0.3834153666,16,5,0,9819.5084638306,0,0,0.154803810728,0,0,0,142.3, -6.7, -0.5,0,0,1024,1024,1024,1024,0,0,0,0,0,0,0,100,4.3,4.311,4.318,4.293,4.309,4.3,0,32,9819.5084638306,0,41,Motors_Started,
1800,2023-10-10 00:16:41,38.4981563527886,-112.064373336542,0,,,9819.5084638306,0.656168,0,0.130187996292,0.4084317716,16,5,25.831,9819.5084638306,0,0,0.154803810728,0,0,0,142.4, -6.6, -0.5,0,0,1024,1024,1024,1024,0,0,0,0,0,0,0,100,4.3,4.311,4.318,4.293,4.309,4.3,0,32,9819.5084638306,0,41,Motors_Started,
1900,2023-10-10 00:16:41,38.4981563669699,-112.064373321447,0,,,9819.5084638306,0.656168,0,0.13691273404,0.41516733612,16,5,25.831,9819.5084638306,0,0,0.154803810728,0,0,0,142.3, -6.7, -0.5,0,0,1024,1024,1024,1024,0,0,0,0,0,0,0,100,4.3,4.311,4.318,4.293,4.309,4.3,0,32,9819.5084638306,0,41,Motors_Started,
2000,2023-10-10 00:16:42,38.4981563335268,-112.064373359007,0,,,9819.5084638306,0.656168,0,0.120673560292,0.43141077496,16,5,25.831,9819.5084638306,0,0,0.154803810728,0,0,0,142.3, -6.6, -0.5,0,0,1024,1024,1024,1024,0,0,0,0,0,0,0,100,4.3,4.311,4.318,4.293,4.309,4.3,0,32,9819.5084638306,0,10,Assisted_Takeoff,
2100,2023-10-10 00:16:42,38.4981563440744,-112.064373349079,0,,,9819.5084638306,0.656168,0,0.125422904276,0.43619095884,16,5,25.831,9819.5084638306,0,0,0.154803810728,0,0,0,142.3, -6.6, -0.5,0,0,1024,1024,1024,1024,0,0,0,0,0,0,0,100,4.3,4.311,4.318,4.293,4.309,4.3,0,32,9819.5084638306,0,10,Assisted_Takeoff,
2200,2023-10-10 00:16:42,38.4981564858823,-112.064373377247,0,,,9819.5084638306,0.656168,0,0.163233601024,0.4885498844,16,5,25.831,9819.5084638306,0,0,0.163233601024,0,0,0,142.3, -6.6, -0.5,0,0,1024,1024,1024,1024,0,0,0,0,0,0,0,100,4.3,4.311,4.318,4.293,4.309,4.3,0,32,9819.5084638306,0,10,Assisted_Takeoff,
2300,2023-10-10 00:16:42,38.4981565068003,-112.064373371953,0,,,9819.5084638306,0.656168,0,0.170691278428,0.49633203688,16,5,25.831,9819.5084638306,0,0,0.170691278428,0,0,0,142.3, -6.6, -0.5,0,0,1024,1024,1024,1024,0,0,0,0,0,0,0,100,4.3,4.311,4.318,4.293,4.309,4.3,0,32,9819.5084638306,0,10,Assisted_Takeoff,
2400,2023-10-10 00:16:42,38.4981564600076,-112.064373229117,0,,,9819.5084638306,0.656168,0,0.179773299716,0.54054463672,16,5,25.831,9819.5084638306,0,0,0.179773299716,0,0,0,142.3, -6.6, -0.5,0,0,1024,1024,1024,1024,0,0,0,0,0,0,0,100,4.3,4.311,4.318,4.293,4.309,4.3,0,32,9819.5084638306,0,10,Assisted_Takeoff,
2500,2023-10-10 00:16:42,38.4981564768989,-112.064373212348,0,,,9819.5084638306,0.656168,0,0.187561685792,0.54834975508,16,5,25.831,9819.5084638306,0,0,0.187561685792,0,0,0,142.3, -6.6, -0.5,0,0,1024,1024,1024,1024,0,0,0,0,0,0,0,100,4.3,4.311,4.318,4.293,4.309,4.3,0,32,9819.5084638306,0,10,Assisted_Takeoff,
2600,2023-10-10 00:16:42,38.4981564423029,-112.064373251205,0,,,9819.5084638306,0.656168,0,0.17075623906,0.56515421756,16,5,25.831,9819.5084638306,0,0,0.187561685792,0,0,0,142.3, -6.6, -0.5,0,0,1024,1024,1024,1024,0,0,0,0,0,0,0,100,4.3,4.311,4.318,4.293,4.309,4.3,0,32,9819.5084638306,0,10,Assisted_Takeoff,
2700,2023-10-10 00:16:42,38.4981564539786,-112.064373240132,0,,,9819.5084638306,0.656168,0,0.176042984636,0.57045933584,16,5,25.831,9819.5084638306,0,0,0.187561685792,0,0,0,142.3, -6.6, -0.5,0,0,1024,1024,1024,1024,0,0,0,0,0,0,0,100,4.3,4.311,4.318,4.293,4.309,4.3,0,32,9819.5084638306,0,10,Assisted_Takeoff,
2800,2023-10-10 00:16:42,38.4981564310418,-112.064373269112,0,,,9819.5084638306,0.656168,0,0.1642962651,0.58223098976,16,5,25.905,9819.5084638306,0,0,0.187561685792,0,0,0,142.3, -6.6, -0.5,0,0,1024,1024,1024,1024,0,0,0,0,0,0,0,100,4.313,4.317,4.32,4.317,4.318,4.32,0,32,9819.5084638306,0,10,Assisted_Takeoff,
2900,2023-10-10 00:16:42,38.498156439966,-112.064373262042,0,,,9819.5084638306,0.656168,0,0.168078745536,0.58605973004,16,5,25.905,9819.5084638306,0,0,0.187561685792,0,0,0,142.3, -6.6, -0.5,0,0,1024,1024,1024,1024,0,0,0,0,0,0,0,100,4.313,4.317,4.32,4.317,4.318,4.32,0,32,9819.5084638306,0,10,Assisted_Takeoff,
3000,2023-10-10 00:16:43,38.4981565855945,-112.064373286795,0,,,9819.5084638306,0.656168,0,0.2075705447,0.63966209396,16,5,25.905,9819.5084638306,0,0,0.2075705447,0,0,0,142.3, -6.6, -0.5,0,0,1024,1024,1024,1024,0,0,0,0,0,0,0,100,4.313,4.317,4.32,4.317,4.318,4.32,0,32,9819.5084638306,0,10,Assisted_Takeoff,
3100,2023-10-10 00:16:43,38.4981566069135,-112.06437328357,0,,,9819.5084638306,0.656168,0,0.214805453068,0.64749345904,16,5,25.905,9819.5084638306,0,0,0.214805453068,0,0,0,142.3, -6.6, -0.5,0,0,1024,1024,1024,1024,0,0,0,0,0,0,0,100,4.313,4.317,4.32,4.317,4.318,4.32,0,32,9819.5084638306,0,10,Assisted_Takeoff,
3200,2023-10-10 00:16:43,38.4981565696061,-112.064373300187,0,,,9819.5084638306,0.656168,0,0.200609586472,0.66190947,16,5,25.905,9819.5084638306,0,0,0.214805453068,0,0,0,142.3, -6.6, -0.5,0,0,1024,1024,1024,1024,0,0,0,0,0,0,0,100,4.313,4.317,4.32,4.317,4.318,4.32,0,32,9819.5084638306,0,10,Assisted_Takeoff,
3300,2023-10-10 00:16:43,38.4981565848224,-112.06437330143,0,,,9819.5084638306,0.656168,0,0.205285767724,0.6674704938,16,5,25.905,9819.5084638306,0,0,0.214805453068,0,0,0,142.3, -6.6, -0.5,0,0,1024,1024,1024,1024,0,0,0,0,0,0,0,100,4.313,4.317,4.32,4.317,4.318,4.32,0,32,9819.5084638306,0,10,Assisted_Takeoff,
3400,2023-10-10 00:16:43,38.4981565476249,-112.064373147859,0,,,9819.5084638306,0.656168,0,0.2191191015,0.71337600708,16,5,25.905,9819.5084638306,0,0,0.2191191015,0,0,0,142.3, -6.6, -0.5,0,0,1024,1024,1024,1024,0,0,0,0,0,0,0,100,4.313,4.317,4.32,4.317,4.318,4.32,0,32,9819.5084638306,0,10,Assisted_Takeoff,
3500,2023-10-10 00:16:43,38.4981565595695,-112.064373136013,0.328084,,,9819.8365478306,0.656168,0,0.224629600364,0.71889109912,16,5,25.905,9819.8365478306,0.328084,0,0.224629600364,0,0,0,142.3, -6.6, -0.5,0,0,1024,1024,1024,1024,0,0,0,0,0,0,0,100,4.313,4.317,4.32,4.317,4.318,4.32,0,32,9819.8365478306,0.328084,10,Assisted_Takeoff,
3600,2023-10-10 00:16:43,38.4981566954771,-112.064373168047,0.328084,,,9819.8365478306,0.656168,0,0.259370415124,0.76931432908,16,5,25.905,9819.8365478306,0.328084,0,0.259370415124,0,0,0,142.3, -6.6, -0.5,0,0,1024,1024,1024,1024,0,0,0,0,0,0,0,100,4.313,4.317,4.32,4.317,4.318,4.32,0,32,9819.8365478306,0.328084,10,Assisted_Takeoff,
3700,2023-10-10 00:16:43,38.4981567163213,-112.064373162981,0.328084,,,9819.8365478306,0.656168,0,0.266610244752,0.77705383064,16,5,25.905,9819.8365478306,0.328084,0,0.266610244752,0,0,0,142.3, -6.6, -0.5,0,0,1024,1024,1024,1024,0,0,0,0,0,0,0,100,4.313,4.317,4.32,4.317,4.318,4.32,0,32,9819.8365478306,0.328084,10,Assisted_Takeoff,
3800,2023-10-10 00:16:43,38.4981566743568,-112.064373019828,0.328084,,,9819.8365478306,0.656168,0,0.27802822412,0.82070540684,16,5,25.913,9819.8365478306,0.328084,0,0.27802822412,0,0,0,142.3, -6.6, -0.5,0,0,1024,1024,1024,1024,0,0,0,0,0,0,0,100,4.314,4.318,4.321,4.319,4.32,4.321,0,32,9819.8365478306,0.328084,10,Assisted_Takeoff,
3900,2023-10-10 00:16:43,38.4981566920839,-112.06437300164,0.328084,,,9819.8365478306,0.656168,0,0.286320875304,0.82899937036,16,5,25.913,9819.8365478306,0.328084,0,0.286320875304,0,0,0,142.3, -6.6, -0.5,0,0,1024,1024,1024,1024,0,0,0,0,0,0,0,100,4.314,4.318,4.321,4.319,4.32,4.321,0,32,9819.8365478306,0.328084,10,Assisted_Takeoff,
4000,2023-10-10 00:16:43,38.498156654006,-112.06437304462,0.328084,,,9819.8365478306,0.656168,0,0.267789706732,0.84753611636,16,5,25.913,9819.8365478306,0.328084,0,0.286320875304,0,0,0,142.3, -6.6, -0.5,0,0,1024,1024,1024,1024,0,0,0,0,0,0,0,100,4.314,4.318,4.321,4.319,4.32,4.321,0,32,9819.8365478306,0.328084,10,Assisted_Takeoff,
4100,2023-10-10 00:16:44,38.4981566651121,-112.064373032816,0.328084,,,9819.8365478306,0.656168,0,0.273060376192,0.8528051454,16,5,25.913,9819.8365478306,0.328084,0,0.286320875304,0,0,0,142.3, -6.6, -0.5,0,0,1024,1024,1024,1024,0,0,0,0,0,0,0,100,4.314,4.318,4.321,4.319,4.32,4.321,0,32,9819.8365478306,0.328084,10,Assisted_Takeoff,
4200,2023-10-10 00:16:44,38.4981568001274,-112.064373062275,0.328084,,,9819.8365478306,0.656168,0,0.30778708334,0.90277890028,16,5,25.913,9819.8365478306,0.328084,0,0.30778708334,0,0,0,142.3, -6.6, -0.4,0,0,1024,1024,1095,1024,0,0,11,0,0,0,0,100,4.314,4.318,4.321,4.319,4.32,4.321,0,32,9819.8365478306,0.328084,10,Assisted_Takeoff,
4300,2023-10-10 00:16:44,38.4981568229571,-112.064373053245,0.328084,,,9819.8365478306,0.656168,0,0.316192267336,0.911499373,16,5,25.913,9819.8365478306,0.328084,0,0.316192267336,0,0,0,142.3, -6.6, -0.5,0,0,1024,1024,1147,1024,0,0,19,0,0,0,0,100,4.314,4.318,4.321,4.319,4.32,4.321,0,32,9819.8365478306,0.328084,10,Assisted_Takeoff,
4400,2023-10-10 00:16:44,38.4981567743733,-112.064372912839,0.328084,,,9819.8365478306,0.656168,0,0.325618776824,0.95533467624,16,5,25.913,9819.8365478306,0.328084,0,0.325618776824,0,0,0,142.3, -6.7, -0.5,0,0,1024,1024,1201,1024,0,0,27,0,0,0,0,100,4.314,4.318,4.321,4.319,4.32,4.321,0,32,9819.8365478306,0.328084,10,Assisted_Takeoff,
4500,2023-10-10 00:16:44,38.4981567890383,-112.064372895466,0.328084,,,9819.8365478306,0.656168,0,0.3329068348,0.9626312644,16,5,25.913,9819.8365478306,0.328084,0,0.3329068348,0,0,0,142.3, -6.6, -0.4,0,0,1024,1024,1277,1024,0,0,38,0,0,0,0,100,4.314,4.318,4.321,4.319,4.32,4.321,0,32,9819.8365478306,0.328084,10,Assisted_Takeoff,
4600,2023-10-10 00:16:44,38.4981567525186,-112.064372941331,0.328084,,,9819.8365478306,0.656168,0,0.314281834204,0.98131236736,16,5,25.913,9819.8365478306,0.328084,0,0.3329068348,0,0,0,142.3, -6.6, -0.4,0,0,1024,1024,1277,1024,0,0,38,0,0,0,0,100,4.314,4.318,4.321,4.319,4.32,4.321,0,32,9819.8365478306,0.328084,10,Assisted_Takeoff,
4700,2023-10-10 00:16:44,38.4981567656021,-112.064372928039,0.328084,,,9819.8365478306,0.656168,0,0.320378619176,0.98741144892,16,5,25.913,9819.8365478306,0.328084,0,0.3329068348,0,0,0,142.3, -6.5, -0.4,0,0,1024,1024,1384,1024,0,0,55,0,0,0,0,100,4.314,4.318,4.321,4.319,4.32,4.321,0,32,9819.8365478306,0.328084,10,Assisted_Takeoff,
4800,2023-10-10 00:16:44,38.4981568973737,-112.064372797854,0.328084,,,9819.8365478306,0.656168,0,0.38111549776,1.04818572908,16,5,25.777,9819.8365478306,0.328084,0,0.38111549776,0,0,0,142.3, -6.5, -0.4,0,0,1024,1024,1439,1024,0,0,63,0,0,0,0,100,4.293,4.284,4.286,4.301,4.31,4.303,0,32,9819.8365478306,0.328084,10,Assisted_Takeoff,
4900,2023-10-10 00:16:44,38.498156919191,-112.064372777125,0.328084,,,9819.8365478306,0.656168,0,0.39102363456,1.0581037084,16,5,25.777,9819.8365478306,0.328084,0,0.39102363456,0,0,0,142.3, -6.5, -0.4,0,0,1024,1024,1492,1024,0,0,71,0,0,0,0,100,4.293,4.284,4.286,4.301,4.31,4.303,0,32,9819.8365478306,0.328084,10,Assisted_Takeoff,
5000,2023-10-10 00:16:45,38.4981568742007,-112.064372826171,0.328084,,,9819.8365478306,0.656168,0,0.36944883072,1.07968179308,16,5,25.777,9819.8365478306,0.328084,0,0.39102363456,0,0,0,142.3, -6.4, -0.4,0,0,1024,1024,1540,1024,0,0,78,0,0,0,0,100,4.293,4.284,4.286,4.301,4.31,4.303,0,32,9819.8365478306,0.328084,10,Assisted_Takeoff,
5100,2023-10-10 00:16:45,38.4981568882004,-112.064372813767,0.328084,,,9819.8365478306,0.656168,0,0.37564633748,1.08589570404,16,5,25.777,9819.8365478306,0.328084,0,0.39102363456,0,0,0,142.3, -6.4, -0.4,0,0,1024,1024,1569,1024,0,0,83,0,0,0,0,100,4.293,4.284,4.286,4.301,4.31,4.303,0,32,9819.8365478306,0.328084,10,Assisted_Takeoff,
5200,2023-10-10 00:16:45,38.498156850518,-112.064372849572,0.328084,,,9819.8365478306,0.656168,0,0.3585301952,1.10302825052,16,5,25.777,9819.8365478306,0.328084,0,0.39102363456,0,0,0,142.3, -6.2, -0.3,0,0,1024,1024,1588,1024,0,0,85,0,0,0,0,100,4.293,4.284,4.286,4.301,4.31,4.303,0,32,9819.8365478306,0.328084,10,Assisted_Takeoff,
5300,2023-10-10 00:16:45,38.4981568600759,-112.064372838891,0.328084,,,9819.8365478306,0.656168,0,0.36316274128,1.1076607966,16,5,25.777,9819.8365478306,0.328084,0,0.39102363456,0,0,0,142.3, -5.6, -0.4,0,0,1024,1024,1620,1024,0,0,90,0,0,0,0,100,4.293,4.284,4.286,4.301,4.31,4.303,0,32,9819.8365478306,0.328084,10,Assisted_Takeoff,
5400,2023-10-10 00:16:45,38.4981568251738,-112.064372858202,0.328084,,,9819.8365478306,0.656168,0,0.34984581172,1.1215387498,16,5,25.777,9819.8365478306,0.328084,0,0.39102363456,0,0,-0.223694,141.6, -3.1, -0.3,0,0,1024,1024,1618,1024,0,0,90,0,0,0,0,100,4.293,4.284,4.286,4.301,4.31,4.303,0,32,9819.8365478306,0.328084,10,Assisted_Takeoff,
5500,2023-10-10 00:16:45,38.498156810883,-112.064372820412,0.328084,,,9819.8365478306,0.656168,0,0.35299213728,1.13352365832,16,5,25.777,9819.8365478306,0.328084,0,0.39102363456,0,0,-0.447388,140.4, 1.7, 0,0,0,1024,1024,1608,1024,0,0,88,0,0,0,0,100,4.293,4.284,4.286,4.301,4.31,4.303,0,32,9819.8365478306,0.328084,6,P-GPS,
5600,2023-10-10 00:16:45,38.4981569396482,-112.064372676575,0.656168,,,9820.1646318306,0.656168,0,0.41539043324,1.19592523512,16,5,25.777,9820.1646318306,0.656168,0,0.41539043324,0,0,-0.671082,139.5, 5.9, 0,0,0,1024,1024,1599,1024,0,0,87,0,0,0,0,100,4.293,4.284,4.286,4.301,4.31,4.303,0,32,9820.1646318306,0.656168,6,P-GPS,
5700,2023-10-10 00:16:45,38.4981570115095,-112.064372754071,0.656168,,,9820.1646318306,0.984252,0.223694,0.42153544656,1.230232979,16,5,25.777,9820.1646318306,0.656168,0.223694,0.42153544656,0,-0.223694,-1.11847,138.9, 7.3, -0.7,0,0,1024,1024,1587,1024,0,0,85,0,0,0,0,100,4.293,4.284,4.286,4.301,4.31,4.303,0,32,9820.1646318306,0.656168,6,P-GPS,
5800,2023-10-10 00:16:45,38.4981571418445,-112.064372985592,0.984252,,,9820.4927158306,0.984252,0.3131716,0.42725395068,1.31166998948,16,5,24.828,9820.4927158306,0.984252,0.3131716,0.42725395068,0.223694,-0.223694,-1.565858,138.7, 5.5, -0.6,0,0,1024,1024,1584,1024,0,0,85,0,0,0,0,100,4.118,4.125,4.144,4.152,4.153,4.136,0,32,9820.4927158306,0.984252,6,P-GPS,
5900,2023-10-10 00:16:45,38.4981573754306,-112.064373260282,0.984252,,,9820.4927158306,1.312336,0.6263432,0.48131891304,1.427493484,16,5,24.828,9820.4927158306,0.984252,0.6263432,0.48131891304,0.447388,-0.447388,-2.013246,138.6, 2.4, 0,0,0,1024,1024,1584,1024,0,0,85,0,0,0,0,100,4.118,4.125,4.144,4.152,4.153,4.136,0,32,9820.4927158306,0.984252,6,P-GPS,
6000,2023-10-10 00:16:46,38.4981574049213,-112.064373707158,1.312336,,,9820.8207998306,1.64042,0.8052984,0.47955710196,1.55554795004,16,5,24.828,9820.8207998306,1.312336,0.8052984,0.48131891304,0.447388,-0.671082,-2.460634,138.6, 0, 0.4,0,0,1024,1024,1584,1024,0,0,85,0,0,0,0,100,4.118,4.125,4.144,4.152,4.153,4.136,0,32,9820.8207998306,1.312336,6,P-GPS,
6100,2023-10-10 00:16:46,38.498157632503,-112.064374075129,1.64042,,,9821.1488838306,1.968504,0.8052984,0.5754265276,1.68946527716,16,5,24.828,9821.1488838306,1.64042,0.8052984,0.5754265276,0.447388,-0.671082,-2.908022,138.6, -1.3, 0.1,0,0,1024,1024,1584,1024,0,0,85,0,0,0,0,100,4.118,4.125,4.144,4.152,4.153,4.136,0,32,9821.1488838306,1.64042,6,P-GPS,
6200,2023-10-10 00:16:46,38.4981581248072,-112.064374141236,2.296588,,,9821.8050518306,2.624672,0.8052984,0.75520999792,1.87007223832,16,5,24.828,9821.8050518306,2.296588,0.8052984,0.75520999792,0.447388,-0.671082,-3.35541,138.9, -2.1, -0.4,0,0,1024,1024,1584,1024,0,0,85,0,0,0,0,100,4.118,4.125,4.144,4.152,4.153,4.136,0,32,9821.8050518306,2.296588,6,P-GPS,
6300,2023-10-10 00:16:46,38.4981583089041,-112.064374468066,2.952756,,,9822.4612198306,2.952756,0.7158208,0.84236223168,1.98505255696,16,5,24.828,9822.4612198306,2.952756,0.8052984,0.84236223168,0.223694,-0.671082,-4.026492,139, -2.8, -0.8,0,0,1024,1024,1584,1024,0,0,85,0,0,0,0,100,4.118,4.125,4.144,4.152,4.153,4.136,0,32,9822.4612198306,2.952756,6,P-GPS,
6400,2023-10-10 00:16:46,38.4981581406511,-112.064374506231,3.608924,,,9823.1173878306,3.608924,0.4921268,0.78691603568,2.04740164032,16,5,24.828,9823.1173878306,3.608924,0.8052984,0.84236223168,0.223694,-0.447388,-4.697574,139.2, -3.3, -1.1,0,0,1024,1024,1582,1024,0,0,85,0,0,0,0,100,4.118,4.125,4.144,4.152,4.153,4.136,0,32,9823.1173878306,3.608924,6,P-GPS,
6500,2023-10-10 00:16:46,38.4981582252353,-112.064374725947,4.265092,,,9823.7735558306,4.265092,0.4921268,0.83729661472,2.11731962156,16,5,24.828,9823.7735558306,4.265092,0.8052984,0.84236223168,0.223694,-0.447388,-5.144962,139.2, -3.4, -0.9,0,0,1024,1024,1579,1024,0,0,84,0,0,0,0,100,4.118,4.125,4.144,4.152,4.153,4.136,0,32,9823.7735558306,4.265092,6,P-GPS,
6600,2023-10-10 00:16:46,38.498158185143,-112.064374843508,4.92126,,,9824.4297238306,5.249344,0.4921268,0.83684713964,2.15393379596,16,5,24.828,9824.4297238306,4.92126,0.8052984,0.84236223168,0.223694,-0.447388,-5.816044,139.1, -3.4, -0.9,0,0,1024,1024,1569,1024,0,0,83,0,0,0,0,100,4.118,4.125,4.144,4.152,4.153,4.136,0,32,9824.4297238306,4.92126,6,P-GPS,
6700,2023-10-10 00:16:46,38.4981581718627,-112.064374973383,5.905512,,,9825.4139758306,5.905512,0.223694,0.84832351796,2.19133537196,16,5,24.828,9825.4139758306,5.905512,0.8052984,0.84832351796,0,-0.223694,-6.487126,139.2, -3.5, -1,0,0,1024,1024,1565,1024,0,0,82,0,0,0,0,100,4.118,4.125,4.144,4.152,4.153,4.136,0,32,9825.4139758306,5.905512,6,P-GPS,
6800,2023-10-10 00:16:46,38.4981579014775,-112.064375030498,6.889764,,,9826.3982278306,6.889764,0.223694,0.76957351544,2.2913222518,16,5,24.828,9826.3982278306,6.889764,0.8052984,0.84832351796,0,-0.223694,-7.158208,139.5, -3.6, -1.5,0,0,1024,1024,1563,1024,0,0,82,0,0,0,0,100,4.118,4.125,4.144,4.152,4.153,4.136,0,32,9826.3982278306,6.889764,6,P-GPS,
6900,2023-10-10 00:16:46,38.4981577741028,-112.064375036418,7.874016,,,9827.3824798306,7.545932,0,0.73099739872,2.3378281588,16,5,24.828,9827.3824798306,7.874016,0.8052984,0.84832351796,0,0,-7.605596,139.8, -3.3, -2.2,0,0,1024,1024,1560,1024,0,0,81,0,0,0,0,100,4.118,4.125,4.144,4.152,4.153,4.136,0,32,9827.3824798306,7.874016,6,P-GPS,
7000,2023-10-10 00:16:47,38.4981575940216,-112.064375106262,9.186352,,,9828.6948158306,8.530184,0,0.68863847348,2.40648957832,16,5,24.828,9828.6948158306,9.186352,0.8052984,0.84832351796,0,0,-8.052984,140.1, -2.8, -2.8,0,0,1024,1024,1556,1024,0,0,81,0,0,0,0,100,4.118,4.125,4.144,4.152,4.153,4.136,0,32,9828.6948158306,9.186352,6,P-GPS,
7100,2023-10-10 00:16:47,38.4981574109012,-112.064374971138,10.498688,,,9830.0071518306,9.514436,0.223694,0.61217849728,2.48364181176,16,5,24.828,9830.0071518306,10.498688,0.8052984,0.84832351796,-0.223694,0,-8.500372,140.3, -2.5, -2.8,0,0,1024,1024,1550,1024,0,0,80,0,0,0,0,100,4.118,4.125,4.144,4.152,4.153,4.136,0,32,9830.0071518306,10.498688,6,P-GPS,
7200,2023-10-10 00:16:47,38.4981571405968,-112.06437467214,11.811024,,,9831.3194878306,10.170604,0.223694,0.48192586844,2.61408472932,16,5,24.828,9831.3194878306,11.811024,0.8052984,0.84832351796,-0.223694,0.223694,-8.724066,140.4, -2.3, -2.2,0,0,1024,1024,1548,1024,0,0,79,0,0,0,0,100,4.118,4.125,4.144,4.152,4.153,4.136,0,32,9831.3194878306,11.811024,6,P-GPS,
7300,2023-10-10 00:16:47,38.4981569131877,-112.06437440377,13.12336,,,9832.6318238306,10.826772,0.3131716,0.36961615356,2.72702764632,16,5,24.828,9832.6318238306,13.12336,0.8052984,0.84832351796,-0.223694,0.223694,-8.94776,140.5, -1.9, -1.4,0,0,1024,1024,1548,1024,0,0,79,0,0,0,0,100,4.118,4.125,4.144,4.152,4.153,4.136,0,32,9832.6318238306,13.12336,6,P-GPS,
7400,2023-10-10 00:16:47,38.4981565418084,-112.064373919207,14.435696,,,9833.9441598306,11.48294,0.4921268,0.181812997944,2.920685789,16,5,24.828,9833.9441598306,14.435696,0.8052984,0.84832351796,-0.223694,0.447388,-8.94776,140.5, -1.3, -0.9,0,0,1024,1024,1537,1024,0,0,78,0,0,0,0,100,4.118,4.125,4.144,4.152,4.153,4.136,0,32,9833.9441598306,14.435696,6,P-GPS,
7500,2023-10-10 00:16:47,38.4981562632234,-112.064373586462,15.748032,,,9835.2564958306,11.811024,0.6263432,0.065030185808,3.05981965172,15,5,24.828,9835.2564958306,15.748032,0.8052984,0.84832351796,-0.447388,0.447388,-8.94776,140.6, -0.5, -0.8,0,0,1024,1024,1536,1024,0,0,78,0,0,0,0,100,4.118,4.125,4.144,4.152,4.153,4.136,0,32,9835.2564958306,15.748032,6,P-GPS,
7600,2023-10-10 00:16:47,38.4981561176432,-112.064373286922,17.060368,,,9836.5688318306,12.795276,0.6263432,0.103224740836,3.16050206964,15,5,24.828,9836.5688318306,17.060368,0.8052984,0.84832351796,-0.447388,0.447388,-8.724066,140.6, 0.1, -0.8,0,0,1024,1024,1538,1024,0,0,78,0,0,0,0,100,4.118,4.125,4.144,4.152,4.153,4.136,0,32,9836.5688318306,17.060368,6,P-GPS,
7700,2023-10-10 00:16:47,38.4981558489787,-112.064372956916,18.372704,,,9837.8811678306,13.451444,0.6263432,0.215947841556,3.2964567984,16,5,24.828,9837.8811678306,18.372704,0.8052984,0.84832351796,-0.447388,0.447388,-8.724066,140.6, 0.4, -0.9,0,0,1024,1024,1540,1024,0,0,78,0,0,0,0,100,4.118,4.125,4.144,4.152,4.153,4.136,0,32,9837.8811678306,18.372704,6,P-GPS,
7800,2023-10-10 00:16:47,38.4981556316676,-112.064372718886,19.68504,,,9839.1935038306,11.154856,0.6263432,0.313596794812,3.400918744,16,5,24.471,9839.1935038306,19.68504,0.8052984,0.84832351796,-0.447388,0.447388,-8.500372,140.5, 0.6, -0.8,0,0,1024,1024,1566,1024,0,0,82,0,0,0,0,100,4.061,4.068,4.086,4.089,4.084,4.083,0,32,9839.1935038306,19.68504,6,P-GPS,
7900,2023-10-10 00:16:47,38.4981553789725,-112.064372428503,20.997376,,,9840.5058398306,12.139108,0.3131716,0.43426510576,3.5249016876,16,5,24.471,9840.5058398306,20.997376,0.8052984,0.84832351796,-0.223694,0.223694,-8.276678,140.5, 0.8, -0.7,0,0,1024,1024,1578,1024,0,0,84,0,0,0,0,100,4.061,4.068,4.086,4.089,4.084,4.083,0,32,9840.5058398306,20.997376,6,P-GPS,
8000,2023-10-10 00:16:47,38.4981551836005,-112.064372281421,21.981628,,,9841.4900918306,13.451444,0.3131716,0.51157481952,3.6076444724,16,5,24.471,9841.4900918306,21.981628,0.8052984,0.84832351796,-0.223694,0.223694,-8.276678,140.5, 0.9, -0.6,0,0,1024,1024,1587,1024,0,0,85,0,0,0,0,100,4.061,4.068,4.086,4.089,4.084,4.083,0,32,9841.4900918306,21.981628,6,P-GPS,
8100,2023-10-10 00:16:48,38.4981549521388,-112.064372057401,23.293964,,,9842.8024278306,6.233596,0.3131716,0.61542652888,3.713582796,16,5,24.471,9842.8024278306,23.293964,0.8052984,0.84832351796,-0.223694,0.223694,-8.276678,140.6, 1.1, -0.8,0,0,1024,1024,1592,1024,0,0,86,0,0,0,0,100,4.061,4.068,4.086,4.089,4.084,4.083,0,32,9842.8024278306,23.293964,6,P-GPS,
8200,2023-10-10 00:16:48,38.4981546136789,-112.06437190612,24.6063,,,9844.1147638306,7.545932,0.3131716,0.7333005484,3.8443898868,16,5,24.471,9844.1147638306,24.6063,0.8052984,0.84832351796,-0.223694,0.223694,-8.276678,140.7, 1.2, -1,0,0,1024,1024,1593,1024,0,0,86,0,0,0,0,100,4.061,4.068,4.086,4.089,4.084,4.083,0,32,9844.1147638306,24.6063,6,P-GPS,
8300,2023-10-10 00:16:48,38.4981544084131,-112.064371737956,25.918636,,,9845.4270998306,8.2021,0.223694,0.82105645672,3.9333662676,16,5,24.471,9845.4270998306,25.918636,0.8052984,0.84832351796,-0.223694,0,-8.276678,140.7, 1.2, -1.1,0,0,1024,1024,1610,1024,0,0,89,0,0,0,0,100,4.061,4.068,4.086,4.089,4.084,4.083,0,32,9845.4270998306,25.918636,6,P-GPS,
8400,2023-10-10 00:16:48,38.4981542428511,-112.064371981667,27.230972,,,9846.7394358306,8.2021,0.223694,0.82519031512,4.0255250632,16,5,24.471,9846.7394358306,27.230972,0.8052984,0.84832351796,-0.223694,0,-8.500372,140.7, 1, -1,0,0,1024,1024,1617,1024,0,0,90,0,0,0,0,100,4.061,4.068,4.086,4.089,4.084,4.083,0,32,9846.7394358306,27.230972,6,P-GPS,
8500,2023-10-10 00:16:48,38.4981540708703,-112.06437188853,28.215224,,,9847.7236878306,8.2021,0.223694,0.89191603904,4.09366811,16,5,24.471,9847.7236878306,28.215224,0.8052984,0.89191603904,-0.223694,0,-8.724066,140.6, 0.9, -0.8,0,0,1024,1024,1624,1024,0,0,91,0,0,0,0,100,4.061,4.068,4.086,4.089,4.084,4.083,0,32,9847.7236878306,28.215224,6,P-GPS,
8600,2023-10-10 00:16:48,38.4981540388985,-112.064371978029,29.52756,,,9849.0360238306,8.2021,0,0.88760173444,4.1217521004,16,5,24.471,9849.0360238306,29.52756,0.8052984,0.89191603904,0,0,-8.94776,140.6, 0.9, -0.7,0,0,1024,1024,1624,1024,0,0,91,0,0,0,0,100,4.061,4.068,4.086,4.089,4.084,4.083,0,32,9849.0360238306,29.52756,6,P-GPS,
8700,2023-10-10 00:16:48,38.4981539062526,-112.064371956835,31.16798,,,9850.6764438306,8.2021,0,0.93191604032,4.1705381912,16,5,24.471,9850.6764438306,31.16798,0.8052984,0.93191604032,0,0,-9.171454,140.5, 0.7, -0.9,0,0,1024,1024,1625,1024,0,0,91,0,0,0,0,100,4.061,4.068,4.086,4.089,4.084,4.083,0,32,9850.6764438306,31.16798,6,P-GPS,
8800,2023-10-10 00:16:48,38.4981539158861,-112.064372030728,32.480316,,,9851.9887798306,8.2021,0,0.9181266698,4.191929268,16,5,24.994,9851.9887798306,32.480316,0.8052984,0.93191604032,0,0,-9.395148,140.5, 0.4, -1.2,0,0,1024,1024,1625,1024,0,0,91,0,0,0,0,100,4.155,4.163,4.174,4.165,4.167,4.17,0,32,9851.9887798306,32.480316,6,P-GPS,
8900,2023-10-10 00:16:48,38.4981538217163,-112.064372047427,33.792652,,,9853.3011158306,8.2021,0,0.94567260244,4.2266077468,16,5,24.994,9853.3011158306,33.792652,0.8052984,0.94567260244,0,0,-9.395148,140.5, 0.1, -1.6,0,0,1024,1024,1624,1024,0,0,91,0,0,0,0,100,4.155,4.163,4.174,4.165,4.167,4.17,0,32,9853.3011158306,33.792652,6,P-GPS,
9000,2023-10-10 00:16:49,38.4981537579915,-112.064371976361,35.104988,,,9854.6134518306,8.2021,0,0.9758530496,4.2574476428,16,5,24.994,9854.6134518306,35.104988,0.8052984,0.9758530496,0,0,-9.618842,140.6, -0.1, -1.9,0,0,1024,1024,1621,1024,0,0,90,0,0,0,0,100,4.155,4.163,4.174,4.165,4.167,4.17,0,32,9854.6134518306,35.104988,6,P-GPS,
9100,2023-10-10 00:16:49,38.4981536895952,-112.064371971879,36.745408,,,9856.2538718306,8.2021,0,0.9983103994,4.2824476436,16,5,24.994,9856.2538718306,36.745408,0.8052984,0.9983103994,0,0,-9.618842,140.6, -0.3, -2,0,0,1024,1024,1619,1037,0,0,90,2,0,0,0,100,4.155,4.163,4.174,4.165,4.167,4.17,0,32,9856.2538718306,36.745408,6,P-GPS,
9200,2023-10-10 00:16:49,38.4981535503394,-112.064371853732,38.057744,,,9857.5662078306,8.2021,0,1.05908467956,4.3434384592,16,5,24.994,9857.5662078306,38.057744,0.8052984,1.05908467956,0,0,-9.618842,140.7, -0.4, -1.8,0,0,1024,1024,1616,1073,0,0,90,7,0,0,0,100,4.155,4.163,4.174,4.165,4.167,4.17,0,32,9857.5662078306,38.057744,6,P-GPS,
9300,2023-10-10 00:16:49,38.4981534894982,-112.064371808054,39.37008,,,9858.8785438306,8.2021,0,1.08482286936,4.3691930532,16,5,24.994,9858.8785438306,39.37008,0.8052984,1.08482286936,0,0,-9.842536,140.8, -0.4, -1.5,0,0,1024,1024,1613,1093,0,0,89,10,0,0,0,100,4.155,4.163,4.174,4.165,4.167,4.17,0,32,9858.8785438306,39.37008,6,P-GPS,
9400,2023-10-10 00:16:49,38.4981535799083,-112.064371740139,41.0105,,,9860.5189638306,8.2021,0,1.06584977164,4.4074476476,16,5,24.994,9860.5189638306,41.0105,0.8052984,1.08482286936,0,0,-9.842536,140.9, -0.6, -1,0,0,1024,1024,1605,1149,0,0,88,19,0,0,0,100,4.155,4.163,4.174,4.165,4.167,4.17,0,32,9860.5189638306,41.0105,6,P-GPS,
9500,2023-10-10 00:16:49,38.4981535350277,-112.064371675615,42.322836,,,9861.8312998306,8.2021,0,1.08936683276,4.432086756,16,5,24.994,9861.8312998306,42.322836,0.8052984,1.08936683276,0,0,-9.618842,141.1, -0.6, -0.7,0,0,1024,1024,1602,1160,0,0,88,21,0,0,0,100,4.155,4.163,4.174,4.165,4.167,4.17,0,32,9861.8312998306,42.322836,6,P-GPS,
9600,2023-10-10 00:16:49,38.4981535174339,-112.064371654083,43.963256,,,9863.4717198306,8.2021,0,1.09804137372,4.4409778324,16,5,24.994,9863.4717198306,43.963256,0.8052984,1.09804137372,0,0,-9.618842,141.5, -0.4, -0.7,0,0,1024,1024,1597,1184,0,0,87,24,0,0,0,100,4.155,4.163,4.174,4.165,4.167,4.17,0,32,9863.4717198306,43.963256,6,P-GPS,
9700,2023-10-10 00:16:49,38.4981534656621,-112.06437159085,45.275592,,,9864.7840558306,8.2021,0,1.12356630892,4.4671261272,16,5,24.994,9864.7840558306,45.275592,0.8052984,1.12356630892,0,0,-9.395148,142.1, 0, -0.7,0,0,1024,1024,1597,1193,0,0,87,26,0,0,0,100,4.155,4.163,4.174,4.165,4.167,4.17,0,32,9864.7840558306,45.275592,6,P-GPS,
9800,2023-10-10 00:16:49,38.4981535434043,-112.064371673245,46.587928,,,9866.0963918306,8.2021,0,1.08709977232,4.5039699604,16,5,24.994,9866.0963918306,46.587928,0.8052984,1.12356630892,0,0,-9.395148,143, 0.1, -0.7,0,0,1024,1024,1604,1185,0,0,88,24,0,0,0,100,4.155,4.163,4.174,4.165,4.167,4.17,0,32,9866.0963918306,46.587928,6,P-GPS,
9900,2023-10-10 00:16:49,38.4981535080972,-112.064371629777,47.900264,,,9867.4087278306,8.2021,0,1.10455712196,4.5218505384,16,5,24.779,9867.4087278306,47.900264,0.8052984,1.12356630892,0,0,-9.395148,144, 0.2, -0.7,0,0,1024,1024,1604,1185,0,0,88,24,0,0,0,100,4.124,4.121,4.137,4.131,4.134,4.132,0,32,9867.4087278306,47.900264,6,P-GPS,
10000,2023-10-10 00:16:50,38.4981533867649,-112.064371438731,49.540684,,,9869.0491478306,8.2021,0,1.17101053616,4.5920933228,16,5,24.779,9869.0491478306,49.540684,0.8052984,1.17101053616,0,0,-9.171454,145.1, 0.3, -0.6,0,0,1024,1024,1615,1185,0,0,90,24,0,0,0,100,4.124,4.121,4.137,4.131,4.134,4.132,0,32,9869.0491478306,49.540684,6,P-GPS,
10100,2023-10-10 00:16:50,38.4981533625183,-112.064371401465,50.85302,,,9870.3614838306,8.2021,0,1.1842027938,4.6059384676,16,5,24.779,9870.3614838306,50.85302,0.8052984,1.1842027938,0,0,-9.171454,146.2, 0.5, -0.5,0,0,1024,1024,1625,1184,0,0,91,24,0,0,0,100,4.124,4.121,4.137,4.131,4.134,4.132,0,32,9870.3614838306,50.85302,6,P-GPS,
10200,2023-10-10 00:16:50,38.4981533749589,-112.064371273344,52.165356,,,9871.6738198306,8.2021,0,1.20065292556,4.6428151092,16,5,24.779,9871.6738198306,52.165356,0.8052984,1.20065292556,0,0,-9.171454,147.3, 0.7, -0.3,0,0,1024,1024,1627,1184,0,0,91,24,0,0,0,100,4.124,4.121,4.137,4.131,4.134,4.132,0,32,9871.6738198306,52.165356,6,P-GPS,
10300,2023-10-10 00:16:50,38.4981533795961,-112.064371269043,53.477692,,,9872.9861558306,8.2021,0,1.1999508258,4.6449148468,16,5,24.779,9872.9861558306,53.477692,0.8052984,1.20065292556,0,0,-9.395148,148.4, 0.7, 0,0,0,1024,1024,1629,1175,0,0,92,23,0,0,0,100,4.124,4.121,4.137,4.131,4.134,4.132,0,32,9872.9861558306,53.477692,6,P-GPS,
10400,2023-10-10 00:16:50,38.4981532884717,-112.064371208671,54.790028,,,9874.2984918306,8.2021,0,1.23712602384,4.6823492312,16,5,24.779,9874.2984918306,54.790028,0.8052984,1.23712602384,0,0,-9.395148,149.4, 0.3, -0.1,0,0,1024,1024,1646,1157,0,0,94,20,0,0,0,100,4.124,4.121,4.137,4.131,4.134,4.132,0,32,9874.2984918306,54.790028,6,P-GPS,
10500,2023-10-10 00:16:50,38.4981533029606,-112.064371261803,56.430448,,,9875.9389118306,8.2021,0,1.22425856936,4.6984253472,16,5,24.779,9875.9389118306,56.430448,0.8052984,1.23712602384,0,0,-9.395148,150.2, -0.1, -0.4,0,0,1024,1024,1655,1154,0,0,96,20,0,0,0,100,4.124,4.121,4.137,4.131,4.134,4.132,0,32,9875.9389118306,56.430448,6,P-GPS,
10600,2023-10-10 00:16:50,38.4981531733571,-112.064371389203,57.742784,,,9877.2512478306,8.2021,0,1.24459977736,4.7580710184,16,5,24.779,9877.2512478306,57.742784,0.8052984,1.24459977736,0,0,-9.618842,151, -0.2, -0.6,0,0,1024,1024,1651,1154,0,0,95,20,0,0,0,100,4.124,4.121,4.137,4.131,4.134,4.132,0,32,9877.2512478306,57.742784,6,P-GPS,
10700,2023-10-10 00:16:50,38.4981531848301,-112.064371470655,59.05512,,,9878.5635838306,8.2021,0,1.2291010892,4.7816930664,16,5,24.779,9878.5635838306,59.05512,0.8052984,1.24459977736,0,0,-9.842536,151.6, -0.1, -0.6,0,0,1024,1024,1640,1149,0,0,93,19,0,0,0,100,4.124,4.121,4.137,4.131,4.134,4.132,0,32,9878.5635838306,59.05512,6,P-GPS,
10800,2023-10-10 00:16:50,38.4981531621592,-112.064371479552,60.69554,,,9880.2040038306,8.2021,0,1.23496723112,4.790354484,16,5,24.779,9880.2040038306,60.69554,0.8052984,1.24459977736,0,0,-9.842536,152.2, -0.4, -0.6,0,0,1024,1024,1639,1145,0,0,93,18,0,0,0,100,4.124,4.121,4.137,4.131,4.134,4.132,0,32,9880.2040038306,60.69554,6,P-GPS,
10900,2023-10-10 00:16:50,38.4981531824813,-112.064371564914,62.007876,,,9881.5163398306,8.2021,0,1.21646329352,4.8158466108,16,5,24.868,9881.5163398306,62.007876,0.8052984,1.24459977736,0,0,-10.06623,152.9, -1, -1.3,0,0,1024,1024,1642,1141,0,0,94,18,0,0,0,100,4.127,4.143,4.153,4.143,4.145,4.157,0,32,9881.5163398306,62.007876,6,P-GPS,
11000,2023-10-10 00:16:51,38.4981533239565,-112.064371679488,63.648296,,,9883.1567598306,8.2021,0,1.1554462312,4.8769358516,16,5,24.868,9883.1567598306,63.648296,0.8052984,1.24459977736,0,0,-10.06623,153.6, -1.7, -1.6,0,0,1024,1024,1663,1112,0,0,97,13,0,0,0,100,4.127,4.143,4.153,4.143,4.145,4.157,0,32,9883.1567598306,63.648296,6,P-GPS,
11100,2023-10-10 00:16:51,38.4981533375018,-112.064371696867,64.960632,,,9884.4690958306,8.2021,0,1.14871722836,4.8839568492,16,5,24.868,9884.4690958306,64.960632,0.8052984,1.24459977736,0,0,-10.06623,154.3, -2.1, -1.2,0,0,1024,1024,1666,1105,0,0,97,12,0,0,0,100,4.127,4.143,4.153,4.143,4.145,4.157,0,32,9884.4690958306,64.960632,6,P-GPS,
11200,2023-10-10 00:16:51,38.4981531187382,-112.064371612473,66.601052,,,9886.1095158306,8.2021,0,1.23033468504,4.9673229936,16,5,24.868,9886.1095158306,66.601052,0.8052984,1.24459977736,0,0,-10.06623,154.9, -1.4, -0.6,0,0,1024,1024,1668,1100,0,0,98,12,0,0,0,100,4.127,4.143,4.153,4.143,4.145,4.157,0,32,9886.1095158306,66.601052,6,P-GPS,
11300,2023-10-10 00:16:51,38.4981530689362,-112.064371558127,68.241472,,,9887.7499358306,8.2021,0,1.253690985,4.9912075088,16,5,24.868,9887.7499358306,68.241472,0.8052984,1.253690985,0,0,-10.289924,155.4, -0.3, 0.2,0,0,1033,1024,1668,1090,1,0,98,10,0,0,0,100,4.127,4.143,4.153,4.143,4.145,4.157,0,32,9887.7499358306,68.241472,6,P-GPS,
11400,2023-10-10 00:16:51,38.4981529754585,-112.064371631222,69.553808,,,9889.0622718306,8.2021,0,1.2742290434,5.0312009484,16,5,24.868,9889.0622718306,69.553808,0.8052984,1.2742290434,0,0,-10.289924,155.8, 0.4, 0.8,0,0,1060,1024,1675,1089,5,0,99,10,0,0,0,100,4.127,4.143,4.153,4.143,4.145,4.157,0,32,9889.0622718306,69.553808,6,P-GPS,
11500,2023-10-10 00:16:51,38.4981529062212,-112.064371611154,71.194228,,,9890.7026918306,8.2021,0,1.29937012032,5.0571195844,16,5,24.868,9890.7026918306,71.194228,0.8052984,1.29937012032,0,0,-10.289924,156.2, 0.8, 0.9,0,0,1079,1024,1677,1089,8,0,99,10,0,0,0,100,4.127,4.143,4.153,4.143,4.145,4.157,0,32,9890.7026918306,71.194228,6,P-GPS,
11600,2023-10-10 00:16:51,38.4981528679273,-112.064371436915,72.834648,,,9892.3431118306,8.2021,0,1.33466867788,5.1087928144,16,5,24.868,9892.3431118306,72.834648,0.8052984,1.33466867788,0,0,-10.513618,156.5, 0.6, 0.4,0,0,1111,1024,1684,1089,13,0,100,10,0,0,0,100,4.127,4.143,4.153,4.143,4.145,4.157,0,32,9892.3431118306,72.834648,6,P-GPS,
11700,2023-10-10 00:16:51,38.4981527912144,-112.06437142664,74.146984,,,9893.6554478306,8.2021,0,1.3607611984,5.1369424216,16,5,24.868,9893.6554478306,74.146984,0.8052984,1.3607611984,0,0,-10.513618,156.8, -0.1, 0,0,0,1135,1024,1684,1090,17,0,100,10,0,0,0,100,4.127,4.143,4.153,4.143,4.145,4.157,0,32,9893.6554478306,74.146984,6,P-GPS,
11800,2023-10-10 00:16:51,38.4981525841341,-112.064371474506,75.787404,,,9895.2958678306,8.2021,0,1.42203416624,5.2137140776,16,5,24.868,9895.2958678306,75.787404,0.8052984,1.42203416624,0,0,-10.737312,156.9, -1.2, 0,0,0,1163,1024,1684,1090,21,0,100,10,0,0,0,100,4.127,4.143,4.153,4.143,4.145,4.157,0,32,9895.2958678306,75.787404,6,P-GPS,
11900,2023-10-10 00:16:51,38.4981524527217,-112.064371451447,77.427824,,,9896.9362878306,8.2021,0,1.4681266874,5.2621064676,16,5,24.76,9896.9362878306,77.427824,0.8052984,1.4681266874,0,0,-10.737312,157, -2, 0.3,0,0,1175,1024,1684,1080,23,0,100,8,0,0,0,100,4.11,4.132,4.137,4.127,4.128,4.126,0,32,9896.9362878306,77.427824,6,P-GPS,
12000,2023-10-10 00:16:51,38.4981522858456,-112.064371402359,79.068244,,,9898.5767078306,8.2021,0.223694,1.52922248988,5.3245736612,16,5,24.76,9898.5767078306,79.068244,0.8052984,1.52922248988,-0.223694,0,-10.961006,157, -2.4, 0.7,0,0,1192,1024,1684,1070,25,0,100,7,0,0,0,100,4.11,4.132,4.137,4.127,4.128,4.126,0,32,9898.5767078306,79.068244,6,P-GPS,
12100,2023-10-10 00:16:52,38.4981520559606,-112.064371356662,80.708664,,,9900.2171278306,8.2021,0.3131716,1.61101383108,5.409448992,16,5,24.76,9900.2171278306,80.708664,0.8052984,1.61101383108,-0.223694,0.223694,-10.961006,157, -3, 0.6,0,0,1203,1024,1684,1071,27,0,100,7,0,0,0,100,4.11,4.132,4.137,4.127,4.128,4.126,0,32,9900.2171278306,80.708664,6,P-GPS,
12200,2023-10-10 00:16:52,38.4981516702183,-112.064371169355,82.349084,,,9901.8575478306,8.2021,0.4921268,1.76136488576,5.5600067396,16,5,24.76,9901.8575478306,82.349084,0.8052984,1.76136488576,-0.447388,0.223694,-10.961006,157, -3.4, 0.5,0,0,1216,1024,1684,1070,29,0,100,7,0,0,0,100,4.11,4.132,4.137,4.127,4.128,4.126,0,32,9901.8575478306,82.349084,6,P-GPS,
12300,2023-10-10 00:16:52,38.4981513057649,-112.064371080773,83.989504,,,9903.4979678306,8.2021,0.4921268,1.89354008684,5.695374198,16,5,24.76,9903.4979678306,83.989504,0.8052984,1.89354008684,-0.671082,0.223694,-10.961006,156.9, -3.9, 0.1,0,0,1225,1024,1684,1068,30,0,100,7,0,0,0,100,4.11,4.132,4.137,4.127,4.128,4.126,0,32,9903.4979678306,83.989504,6,P-GPS,
12400,2023-10-10 00:16:52,38.4981508119994,-112.06437089833,85.629924,,,9905.1383878306,8.2021,0.9171454,2.07992460724,5.8829070124,16,5,24.76,9905.1383878306,85.629924,0.9171454,2.07992460724,-0.894776,0.223694,-10.961006,156.9, -3.8, -0.4,0,0,1227,1024,1684,1070,31,0,100,7,0,0,0,100,4.11,4.132,4.137,4.127,4.128,4.126,0,32,9905.1383878306,85.629924,6,P-GPS,
12500,2023-10-10 00:16:52,38.498150294351,-112.06437070821,87.270344,,,9906.7788078306,8.2021,0.9171454,2.2754101778,6.0794293284,16,5,24.76,9906.7788078306,87.270344,0.9171454,2.2754101778,-0.894776,0.223694,-10.961006,157, -3.9, -0.8,0,0,1229,1024,1684,1073,31,0,100,7,0,0,0,100,4.11,4.132,4.137,4.127,4.128,4.126,0,32,9906.7788078306,87.270344,6,P-GPS,
12600,2023-10-10 00:16:52,38.4981500058963,-112.064370654787,88.910764,,,9908.4192278306,8.2021,1.2079476,2.3789862966,6.1857613528,16,5,24.76,9908.4192278306,88.910764,1.2079476,2.3789862966,-1.11847,0.447388,-10.961006,157.2, -4.1, -1.1,0,0,1230,1024,1684,1086,31,0,100,9,0,0,0,100,4.11,4.132,4.137,4.127,4.128,4.126,0,32,9908.4192278306,88.910764,6,P-GPS,
12700,2023-10-10 00:16:52,38.4981493799191,-112.064370331432,90.551184,,,9910.0596478306,8.2021,1.4987498,2.62530192128,6.4321196284,16,5,24.76,9910.0596478306,90.551184,1.4987498,2.62530192128,-1.342164,0.671082,-10.961006,157.3, -4.5, -0.7,0,0,1233,1024,1684,1100,32,0,100,12,0,0,0,100,4.11,4.132,4.137,4.127,4.128,4.126,0,32,9910.0596478306,90.551184,6,P-GPS,
12800,2023-10-10 00:16:52,38.4981485584958,-112.064369869721,92.191604,,,9911.7000678306,8.2021,1.7000744,2.9524115118,6.759514652,16,5,24.76,9911.7000678306,92.191604,1.7000744,2.9524115118,-1.565858,0.671082,-10.961006,157.4, -4.9, 0.1,0,0,1238,1024,1684,1099,32,0,100,11,0,0,0,100,4.11,4.132,4.137,4.127,4.128,4.126,0,32,9911.7000678306,92.191604,6,P-GPS,
12900,2023-10-10 00:16:52,38.4981477569304,-112.064369421177,93.832024,,,9913.3404878306,8.2021,1.9908766,3.27146007844,7.0787731924,16,5,24.563,9913.3404878306,93.832024,1.9908766,3.27146007844,-1.789552,0.894776,-11.1847,157.5, -5.1, 0.7,0,0,1245,1024,1684,1090,33,0,100,10,0,0,0,100,4.08,4.082,4.103,4.095,4.098,4.105,0,32,9913.3404878306,93.832024,6,P-GPS,
13000,2023-10-10 00:16:53,38.4981468552972,-112.064368900889,95.472444,,,9914.9809078306,8.2021,2.1922012,3.632053922,7.4397312092,16,5,24.563,9914.9809078306,95.472444,2.1922012,3.632053922,-2.013246,0.894776,-11.1847,157.7, -5.2, 1,0,0,1249,1024,1684,1087,34,0,100,10,0,0,0,100,4.08,4.082,4.103,4.095,4.098,4.105,0,32,9914.9809078306,95.472444,6,P-GPS,
13100,2023-10-10 00:16:53,38.4981458606581,-112.06436838063,97.112864,,,9916.6213278306,8.2021,2.4158952,4.0241799188,7.831857206,16,5,24.563,9916.6213278306,97.112864,2.4158952,4.0241799188,-2.23694,0.894776,-11.1847,158, -5, 0.9,0,0,1258,1024,1684,1087,35,0,100,10,0,0,0,100,4.08,4.082,4.103,4.095,4.098,4.105,0,32,9916.6213278306,97.112864,6,P-GPS,
13200,2023-10-10 00:16:53,38.4981445474628,-112.064367949912,98.753284,,,9918.2617478306,8.2021,2.6172198,4.5150263912,8.3265094528,16,5,24.563,9918.2617478306,98.753284,2.6172198,4.5150263912,-2.460634,0.894776,-11.1847,158.2, -5, 0.7,0,0,1265,1024,1684,1087,37,0,100,10,0,0,0,100,4.08,4.082,4.103,4.095,4.098,4.105,0,32,9918.2617478306,98.753284,6,P-GPS,
13300,2023-10-10 00:16:53,38.498143352683,-112.064367362804,100.393704,,,9919.9021678306,8.2021,2.908022,4.9820539652,8.7935370268,16,5,24.563,9919.9021678306,100.393704,2.908022,4.9820539652,-2.684328,1.11847,-11.1847,158.4, -5.1, 0.4,0,0,1273,1024,1684,1079,38,0,100,8,0,0,0,100,4.08,4.082,4.103,4.095,4.098,4.105,0,32,9919.9021678306,100.393704,6,P-GPS,
13400,2023-10-10 00:16:53,38.4981420343392,-112.064366842914,102.034124,,,9921.5425878306,8.2021,3.1093466,5.4843505692,9.2969491164,16,5,24.563,9921.5425878306,102.034124,3.1093466,5.4843505692,-2.908022,1.11847,-11.1847,158.6, -5.4, 0.4,0,0,1276,1024,1684,1071,38,0,100,7,0,0,0,100,4.08,4.082,4.103,4.095,4.098,4.105,0,32,9921.5425878306,102.034124,6,P-GPS,
13500,2023-10-10 00:16:53,38.4981406555877,-112.0643661723,103.674544,,,9923.1830078306,8.2021,3.4001488,6.0226051796,9.8352037268,16,5,24.563,9923.1830078306,103.674544,3.4001488,6.0226051796,-3.131716,1.342164,-11.1847,158.9, -5.8, 0.6,0,0,1298,1024,1684,1064,42,0,100,6,0,0,0,100,4.08,4.082,4.103,4.095,4.098,4.105,0,32,9923.1830078306,103.674544,6,P-GPS,
13600,2023-10-10 00:16:53,38.4981390094459,-112.064365498944,105.314964,,,9924.8234278306,8.2021,3.6238428,6.6524280344,10.4658139832,16,5,24.563,9924.8234278306,105.314964,3.6238428,6.6524280344,-3.35541,1.342164,-10.961006,159, -6.3, 0.7,0,0,1314,1024,1684,1049,44,0,100,4,0,0,0,100,4.08,4.082,4.103,4.095,4.098,4.105,0,32,9924.8234278306,105.314964,6,P-GPS,
13700,2023-10-10 00:16:53,38.4981374253035,-112.064364749711,106.955384,,,9926.4638478306,8.2021,3.8251674,7.2687338284,11.0821197772,16,5,24.563,9926.4638478306,106.955384,3.8251674,7.2687338284,-3.579104,1.342164,-10.961006,159.2, -6.6, 0.7,0,0,1321,1024,1684,1026,45,0,100,0,0,0,0,100,4.08,4.082,4.103,4.095,4.098,4.105,0,32,9926.4638478306,106.955384,6,P-GPS,
13800,2023-10-10 00:16:53,38.4981358468298,-112.06436395546,108.595804,,,9928.1042678306,8.2021,4.3172942,7.8875986776,11.7010502432,16,5,24.563,9928.1042678306,108.595804,4.3172942,7.8875986776,-4.026492,1.565858,-10.961006,159.4, -6.8, 0.7,0,0,1324,1024,1684,1024,45,0,100,0,0,0,0,100,4.08,4.082,4.103,4.095,4.098,4.105,0,32,9928.1042678306,108.595804,6,P-GPS,
13900,2023-10-10 00:16:54,38.4981340582919,-112.064363125673,110.236224,,,9929.7446878306,8.2021,4.5186188,8.5817916132,12.3952759872,16,5,24.589,9929.7446878306,110.236224,4.5186188,8.5817916132,-4.250186,1.565858,-10.961006,159.4, -7.1, 0.5,0,0,1331,1024,1684,1024,47,0,100,0,0,0,0,100,4.088,4.091,4.105,4.1,4.102,4.103,0,32,9929.7446878306,110.236224,6,P-GPS,
14000,2023-10-10 00:16:54,38.4981322548243,-112.064362336639,111.876644,,,9931.3851078306,8.2021,4.5186188,9.2770344176,13.0907812588,16,5,24.589,9931.3851078306,111.876644,4.5186188,9.2770344176,-4.47388,1.565858,-10.961006,159.3, -7.5, 0.3,0,0,1343,1024,1684,1024,48,0,100,0,0,0,0,100,4.088,4.091,4.105,4.1,4.102,4.103,0,32,9931.3851078306,111.876644,6,P-GPS,
14100,2023-10-10 00:16:54,38.4981302647906,-112.064361416711,113.18898,,,9932.6974438306,8.2021,5.2344396,10.0491144948,13.8628941444,16,5,24.589,9932.6974438306,113.18898,5.2344396,10.0491144948,-4.921268,1.789552,-10.961006,159.3, -7.8, 0.2,0,0,1367,1024,1684,1024,52,0,100,0,0,0,0,100,4.088,4.091,4.105,4.1,4.102,4.103,0,32,9932.6974438306,113.18898,6,P-GPS,
14200,2023-10-10 00:16:54,38.4981280375062,-112.064360447622,114.8294,,,9934.3378638306,8.2021,5.4581336,10.9072838136,14.7213587388,16,5,24.589,9934.3378638306,114.8294,5.4581336,10.9072838136,-5.144962,1.789552,-11.1847,159.3, -8.2, 0.2,0,0,1376,1024,1684,1024,53,0,100,0,0,0,0,100,4.088,4.091,4.105,4.1,4.102,4.103,0,32,9934.3378638306,114.8294,6,P-GPS,
14300,2023-10-10 00:16:54,38.4981258052402,-112.064359418547,116.46982,,,9935.9782838306,8.2021,5.7265664,11.7730974896,15.5871724148,16,5,24.589,9935.9782838306,116.46982,5.7265664,11.7730974896,-5.368656,2.013246,-11.1847,159.3, -8.6, 0,0,0,1387,1024,1684,1024,55,0,100,0,0,0,0,100,4.088,4.091,4.105,4.1,4.102,4.103,0,32,9935.9782838306,116.46982,6,P-GPS,
14400,2023-10-10 00:16:54,38.4981234336223,-112.064358259061,118.11024,,,9937.6187038306,8.2021,6.151585,12.699475472,16.5136488224,16,5,24.589,9937.6187038306,118.11024,6.151585,12.699475472,-5.816044,2.013246,-11.1847,159.5, -9.3, 0,0,0,1400,1024,1684,1024,57,0,100,0,0,0,0,100,4.088,4.091,4.105,4.1,4.102,4.103,0,32,9937.6187038306,118.11024,6,P-GPS,
14500,2023-10-10 00:16:54,38.4981209580088,-112.064357103066,119.75066,,,9939.2591238306,8.2021,6.4423872,13.6611224844,17.4752958348,16,5,24.589,9939.2591238306,119.75066,6.4423872,13.6611224844,-6.039738,2.23694,-10.961006,159.5, -10.1, 0,0,0,1407,1024,1684,1024,58,0,100,0,0,0,0,100,4.088,4.091,4.105,4.1,4.102,4.103,0,32,9939.2591238306,119.75066,6,P-GPS,
14600,2023-10-10 00:16:54,38.4981182311828,-112.064355958817,121.39108,,,9940.8995438306,8.2021,6.8674058,14.707677636,18.5224415376,16,5,24.589,9940.8995438306,121.39108,6.8674058,14.707677636,-6.487126,2.23694,-10.961006,159.4, -10.6, -0.1,0,0,1424,1024,1684,1024,61,0,100,0,0,0,0,100,4.088,4.091,4.105,4.1,4.102,4.103,0,32,9940.8995438306,121.39108,6,P-GPS,
14700,2023-10-10 00:16:54,38.4981154687711,-112.064354650512,123.0315,,,9942.5399638306,8.2021,7.3595326,15.7825464368,19.5973103384,16,5,24.589,9942.5399638306,123.0315,7.3595326,15.7825464368,-6.934514,2.460634,-10.961006,159.4, -10.8, 0,0,0,1430,1024,1684,1024,62,0,100,0,0,0,0,100,4.088,4.091,4.105,4.1,4.102,4.103,0,32,9942.5399638306,123.0315,6,P-GPS,
14800,2023-10-10 00:16:54,38.4981125531139,-112.064353048095,124.67192,,,9944.1803838306,8.2021,7.6503348,16.9388784948,20.7553156248,16,5,24.589,9944.1803838306,124.67192,7.6503348,16.9388784948,-7.158208,2.684328,-10.961006,159.2, -11.2, -0.1,0,0,1440,1024,1684,1024,63,0,100,0,0,0,0,100,4.088,4.091,4.105,4.1,4.102,4.103,0,32,9944.1803838306,124.67192,6,P-GPS,
14900,2023-10-10 00:16:54,38.4981095094442,-112.064351542788,126.31234,,,9945.8208038306,8.2021,8.1424616,18.1295281392,21.9460965028,16,5,24.589,9945.8208038306,126.31234,8.1424616,18.1295281392,-7.605596,2.908022,-10.961006,159, -11.4, -0.3,0,0,1445,1024,1675,1024,64,0,99,0,0,0,0,100,4.088,4.091,4.105,4.1,4.102,4.103,0,32,9945.8208038306,126.31234,6,P-GPS,
15000,2023-10-10 00:16:55,38.4981063123941,-112.06435001051,127.95276,,,9947.4612238306,8.2021,8.4332638,19.375328704,23.1918970676,16,5,24.537,9947.4612238306,127.95276,8.4332638,19.375328704,-7.82929,3.131716,-10.961006,158.9, -11.9, 0.2,0,0,1447,1024,1667,1024,64,0,97,0,0,0,0,100,4.079,4.084,4.095,4.09,4.094,4.095,0,32,9947.4612238306,127.95276,6,P-GPS,
15100,2023-10-10 00:16:55,38.498102979612,-112.064348318563,129.59318,,,9949.1016438306,8.2021,8.9253906,20.6834324204,24.500328868,16,5,24.537,9949.1016438306,129.59318,8.9253906,20.6834324204,-8.276678,3.35541,-10.961006,158.9, -12.3, 0.8,0,0,1452,1024,1656,1024,65,0,96,0,0,0,0,100,4.079,4.084,4.095,4.09,4.094,4.095,0,32,9949.1016438306,129.59318,6,P-GPS,
15200,2023-10-10 00:16:55,38.4980994226122,-112.064346452354,131.2336,,,9950.7420638306,8.2021,9.3504092,22.0856634364,25.903216052,16,5,24.537,9950.7420638306,131.2336,9.3504092,22.0856634364,-8.724066,3.35541,-10.961006,158.9, -12.5, 1.1,0,0,1462,1024,1647,1024,66,0,94,0,0,0,0,100,4.079,4.084,4.095,4.09,4.094,4.095,0,32,9950.7420638306,131.2336,6,P-GPS,
15300,2023-10-10 00:16:55,38.4980957813824,-112.064344601061,132.87402,,,9952.3824838306,8.2021,9.6412114,23.5152238496,27.3330389324,16,5,24.537,9952.3824838306,132.87402,9.6412114,23.5152238496,-8.94776,3.579104,-10.737312,159.1, -12.9, 1.1,0,0,1469,1024,1645,1024,67,0,94,0,0,0,0,100,4.079,4.084,4.095,4.09,4.094,4.095,0,32,9952.3824838306,132.87402,6,P-GPS,
15400,2023-10-10 00:16:55,38.4980920781308,-112.064342697023,134.186356,,,9953.6948198306,8.2021,9.6412114,24.97129345,28.7894366168,16,5,24.537,9953.6948198306,134.186356,9.6412114,24.97129345,-9.395148,3.579104,-10.737312,159.2, -13.4, 1.2,0,0,1475,1024,1644,1024,68,0,94,0,0,0,0,100,4.079,4.084,4.095,4.09,4.094,4.095,0,32,9953.6948198306,134.186356,6,P-GPS,
15500,2023-10-10 00:16:55,38.4980881448387,-112.064340701972,135.826776,,,9955.3352398306,8.2021,10.5583568,26.515092712,30.3334327292,16,5,24.537,9955.3352398306,135.826776,10.5583568,26.515092712,-9.842536,3.802798,-10.513618,159.2, -13.7, 1.4,0,0,1477,1024,1645,1024,69,0,94,0,0,0,0,100,4.079,4.084,4.095,4.09,4.094,4.095,0,32,9955.3352398306,135.826776,6,P-GPS,
15600,2023-10-10 00:16:55,38.4980840115064,-112.064338638072,137.467196,,,9956.9756598306,8.2021,11.0504836,28.1341216352,31.9525600776,16,5,24.537,9956.9756598306,137.467196,11.0504836,28.1341216352,-10.289924,4.026492,-10.513618,159.3, -13.8, 1.3,0,0,1480,1024,1642,1024,69,0,94,0,0,0,0,100,4.079,4.084,4.095,4.09,4.094,4.095,0,32,9956.9756598306,137.467196,6,P-GPS,
15700,2023-10-10 00:16:55,38.4980797541862,-112.064336501374,139.107616,,,9958.6160798306,8.2021,11.4755022,29.8028552844,33.621392152,16,5,24.537,9958.6160798306,139.107616,11.4755022,29.8028552844,-10.737312,4.026492,-10.289924,159.3, -13.7, 1,0,0,1483,1024,1642,1024,70,0,94,0,0,0,0,100,4.079,4.084,4.095,4.09,4.094,4.095,0,32,9958.6160798306,139.107616,6,P-GPS,
15800,2023-10-10 00:16:55,38.4980749900523,-112.064334160355,140.419952,,,9959.9284158306,8.2021,11.7663044,31.6651256852,35.483596936,16,5,24.537,9959.9284158306,140.419952,11.7663044,31.6651256852,-10.961006,4.250186,-10.289924,159.3, -13.6, 0.8,0,0,1486,1024,1645,1024,70,0,94,0,0,0,0,100,4.079,4.084,4.095,4.09,4.094,4.095,0,32,9959.9284158306,140.419952,6,P-GPS,
15900,2023-10-10 00:16:55,38.4980703881358,-112.064331863222,142.060372,,,9961.5688358306,8.2021,12.2584312,33.467520756,37.286090432,16,5,24.537,9961.5688358306,142.060372,12.2584312,33.467520756,-11.408394,4.47388,-10.289924,159.3, -13.5, 0.9,0,0,1489,1024,1648,1024,70,0,95,0,0,0,0,100,4.079,4.084,4.095,4.09,4.094,4.095,0,32,9961.5688358306,142.060372,6,P-GPS,
16000,2023-10-10 00:16:56,38.4980659997204,-112.064329853643,143.372708,,,9962.8811718306,8.2021,12.6610804,35.168308212,38.987205972,16,5,24.582,9962.8811718306,143.372708,12.6610804,35.168308212,-11.855782,4.47388,-10.06623,159.2, -13.3, 1,0,0,1489,1024,1652,1024,70,0,95,0,0,0,0,99,4.086,4.094,4.098,4.096,4.098,4.11,0,32,9962.8811718306,143.372708,6,P-GPS,
16100,2023-10-10 00:16:56,38.4980611277442,-112.064327439943,145.013128,,,9964.5215918306,8.2021,12.9518826,37.074476252,40.893702096,16,5,24.582,9964.5215918306,145.013128,12.9518826,37.074476252,-12.079476,4.697574,-10.289924,159.1, -13.1, 1.1,0,0,1490,1024,1656,1024,71,0,96,0,0,0,0,99,4.086,4.094,4.098,4.096,4.098,4.11,0,32,9964.5215918306,145.013128,6,P-GPS,
16200,2023-10-10 00:16:56,38.4980561548958,-112.064325043413,146.325464,,,9965.8339278306,8.2021,13.4663788,39.013780776,42.832678536,16,5,24.582,9965.8339278306,146.325464,13.4663788,39.013780776,-12.526864,4.921268,-10.289924,158.9, -13, 1.3,0,0,1494,1024,1660,1024,71,0,96,0,0,0,0,99,4.086,4.094,4.098,4.096,4.098,4.11,0,32,9965.8339278306,146.325464,6,P-GPS,
16300,2023-10-10 00:16:56,38.4980509884895,-112.064322504849,147.965884,,,9967.4743478306,8.2021,13.4663788,41.033137796,44.852035556,16,5,24.582,9967.4743478306,147.965884,13.4663788,41.033137796,-12.750558,4.921268,-10.289924,158.8, -13, 1.6,0,0,1494,1024,1659,1024,71,0,96,0,0,0,0,99,4.086,4.094,4.098,4.096,4.098,4.11,0,32,9967.4743478306,147.965884,6,P-GPS,
16400,2023-10-10 00:16:56,38.4980462402228,-112.064319468322,149.606304,,,9969.1147678306,8.2021,14.1598302,42.961287464,46.789371576,16,5,24.582,9969.1147678306,149.606304,14.1598302,42.961287464,-13.197946,5.144962,-10.289924,158.7, -12.9, 1.8,0,0,1495,1024,1657,1024,71,0,96,0,0,0,0,99,4.086,4.094,4.098,4.096,4.098,4.11,0,32,9969.1147678306,149.606304,6,P-GPS,
16500,2023-10-10 00:16:56,38.4980408072505,-112.064316796338,150.91864,,,9970.4271038306,8.2021,14.3835242,45.08530328,48.913387392,16,5,24.582,9970.4271038306,150.91864,14.3835242,45.08530328,-13.42164,5.144962,-10.289924,158.8, -13.1, 1.6,0,0,1500,1024,1654,1024,72,0,95,0,0,0,0,99,4.086,4.094,4.098,4.096,4.098,4.11,0,32,9970.4271038306,150.91864,6,P-GPS,
16600,2023-10-10 00:16:56,38.4980348709452,-112.06431435694,152.55906,,,9972.0675238306,8.2021,15.0098674,47.356628812,51.188649932,16,5,24.582,9972.0675238306,152.55906,15.0098674,47.356628812,-14.092722,5.144962,-10.289924,159, -13.4, 1.1,0,0,1501,1024,1654,1024,72,0,95,0,0,0,0,99,4.086,4.094,4.098,4.096,4.098,4.11,0,32,9972.0675238306,152.55906,6,P-GPS,
16700,2023-10-10 00:16:56,38.4980291050094,-112.064311603296,154.19948,,,9973.7079438306,8.2021,15.0098674,49.602363792,53.434384912,16,5,24.582,9973.7079438306,154.19948,15.0098674,49.602363792,-14.316416,5.368656,-10.289924,159.2, -13.5, 0.8,0,0,1504,1024,1643,1024,73,0,94,0,0,0,0,99,4.086,4.094,4.098,4.096,4.098,4.11,0,32,9973.7079438306,154.19948,6,P-GPS,
16800,2023-10-10 00:16:56,38.4980235120803,-112.064308984072,155.511816,,,9975.0202798306,8.2021,15.7033188,51.775592208,55.607613328,16,5,24.582,9975.0202798306,155.511816,15.7033188,51.775592208,-14.763804,5.368656,-10.289924,159.3, -13.4, 1,0,0,1504,1024,1640,1024,73,0,93,0,0,0,0,99,4.086,4.094,4.098,4.096,4.098,4.11,0,32,9975.0202798306,155.511816,6,P-GPS,
16900,2023-10-10 00:16:56,38.4980174738839,-112.064306114077,157.152236,,,9976.6606998306,8.2021,15.7033188,54.125985984,57.958335188,16,5,24.582,9976.6606998306,157.152236,15.7033188,54.125985984,-15.211192,5.59235,-10.06623,159.3, -13.3, 1.2,0,0,1504,1024,1638,1024,73,0,93,0,0,0,0,99,4.086,4.094,4.098,4.096,4.098,4.11,0,32,9976.6606998306,157.152236,6,P-GPS,
17000,2023-10-10 00:16:56,38.4980106437989,-112.064303110391,158.464572,,,9977.9730358306,8.2021,16.7099418,56.76017242,60.593505876,16,5,24.475,9977.9730358306,158.464572,16.7099418,56.76017242,-15.65858,5.816044,-10.06623,159.5, -12.8, 0.7,0,0,1504,1024,1639,1024,73,0,93,0,0,0,0,99,4.067,4.072,4.086,4.082,4.083,4.085,0,32,9977.9730358306,158.464572,6,P-GPS,
17100,2023-10-10 00:16:57,38.498004249519,-112.064300118165,160.104992,,,9979.6134558306,8.2021,16.9112664,59.244424468,63.078086008,16,5,24.475,9979.6134558306,160.104992,16.9112664,59.244424468,-15.882274,5.816044,-10.06623,159.6, -12.5, 0.2,0,0,1504,1024,1640,1024,73,0,93,0,0,0,0,99,4.067,4.072,4.086,4.082,4.083,4.085,0,32,9979.6134558306,160.104992,6,P-GPS,
17200,2023-10-10 00:16:57,38.4979976585814,-112.064296923656,161.417328,,,9980.9257918306,8.2021,17.2020686,61.816274944,65.649936484,16,5,24.475,9980.9257918306,161.417328,17.2020686,61.816274944,-16.105968,6.039738,-10.06623,159.7, -12.3, -0.2,0,0,1505,1024,1651,1024,73,0,95,0,0,0,0,99,4.067,4.072,4.086,4.082,4.083,4.085,0,32,9980.9257918306,161.417328,6,P-GPS,
