time(millisecond),datetime(utc),latitude,longitude,height_above_takeoff(feet),height_above_ground_at_drone_location(feet),ground_elevation_at_drone_location(feet),altitude_above_seaLevel(feet),height_sonar(feet),speed(mph),distance(feet),mileage(feet),satellites,gpslevel,voltage(v),max_altitude(feet),max_ascent(feet),max_speed(mph),max_distance(feet), xSpeed(mph), ySpeed(mph), zSpeed(mph), compass_heading(degrees), pitch(degrees), roll(degrees),isPhoto,isVideo,rc_elevator,rc_aileron,rc_throttle,rc_rudder,rc_elevator(percent),rc_aileron(percent),rc_throttle(percent),rc_rudder(percent),gimbal_heading(degrees),gimbal_pitch(degrees),gimbal_roll(degrees),battery_percent,voltageCell1,voltageCell2,voltageCell3,voltageCell4,voltageCell5,voltageCell6,current(A),battery_temperature(f),altitude(feet),ascent(feet),flycStateRaw,flycState,message
0,2023-10-11 01:21:24,38.4981873137199,-112.064461238415,0,Available with any HD 360 subscription,Available with any HD 360 subscription,9822.1204803183,0.656168,0,0,0,16,5,0,9822.1204803183,0,0,0,0,0,0,143.1, -13.4, -2.5,0,0,1024,1024,1024,1024,0,0,0,0,0,0,0,98,4.292,4.297,4.301,4.292,4.293,4.296,0,32,9822.1204803183,0,41,Motors_Started,
100,2023-10-11 01:21:24,38.4981874445521,-112.06446120271,0,,,9822.1204803183,0.656168,0,0.0488106971,0.0488106971,16,5,0,9822.1204803183,0,0,0.0488106971,0,0,0,143.1, -13.4, -2.5,0,0,1024,1024,1024,1024,0,0,0,0,0,0,0,98,4.292,4.297,4.301,4.292,4.293,4.296,0,32,9822.1204803183,0,41,Motors_Started,
200,2023-10-11 01:21:24,38.4981874588533,-112.064461214212,0,,,9822.1204803183,0.656168,0,0.053400920344,0.054975723544,16,5,0,9822.1204803183,0,0,0.053400920344,0,0,0,143.1, -13.4, -2.5,0,0,1024,1024,1024,1024,0,0,0,0,0,0,0,98,4.292,4.297,4.301,4.292,4.293,4.296,0,32,9822.1204803183,0,41,Motors_Started,
300,2023-10-11 01:21:24,38.4981874254894,-112.064461337161,0,,,9822.1204803183,0.656168,0,0.049577757492,0.092133533132,16,5,0,9822.1204803183,0,0,0.053400920344,0,0,0,143.1, -13.4, -2.5,0,0,1024,1024,1024,1024,0,0,0,0,0,0,0,98,4.292,4.297,4.301,4.292,4.293,4.296,0,32,9822.1204803183,0,41,Motors_Started,
400,2023-10-11 01:21:24,38.4981874341447,-112.064461358094,0,,,9822.1204803183,0.656168,0,0.055662075272,0.098893703952,16,5,0,9822.1204803183,0,0,0.055662075272,0,0,0,143.1, -13.4, -2.5,0,0,1024,1024,1024,1024,0,0,0,0,0,0,0,98,4.292,4.297,4.301,4.292,4.293,4.296,0,32,9822.1204803183,0,41,Motors_Started,
500,2023-10-11 01:21:24,38.4981874105546,-112.06446131421,0,,,9822.1204803183,0.656168,0,0.04143208794,0.114095476092,16,5,0,9822.1204803183,0,0,0.055662075272,0,0,0,143.1, -13.4, -2.5,0,0,757,646,840,1187,-40,-57,-28,25,0,0,0,98,4.292,4.297,4.301,4.292,4.293,4.296,0,32,9822.1204803183,0,41,Motors_Started,"Setting new Return-To-Home altitude to 61m (200 ft). Data Recorder File Index is 48. Setting new Maximum Flight Altitude to 500m (1640 ft)"
600,2023-10-11 01:21:24,38.4981874147983,-112.064461328703,0,,,9822.1204803183,0.656168,0,0.044996392516,0.11851378332,16,5,0,9822.1204803183,0,0,0.055662075272,0,0,0,143.1, -13.4, -2.5,0,0,1024,1024,1024,1024,0,0,0,0,0,0,0,98,4.292,4.297,4.301,4.292,4.293,4.296,0,32,9822.1204803183,0,41,Motors_Started,
700,2023-10-11 01:21:24,38.4981874167565,-112.064461339696,0,,,9822.1204803183,0.656168,0,0.047429791544,0.121732943528,16,5,0,9822.1204803183,0,0,0.055662075272,0,0,0,143, -13.4, -2.5,0,0,1024,1024,1024,1024,0,0,0,0,0,0,0,98,4.292,4.297,4.301,4.292,4.293,4.296,0,32,9822.1204803183,0,41,Motors_Started,
800,2023-10-11 01:21:25,38.4981875655262,-112.064461301922,0,,,9822.1204803183,0.656168,0,0.093644031868,0.177072840312,16,5,0,9822.1204803183,0,0,0.093644031868,0,0,0,143.1, -13.3, -2.5,0,0,1024,1024,1024,1024,0,0,0,0,0,0,0,98,4.292,4.297,4.301,4.292,4.293,4.296,0,32,9822.1204803183,0,41,Motors_Started,
900,2023-10-11 01:21:25,38.4981875345003,-112.064461425418,0,,,9822.1204803183,0.656168,0,0.096642719628,0.214108274568,16,5,0,9822.1204803183,0,0,0.096642719628,0,0,0,143.2, -13.3, -2.5,0,0,1024,1024,1024,1024,0,0,0,0,0,0,0,98,4.292,4.297,4.301,4.292,4.293,4.296,0,32,9822.1204803183,0,41,Motors_Started,
1000,2023-10-11 01:21:25,38.4981875470753,-112.064461443321,0,,,9822.1204803183,0.656168,0,0.103305777584,0.220977369276,16,5,0,9822.1204803183,0,0,0.103305777584,0,0,0,143.3, -13.3, -2.5,0,0,1024,1024,1024,1024,0,0,0,0,0,0,0,98,4.292,4.297,4.301,4.292,4.293,4.296,0,32,9822.1204803183,0,41,Motors_Started,
1100,2023-10-11 01:21:25,38.498187525222,-112.064461405834,0,,,9822.1204803183,0.656168,0,0.09077428112,0.234324482564,16,5,0,9822.1204803183,0,0,0.103305777584,0,0,0,143.3, -13.2, -2.5,0,0,1024,1024,1024,1024,0,0,0,0,0,0,0,98,4.292,4.297,4.301,4.292,4.293,4.296,0,32,9822.1204803183,0,41,Motors_Started,
1200,2023-10-11 01:21:25,38.4981875333995,-112.064461417323,0,,,9822.1204803183,0.656168,0,0.095046262884,0.238758865908,16,5,0,9822.1204803183,0,0,0.103305777584,0,0,0,143.2, -13.3, -2.6,0,0,1024,1024,1024,1024,0,0,0,0,0,0,0,98,4.292,4.297,4.301,4.292,4.293,4.296,0,32,9822.1204803183,0,41,Motors_Started,
1300,2023-10-11 01:21:25,38.4981875172351,-112.064461534962,0,,,9822.1204803183,0.656168,0,0.112621066596,0.272863525792,16,5,0,9822.1204803183,0,0,0.112621066596,0,0,0,143.1, -13.3, -2.6,0,0,1024,1024,1024,1024,0,0,0,0,0,0,0,98,4.292,4.297,4.301,4.292,4.293,4.296,0,32,9822.1204803183,0,41,Motors_Started,
1400,2023-10-11 01:21:25,38.4981875235318,-112.064461557464,0,,,9822.1204803183,0.656168,0,0.118993114044,0.279687016824,16,5,25.771,9822.1204803183,0,0,0.118993114044,0,0,0,143.2, -13.3, -2.6,0,0,1024,1024,1024,1024,0,0,0,0,0,0,0,98,4.292,4.297,4.301,4.292,4.293,4.296,0,32,9822.1204803183,0,41,Motors_Started,
1500,2023-10-11 01:21:25,38.4981876561991,-112.064461518299,0,,,9822.1204803183,0.656168,0,0.14832513598,0.32936680844,16,5,25.771,9822.1204803183,0,0,0.14832513598,0,0,0,143.2, -13.3, -2.6,0,0,1024,1024,1024,1024,0,0,0,0,0,0,0,98,4.292,4.297,4.301,4.292,4.293,4.296,0,32,9822.1204803183,0,41,Motors_Started,
1600,2023-10-11 01:21:25,38.4981876743519,-112.064461534054,0,,,9822.1204803183,0.656168,0,0.156328417076,0.33737205804,16,5,25.771,9822.1204803183,0,0,0.156328417076,0,0,0,143.2, -13.3, -2.6,0,0,1024,1024,1024,1024,0,0,0,0,0,0,0,98,4.292,4.297,4.301,4.292,4.293,4.296,0,32,9822.1204803183,0,41,Motors_Started,
1700,2023-10-11 01:21:25,38.4981876911746,-112.06446154781,0,,,9822.1204803183,0.656168,0,0.1636154908,0.34465880368,16,5,25.771,9822.1204803183,0,0,0.1636154908,0,0,0,143.2, -13.3, -2.6,0,0,1024,1024,1024,1024,0,0,0,0,0,0,0,98,4.292,4.297,4.301,4.292,4.293,4.296,0,32,9822.1204803183,0,41,Motors_Started,
1800,2023-10-11 01:21:26,38.498187646886,-112.064461506025,0,,,9822.1204803183,0.656168,0,0.143578416668,0.36474410616,16,5,25.771,9822.1204803183,0,0,0.1636154908,0,0,0,143.2, -13.3, -2.6,0,0,1024,1024,1024,1024,0,0,0,0,0,0,0,98,4.292,4.297,4.301,4.292,4.293,4.296,0,32,9822.1204803183,0,41,Motors_Started,
1900,2023-10-11 01:21:26,38.4981876133998,-112.064461628899,0,,,9822.1204803183,0.656168,0,0.15616306274,0.40189633832,16,5,25.771,9822.1204803183,0,0,0.1636154908,0,0,0,143.2, -13.3, -2.6,0,0,1024,1024,1024,1024,0,0,0,0,0,0,0,98,4.292,4.297,4.301,4.292,4.293,4.296,0,32,9822.1204803183,0,41,Motors_Started,
2000,2023-10-11 01:21:26,38.4981876205295,-112.064461648746,0,,,9822.1204803183,0.656168,0,0.162044296524,0.40813321516,16,5,25.771,9822.1204803183,0,0,0.1636154908,0,0,0,143.2, -13.3, -2.6,0,0,1024,1024,1024,1024,0,0,0,0,0,0,0,98,4.292,4.297,4.301,4.292,4.293,4.296,0,32,9822.1204803183,0,10,Assisted_Takeoff,
2100,2023-10-11 01:21:26,38.4981877481087,-112.064461758127,0,,,9822.1204803183,0.656168,0,0.217118117184,0.46418636656,16,5,25.771,9822.1204803183,0,0,0.217118117184,0,0,0,143.2, -13.3, -2.6,0,0,1024,1024,1024,1024,0,0,0,0,0,0,0,98,4.292,4.297,4.301,4.292,4.293,4.296,0,32,9822.1204803183,0,10,Assisted_Takeoff,
2200,2023-10-11 01:21:26,38.4981877667041,-112.064461784087,0,,,9822.1204803183,0.656168,0,0.227138458712,0.47423557948,16,5,25.771,9822.1204803183,0,0,0.227138458712,0,0,0,143.2, -13.3, -2.6,0,0,1024,1024,1024,1024,0,0,0,0,0,0,0,98,4.292,4.297,4.301,4.292,4.293,4.296,0,32,9822.1204803183,0,10,Assisted_Takeoff,
2300,2023-10-11 01:21:26,38.4981877280991,-112.064461730536,0,,,9822.1204803183,0.656168,0,0.2064058465,0.49502626256,16,5,25.771,9822.1204803183,0,0,0.227138458712,0,0,0,143.2, -13.3, -2.6,0,0,1024,1024,1024,1024,0,0,0,0,0,0,0,98,4.292,4.297,4.301,4.292,4.293,4.296,0,32,9822.1204803183,0,10,Assisted_Takeoff,
2400,2023-10-11 01:21:26,38.4981877430111,-112.064461747404,0,,,9822.1204803183,0.656168,0,0.213669954344,0.50229332316,16,5,25.961,9822.1204803183,0,0,0.227138458712,0,0,0,143.2, -13.2, -2.6,0,0,1024,1024,1024,1024,0,0,0,0,0,0,0,98,4.325,4.329,4.329,4.326,4.325,4.327,0,32,9822.1204803183,0,10,Assisted_Takeoff,
2500,2023-10-11 01:21:26,38.4981877161102,-112.064461850848,0,,,9822.1204803183,0.656168,0,0.228331044052,0.53341865224,16,5,25.961,9822.1204803183,0,0,0.228331044052,0,0,0,143.2, -13.2, -2.6,0,0,1024,1024,1024,1024,0,0,0,0,0,0,0,98,4.325,4.329,4.329,4.326,4.325,4.327,0,32,9822.1204803183,0,10,Assisted_Takeoff,
2600,2023-10-11 01:21:26,38.4981877276119,-112.06446187295,0,,,9822.1204803183,0.656168,0,0.235864180776,0.54099739264,16,5,25.961,9822.1204803183,0,0,0.235864180776,0,0,0,143.2, -13.2, -2.6,0,0,1024,1024,1034,1024,0,0,2,0,0,0,0,98,4.325,4.329,4.329,4.326,4.325,4.327,0,32,9822.1204803183,0,10,Assisted_Takeoff,
2700,2023-10-11 01:21:26,38.4981877383299,-112.064461893186,0,,,9822.1204803183,0.656168,0,0.242807422468,0.54797245848,16,5,25.961,9822.1204803183,0,0,0.242807422468,0,0,0,143.3, -13.2, -2.6,0,0,1024,1024,1065,1024,0,0,6,0,0,0,0,98,4.325,4.329,4.329,4.326,4.325,4.327,0,32,9822.1204803183,0,10,Assisted_Takeoff,
2800,2023-10-11 01:21:27,38.4981878770903,-112.064461994462,0,,,9822.1204803183,0.656168,0,0.298084327124,0.60627626612,16,5,25.961,9822.1204803183,0,0,0.298084327124,0,0,0,143.3, -13.2, -2.6,0,0,1024,1024,1088,1024,0,0,10,0,0,0,0,98,4.325,4.329,4.329,4.326,4.325,4.327,0,32,9822.1204803183,0,10,Assisted_Takeoff,
2900,2023-10-11 01:21:27,38.4981878398598,-112.064461933322,0,,,9822.1204803183,0.656168,0,0.276083014084,0.62839897024,16,5,25.961,9822.1204803183,0,0,0.298084327124,0,0,0,143.3, -13.3, -2.6,0,0,1024,1024,1115,1024,0,0,14,0,0,0,0,98,4.325,4.329,4.329,4.326,4.325,4.327,0,32,9822.1204803183,0,10,Assisted_Takeoff,
3000,2023-10-11 01:21:27,38.498187860555,-112.06446195167,0,,,9822.1204803183,0.656168,0,0.285103683664,0.63758860308,16,5,25.961,9822.1204803183,0,0,0.298084327124,0,0,0,143.3, -13.2, -2.6,0,0,1024,1024,1135,1024,0,0,17,0,0,0,0,98,4.325,4.329,4.329,4.326,4.325,4.327,0,32,9822.1204803183,0,10,Assisted_Takeoff,
3100,2023-10-11 01:21:27,38.4981878289426,-112.064462055196,0,,,9822.1204803183,0.656168,0,0.299549222184,0.66931760672,16,5,25.961,9822.1204803183,0,0,0.299549222184,0,0,0,143.3, -13.1, -2.6,0,0,1024,1024,1162,1024,0,0,21,0,0,0,0,98,4.325,4.329,4.329,4.326,4.325,4.327,0,32,9822.1204803183,0,10,Assisted_Takeoff,
3200,2023-10-11 01:21:27,38.498187847705,-112.064462080204,0,,,9822.1204803183,0.656168,0,0.309405849796,0.67920933932,16,5,25.961,9822.1204803183,0,0,0.309405849796,0,0,0,143.2, -13, -2.6,0,0,1024,1024,1181,1024,0,0,24,0,0,0,0,98,4.325,4.329,4.329,4.326,4.325,4.327,0,32,9822.1204803183,0,10,Assisted_Takeoff,
3300,2023-10-11 01:21:27,38.4981879742501,-112.064462026037,0,,,9822.1204803183,0.656168,0,0.32963255648,0.7279035666,16,5,25.961,9822.1204803183,0,0,0.32963255648,0,0,0,143.2, -12.8, -2.6,0,0,1024,1024,1199,1024,0,0,27,0,0,0,0,98,4.325,4.329,4.329,4.326,4.325,4.327,0,32,9822.1204803183,0,10,Assisted_Takeoff,
3400,2023-10-11 01:21:27,38.4981880013552,-112.06446203736,0,,,9822.1204803183,0.656168,0,0.33909777988,0.73830711024,16,5,25.965,9822.1204803183,0,0,0.33909777988,0,0,0,143.2, -12.8, -2.6,0,0,1024,1024,1213,1024,0,0,29,0,0,0,0,98,4.326,4.329,4.329,4.327,4.326,4.328,0,32,9822.1204803183,0,10,Assisted_Takeoff,
3500,2023-10-11 01:21:27,38.4981879523811,-112.06446213702,0,,,9822.1204803183,0.656168,0,0.3466043418,0.77190947352,16,5,25.965,9822.1204803183,0,0,0.3466043418,0,0,0,143.2, -12.8, -2.7,0,0,1024,1024,1267,1024,0,0,37,0,0,0,0,98,4.326,4.329,4.329,4.327,4.326,4.328,0,32,9822.1204803183,0,10,Assisted_Takeoff,
3600,2023-10-11 01:21:27,38.4981879734409,-112.064462154504,0,,,9822.1204803183,0.656168,0,0.35547245232,0.78107285964,16,5,25.965,9822.1204803183,0,0,0.35547245232,0,0,0,143.2, -12.8, -2.7,0,0,1024,1024,1267,1024,0,0,37,0,0,0,0,98,4.326,4.329,4.329,4.327,4.326,4.328,0,32,9822.1204803183,0,10,Assisted_Takeoff,
3700,2023-10-11 01:21:27,38.4981880777532,-112.064462097093,0,,,9822.1204803183,0.656168,0,0.3712434502,0.82250986884,16,5,25.965,9822.1204803183,0,0,0.3712434502,0,0,0,143.2, -12.7, -2.7,0,0,1024,1024,1298,1024,0,0,42,0,0,0,0,98,4.326,4.329,4.329,4.327,4.326,4.328,0,32,9822.1204803183,0,10,Assisted_Takeoff,
3800,2023-10-11 01:21:28,38.4981881049881,-112.06446210017,0,,,9822.1204803183,0.656168,0,0.3793307208,0.83248690328,16,5,25.965,9822.1204803183,0,0,0.3793307208,0,0,0,143.3, -12.5, -2.7,0,0,1024,1024,1312,1024,0,0,44,0,0,0,0,98,4.326,4.329,4.329,4.327,4.326,4.328,0,32,9822.1204803183,0,10,Assisted_Takeoff,
3900,2023-10-11 01:21:28,38.4981880435561,-112.064462196756,0,,,9822.1204803183,0.656168,0,0.38182087836,0.86802496216,16,5,25.965,9822.1204803183,0,0,0.38182087836,0,0,0,143.6, -11.9, -2.9,0,0,1024,1024,1322,1024,0,0,45,0,0,0,0,98,4.326,4.329,4.329,4.327,4.326,4.328,0,32,9822.1204803183,0,10,Assisted_Takeoff,
4000,2023-10-11 01:21:28,38.4981880340592,-112.064462143681,0,,,9822.1204803183,0.656168,0.223694,0.36863190156,0.88356958208,16,5,25.965,9822.1204803183,0,0.223694,0.38182087836,0,0.223694,0,144.4, -10.1, -3.4,0,0,1024,1024,1325,1024,0,0,46,0,0,0,0,98,4.326,4.329,4.329,4.327,4.326,4.328,0,32,9822.1204803183,0,10,Assisted_Takeoff,
4100,2023-10-11 01:21:28,38.4981879268416,-112.064461956853,0,,,9822.1204803183,0.656168,0.223694,0.303520022836,0.94972443984,16,5,25.965,9822.1204803183,0,0.223694,0.38182087836,0,0.223694,0,145, -6.6, -3.4,0,0,1024,1024,1335,1024,0,0,47,0,0,0,0,98,4.326,4.329,4.329,4.327,4.326,4.328,0,32,9822.1204803183,0,10,Assisted_Takeoff,
4200,2023-10-11 01:21:28,38.4981878505912,-112.064461724879,0,,,9822.1204803183,0.656168,0.223694,0.240130585112,1.02156499332,16,5,25.965,9822.1204803183,0,0.223694,0.38182087836,-0.223694,0.447388,-0.223694,145, -0.6, -2.5,0,0,1024,1024,1337,1024,0,0,47,0,0,0,0,98,4.326,4.329,4.329,4.327,4.326,4.328,0,32,9822.1204803183,0,10,Assisted_Takeoff,
4300,2023-10-11 01:21:28,38.4981878412294,-112.064461482305,0,,,9822.1204803183,0.984252,0.447388,0.20467356298,1.09091538924,16,5,25.965,9822.1204803183,0,0.447388,0.38182087836,0,0.447388,-0.447388,144.4, 5.3, -1,0,0,1024,1024,1336,1024,0,0,47,0,0,0,0,98,4.326,4.329,4.329,4.327,4.326,4.328,0,32,9822.1204803183,0,6,P-GPS,
4400,2023-10-11 01:21:28,38.4981878575836,-112.064461244714,0,,,9822.1204803183,0.984252,0.447388,0.198436358056,1.15901906596,16,5,25.672,9822.1204803183,0,0.447388,0.38182087836,0,0.447388,-0.894776,143.8, 9, 0.8,0,0,1024,1024,1336,1024,0,0,47,0,0,0,0,98,4.279,4.279,4.279,4.268,4.287,4.28,0,32,9822.1204803183,0,6,P-GPS,
4500,2023-10-11 01:21:28,38.4981880493645,-112.064461041735,0.328084,,,9822.4485643183,0.984252,0.3131716,0.274211951032,1.24987864892,16,5,25.672,9822.4485643183,0.328084,0.447388,0.38182087836,0.223694,0.223694,-1.11847,143.4, 8.8, 2.2,0,0,1024,1024,1333,1024,0,0,47,0,0,0,0,98,4.279,4.279,4.279,4.268,4.287,4.28,0,32,9822.4485643183,0.328084,6,P-GPS,
4600,2023-10-11 01:21:28,38.4981882631839,-112.064461087436,0.328084,,,9822.4485643183,1.312336,0.447388,0.34908465684,1.32897313964,16,5,25.672,9822.4485643183,0.328084,0.447388,0.38182087836,0.447388,0,-1.565858,143.2, 6.5, 3.2,0,0,1024,1024,1331,1024,0,0,47,0,0,0,0,98,4.279,4.279,4.279,4.268,4.287,4.28,0,32,9822.4485643183,0.328084,6,P-GPS,
4700,2023-10-11 01:21:28,38.4981885176068,-112.064461279253,0.656168,,,9822.7766483183,1.64042,0.447388,0.43939305868,1.43675201448,16,5,25.672,9822.7766483183,0.656168,0.447388,0.43939305868,0.447388,-0.223694,-1.789552,142.8, 3, 2.8,0,0,1024,1024,1329,1024,0,0,46,0,0,0,0,98,4.279,4.279,4.279,4.268,4.287,4.28,0,32,9822.7766483183,0.656168,6,P-GPS,
4800,2023-10-11 01:21:29,38.4981887334049,-112.064461694703,0.984252,,,9823.1047323183,1.968504,0.6263432,0.53410762864,1.5791339088,16,5,25.672,9823.1047323183,0.984252,0.6263432,0.53410762864,0.447388,-0.447388,-2.23694,142.7, -0.5, 1.5,0,0,1024,1024,1327,1024,0,0,46,0,0,0,0,98,4.279,4.279,4.279,4.268,4.287,4.28,0,32,9823.1047323183,0.984252,6,P-GPS,
4900,2023-10-11 01:21:29,38.4981885548935,-112.064462083555,1.312336,,,9823.4328163183,2.296588,0.4921268,0.51312993768,1.7078576662,16,5,25.672,9823.4328163183,1.312336,0.6263432,0.53410762864,0.223694,-0.447388,-2.460634,142.7, -2.9, -0.3,0,0,1024,1024,1320,1024,0,0,45,0,0,0,0,98,4.279,4.279,4.279,4.268,4.287,4.28,0,32,9823.4328163183,1.312336,6,P-GPS,
5000,2023-10-11 01:21:29,38.4981886791244,-112.064462403333,1.64042,,,9823.7609003183,2.624672,0.4921268,0.59901248636,1.80979992668,16,5,25.672,9823.7609003183,1.64042,0.6263432,0.59901248636,0,-0.447388,-2.908022,142.8, -3.7, -2,0,0,1024,1024,1318,1024,0,0,45,0,0,0,0,98,4.279,4.279,4.279,4.268,4.287,4.28,0,32,9823.7609003183,1.64042,6,P-GPS,
5100,2023-10-11 01:21:29,38.4981890185916,-112.064462438173,1.968504,,,9824.0889843183,3.28084,0.223694,0.7101214138,1.93405189916,16,5,25.672,9824.0889843183,1.968504,0.6263432,0.7101214138,0,-0.223694,-3.131716,142.9, -3.3, -2.9,0,0,1024,1024,1316,1024,0,0,44,0,0,0,0,98,4.279,4.279,4.279,4.268,4.287,4.28,0,32,9824.0889843183,1.968504,6,P-GPS,
5200,2023-10-11 01:21:29,38.4981891094726,-112.064462566797,2.624672,,,9824.7451523183,3.608924,0.223694,0.75705711084,1.98353352804,16,5,25.672,9824.7451523183,2.624672,0.6263432,0.75705711084,0,-0.223694,-3.35541,143.1, -2.5, -2.8,0,0,1024,1024,1307,1024,0,0,43,0,0,0,0,98,4.279,4.279,4.279,4.268,4.287,4.28,0,32,9824.7451523183,2.624672,6,P-GPS,
5300,2023-10-11 01:21:29,38.4981891976607,-112.064462067662,3.28084,,,9825.4013203183,4.265092,0.223694,0.72699477392,2.1296424566,16,5,25.672,9825.4013203183,3.28084,0.6263432,0.75705711084,0,0,-3.579104,143.2, -1.9, -2,0,0,1024,1024,1304,1024,0,0,42,0,0,0,0,98,4.279,4.279,4.279,4.268,4.287,4.28,0,32,9825.4013203183,3.28084,6,P-GPS,
5400,2023-10-11 01:21:29,38.4981892631149,-112.064462021028,3.608924,,,9825.7294043183,4.593176,0,0.74551511572,2.15698497716,16,5,25.014,9825.7294043183,3.608924,0.6263432,0.75705711084,0,0,-3.579104,143.3, -1.4, -1.1,0,0,1024,1024,1303,1024,0,0,42,0,0,0,0,98,4.163,4.165,4.175,4.171,4.169,4.171,0,32,9825.7294043183,3.608924,6,P-GPS,
5500,2023-10-11 01:21:29,38.4981890979329,-112.06446217278,4.265092,,,9826.3855723183,5.249344,0,0.70352036372,2.23121070132,16,5,25.014,9826.3855723183,4.265092,0.6263432,0.75705711084,0,0,-3.802798,143.5, -1.1, -0.5,0,0,1024,1024,1303,1024,0,0,42,0,0,0,0,98,4.163,4.165,4.175,4.171,4.169,4.171,0,32,9826.3855723183,4.265092,6,P-GPS,
5600,2023-10-11 01:21:29,38.4981891157117,-112.064462104552,4.92126,,,9827.0417403183,5.577428,0,0.70243440568,2.25174547888,16,5,25.014,9827.0417403183,4.92126,0.6263432,0.75705711084,0,0,-3.802798,143.6, -0.9, -0.4,0,0,1024,1024,1296,1024,0,0,41,0,0,0,0,98,4.163,4.165,4.175,4.171,4.169,4.171,0,32,9827.0417403183,4.92126,6,P-GPS,
5700,2023-10-11 01:21:29,38.4981891333024,-112.064462028692,5.577428,,,9827.6979083183,6.233596,0,0.70117784396,2.27433734312,16,5,25.014,9827.6979083183,5.577428,0.6263432,0.75705711084,0,0,-3.579104,143.6, -0.8, -0.9,0,0,1024,1024,1295,1024,0,0,41,0,0,0,0,98,4.163,4.165,4.175,4.171,4.169,4.171,0,32,9827.6979083183,5.577428,6,P-GPS,
5800,2023-10-11 01:21:30,38.4981893852187,-112.064461848216,5.905512,,,9828.0259923183,6.889764,0,0.77558401432,2.37971136224,16,5,25.014,9828.0259923183,5.905512,0.6263432,0.77558401432,0,0,-3.579104,143.7, -1.1, -1,0,0,1024,1024,1297,1024,0,0,41,0,0,0,0,98,4.163,4.165,4.175,4.171,4.169,4.171,0,32,9828.0259923183,5.905512,6,P-GPS,
5900,2023-10-11 01:21:30,38.4981892051207,-112.064461925291,6.56168,,,9828.6821603183,7.217848,0,0.71740815944,2.44900598388,16,5,25.014,9828.6821603183,6.56168,0.6263432,0.77558401432,0,0,-3.579104,143.7, -1.5, -1,0,0,1024,1024,1298,1024,0,0,42,0,0,0,0,98,4.163,4.165,4.175,4.171,4.169,4.171,0,32,9828.6821603183,6.56168,6,P-GPS,
6000,2023-10-11 01:21:30,38.4981891846974,-112.06446181019,6.889764,,,9829.0102443183,7.874016,0,0.70187666288,2.48270677236,16,5,25.014,9829.0102443183,6.889764,0.6263432,0.77558401432,0,0,-3.35541,143.7, -1.6, -0.9,0,0,1024,1024,1298,1024,0,0,42,0,0,0,0,98,4.163,4.165,4.175,4.171,4.169,4.171,0,32,9829.0102443183,6.889764,6,P-GPS,
6100,2023-10-11 01:21:30,38.498188937639,-112.064461577585,7.545932,,,9829.6664123183,8.2021,0,0.60034778824,2.59467199904,17,5,25.014,9829.6664123183,7.545932,0.6263432,0.77558401432,0,0,-3.35541,143.8, -1.3, -1,0,0,1024,1024,1299,1024,0,0,42,0,0,0,0,98,4.163,4.165,4.175,4.171,4.169,4.171,0,32,9829.6664123183,7.545932,6,P-GPS,
6200,2023-10-11 01:21:30,38.4981888670964,-112.064461410448,8.2021,,,9830.3225803183,8.530184,0.223694,0.56887469012,2.64889444172,17,5,25.014,9830.3225803183,8.2021,0.6263432,0.77558401432,-0.223694,0,-3.131716,143.8, -0.8, -1.1,0,0,1024,1024,1298,1024,0,0,42,0,0,0,0,98,4.163,4.165,4.175,4.171,4.169,4.171,0,32,9830.3225803183,8.2021,6,P-GPS,
6300,2023-10-11 01:21:30,38.4981888531261,-112.064461234576,8.530184,,,9830.6506643183,8.858268,0.223694,0.56165356128,2.69937344596,16,5,25.014,9830.6506643183,8.530184,0.6263432,0.77558401432,-0.223694,0,-3.131716,143.9, -0.2, -1.1,0,0,1024,1024,1307,1024,0,0,43,0,0,0,0,98,4.163,4.165,4.175,4.171,4.169,4.171,0,32,9830.6506643183,8.530184,6,P-GPS,
6400,2023-10-11 01:21:30,38.4981887828168,-112.064461040765,9.186352,,,9831.3068323183,9.514436,0,0.53896327184,2.76037082324,16,5,25.214,9831.3068323183,9.186352,0.6263432,0.77558401432,0,0,-3.131716,144, 0, -1,0,0,1024,1024,1316,1024,0,0,44,0,0,0,0,98,4.195,4.201,4.207,4.204,4.202,4.205,0,32,9831.3068323183,9.186352,6,P-GPS,
6500,2023-10-11 01:21:30,38.4981887080932,-112.06446097894,9.514436,,,9831.6349163183,9.84252,0,0.51410434716,2.7928478584,16,5,25.214,9831.6349163183,9.514436,0.6263432,0.77558401432,0,0,-3.131716,144.1, 0.3, -1,0,0,1024,1024,1323,1024,0,0,45,0,0,0,0,98,4.195,4.201,4.207,4.204,4.202,4.205,0,32,9831.6349163183,9.514436,6,P-GPS,
6600,2023-10-11 01:21:30,38.4981886474957,-112.064460795473,10.170604,,,9832.2910843183,10.170604,0,0.50279529168,2.84971137728,16,5,25.214,9832.2910843183,10.170604,0.6263432,0.77558401432,0,0,-3.131716,144.1, 0.4, -0.9,0,0,1024,1024,1327,1024,0,0,46,0,0,0,0,98,4.195,4.201,4.207,4.204,4.202,4.205,0,32,9832.2910843183,10.170604,6,P-GPS,
6700,2023-10-11 01:21:30,38.4981885996773,-112.064460615962,10.498688,,,9832.6191683183,10.498688,0,0.50171917616,2.9038550798,16,5,25.214,9832.6191683183,10.498688,0.6263432,0.77558401432,0,0,-3.131716,144.2, 0.5, -0.7,0,0,1024,1024,1332,1024,0,0,47,0,0,0,0,98,4.195,4.201,4.207,4.204,4.202,4.205,0,32,9832.6191683183,10.498688,6,P-GPS,
6800,2023-10-11 01:21:31,38.4981884446766,-112.06446069201,10.826772,,,9832.9472523183,10.826772,0,0.4411417464,2.96443250956,16,5,25.214,9832.9472523183,10.826772,0.6263432,0.77558401432,0,0,-3.131716,144.2, 0.3, -0.5,0,0,1024,1024,1337,1024,0,0,47,0,0,0,0,98,4.195,4.201,4.207,4.204,4.202,4.205,0,32,9832.9472523183,10.826772,6,P-GPS,
6900,2023-10-11 01:21:31,38.4981883020733,-112.064460739231,11.48294,,,9833.6034203183,11.154856,0,0.38774935624,3.01818251128,16,5,25.214,9833.6034203183,11.48294,0.6263432,0.77558401432,0,0,-3.35541,144.3, 0.2, -0.3,0,0,1024,1024,1344,1024,0,0,48,0,0,0,0,98,4.195,4.201,4.207,4.204,4.202,4.205,0,32,9833.6034203183,11.48294,6,P-GPS,
7000,2023-10-11 01:21:31,38.4981882429855,-112.064460629345,11.811024,,,9833.9315043183,11.811024,0,0.38104660012,3.0562500978,16,5,25.214,9833.9315043183,11.811024,0.6263432,0.77558401432,0,0,-3.35541,144.3, 0.2, -0.1,0,0,1024,1024,1350,1024,0,0,49,0,0,0,0,98,4.195,4.201,4.207,4.204,4.202,4.205,0,32,9833.9315043183,11.811024,6,P-GPS,
7100,2023-10-11 01:21:31,38.4981880752718,-112.064460665305,12.467192,,,9834.5876723183,12.139108,0,0.322461952576,3.11829734388,16,5,25.214,9834.5876723183,12.467192,0.6263432,0.77558401432,0,0,-3.579104,144.4, 0.3, -0.2,0,0,1024,1024,1352,1024,0,0,50,0,0,0,0,98,4.195,4.201,4.207,4.204,4.202,4.205,0,32,9834.5876723183,12.467192,6,P-GPS,
7200,2023-10-11 01:21:31,38.4981880077747,-112.064460592984,13.12336,,,9835.2438403183,12.467192,0,0.313190954904,3.15043645252,16,5,25.214,9835.2438403183,13.12336,0.6263432,0.77558401432,0,0,-3.579104,144.5, 0.5, -0.3,0,0,1024,1024,1351,1024,0,0,50,0,0,0,0,98,4.195,4.201,4.207,4.204,4.202,4.205,0,32,9835.2438403183,13.12336,6,P-GPS,
7300,2023-10-11 01:21:31,38.4981882856743,-112.064460271786,13.451444,,,9835.5719243183,13.12336,0,0.44937337396,3.2871392128,17,5,25.214,9835.5719243183,13.451444,0.6263432,0.77558401432,0,0,-3.802798,144.6, 0.4, -0.5,0,0,1024,1024,1351,1024,0,0,50,0,0,0,0,98,4.195,4.201,4.207,4.204,4.202,4.205,0,32,9835.5719243183,13.451444,6,P-GPS,
7400,2023-10-11 01:21:31,38.4981882527311,-112.064460215851,14.107612,,,9836.2280923183,13.451444,0,0.45014109052,3.3071523368,17,5,25.214,9836.2280923183,14.107612,0.6263432,0.77558401432,0,0,-3.802798,144.7, 0.1, -0.4,0,0,1024,1024,1355,1024,0,0,50,0,0,0,0,98,4.195,4.201,4.207,4.204,4.202,4.205,0,32,9836.2280923183,14.107612,6,P-GPS,
7500,2023-10-11 01:21:31,38.4981877330556,-112.064461394177,14.76378,,,9836.8842603183,13.779528,0,0.159328089088,3.6933400132,17,5,25.126,9836.8842603183,14.76378,0.6263432,0.77558401432,0,0,-4.026492,144.8, -0.1, -0.5,0,0,1024,1024,1359,1024,0,0,51,0,0,0,0,98,4.18,4.187,4.191,4.187,4.189,4.192,0,32,9836.8842603183,14.76378,6,P-GPS,
7600,2023-10-11 01:21:31,38.4981876552338,-112.064461466312,15.419948,,,9837.5404283183,14.435696,0,0.140570542556,3.7284121928,17,5,25.126,9837.5404283183,15.419948,0.6263432,0.77558401432,0,0,-4.026492,144.9, -0.2, -1.3,0,0,1024,1024,1384,1024,0,0,55,0,0,0,0,98,4.18,4.187,4.191,4.187,4.189,4.192,0,32,9837.5404283183,15.419948,6,P-GPS,
7700,2023-10-11 01:21:31,38.4981875831006,-112.064461507618,16.076116,,,9838.1965963183,14.76378,0,0.124773297956,3.7572507764,17,5,25.126,9838.1965963183,16.076116,0.6263432,0.77558401432,0,0,-4.026492,145, -0.1, -2.3,0,0,1024,1024,1384,1024,0,0,55,0,0,0,0,98,4.18,4.187,4.191,4.187,4.189,4.192,0,32,9838.1965963183,16.076116,6,P-GPS,
7800,2023-10-11 01:21:32,38.4981877518782,-112.064460647865,16.732284,,,9838.8527643183,15.419948,0,0.23235893132,4.0103675824,17,5,25.126,9838.8527643183,16.732284,0.6263432,0.77558401432,0,0,-4.026492,145.1, 0.2, -2.4,0,0,1024,1024,1386,1024,0,0,55,0,0,0,0,98,4.18,4.187,4.191,4.187,4.189,4.192,0,32,9838.8527643183,16.732284,6,P-GPS,
7900,2023-10-11 01:21:32,38.4981877344193,-112.064460303708,17.060368,,,9839.1808483183,15.748032,0,0.307886164708,4.1088583992,18,5,25.126,9839.1808483183,17.060368,0.6263432,0.77558401432,0,0,-4.250186,145.1, 0.5, -1.8,0,0,1024,1024,1388,1024,0,0,55,0,0,0,0,98,4.18,4.187,4.191,4.187,4.189,4.192,0,32,9839.1808483183,17.060368,6,P-GPS,
8000,2023-10-11 01:21:32,38.4981877438259,-112.064460189014,17.716536,,,9839.8370163183,16.4042,0.223694,0.33825132316,4.1417652244,18,5,25.126,9839.8370163183,17.716536,0.6263432,0.77558401432,0,0.223694,-4.47388,145.1, 0.7, -0.9,0,0,1024,1024,1391,1024,0,0,56,0,0,0,0,98,4.18,4.187,4.191,4.187,4.189,4.192,0,32,9839.8370163183,17.716536,6,P-GPS,
8100,2023-10-11 01:21:32,38.4981880715478,-112.064460042387,18.700788,,,9840.8212683183,16.732284,0.223694,0.43940946288,4.2684712652,17,5,25.126,9840.8212683183,18.700788,0.6263432,0.77558401432,0,0.223694,-4.47388,145, 0.6, 0,0,0,1024,1024,1391,1024,0,0,56,0,0,0,0,98,4.18,4.187,4.191,4.187,4.189,4.192,0,32,9840.8212683183,18.700788,6,P-GPS,
8200,2023-10-11 01:21:32,38.4981881308919,-112.064459941534,19.356956,,,9841.4774363183,17.388452,0,0.47541668188,4.3044948884,17,5,25.126,9841.4774363183,19.356956,0.6263432,0.77558401432,0,0,-4.47388,144.9, 0.2, 0.6,0,0,1024,1024,1387,1024,0,0,55,0,0,0,0,98,4.18,4.187,4.191,4.187,4.189,4.192,0,32,9841.4774363183,19.356956,6,P-GPS,
8300,2023-10-11 01:21:32,38.4981881571191,-112.0644598537,20.013124,,,9842.1336043183,17.716536,0,0.50102363808,4.3313321596,17,5,25.126,9842.1336043183,20.013124,0.6263432,0.77558401432,0,0,-4.697574,144.9, -0.1, 0.7,0,0,1024,1024,1387,1024,0,0,55,0,0,0,0,98,4.18,4.187,4.191,4.187,4.189,4.192,0,32,9842.1336043183,20.013124,6,P-GPS,
8400,2023-10-11 01:21:32,38.4981881967376,-112.06445979547,20.669292,,,9842.7897723183,18.372704,0,0.52302167028,4.3533794044,17,5,25.126,9842.7897723183,20.669292,0.6263432,0.77558401432,0,0,-4.697574,144.8, -0.2, 0.4,0,0,1024,1024,1387,1024,0,0,55,0,0,0,0,98,4.18,4.187,4.191,4.187,4.189,4.192,0,32,9842.7897723183,20.669292,6,P-GPS,
8500,2023-10-11 01:21:32,38.4981880886425,-112.064460101104,21.32546,,,9843.4459403183,19.028872,0,0.4305774416,4.449147124,17,5,25.071,9843.4459403183,21.32546,0.6263432,0.77558401432,0,0,-4.697574,144.7, -0.1, 0,0,0,1030,1024,1389,1024,1,0,55,0,0,0,0,98,4.174,4.174,4.178,4.178,4.188,4.179,0,32,9843.4459403183,21.32546,6,P-GPS,
8600,2023-10-11 01:21:32,38.4981881022003,-112.064460088571,21.981628,,,9844.1021083183,19.68504,0,0.43652888536,4.4552494864,17,5,25.071,9844.1021083183,21.981628,0.6263432,0.77558401432,0,0,-4.697574,144.7, 0, -0.1,0,0,1097,1024,1392,1024,11,0,56,0,0,0,0,98,4.174,4.174,4.178,4.178,4.188,4.179,0,32,9844.1021083183,21.981628,6,P-GPS,
8700,2023-10-11 01:21:32,38.4981881169061,-112.064460074873,22.637796,,,9844.7582763183,20.341208,0,0.44300854436,4.4618767832,19,5,25.071,9844.7582763183,22.637796,0.6263432,0.77558401432,0,0,-4.697574,144.7, 0, -0.4,0,0,1151,1024,1391,1024,19,0,56,0,0,0,0,98,4.174,4.174,4.178,4.178,4.188,4.179,0,32,9844.7582763183,22.637796,6,P-GPS,
8800,2023-10-11 01:21:33,38.4981881736758,-112.064459901238,23.293964,,,9845.4144443183,20.997376,0,0.4941929292,4.5156169424,19,5,25.071,9845.4144443183,23.293964,0.6263432,0.77558401432,0,0,-4.697574,144.7, -0.1, -0.6,0,0,1243,1024,1380,1024,33,0,54,0,0,0,0,98,4.174,4.174,4.178,4.178,4.188,4.179,0,32,9845.4144443183,23.293964,6,P-GPS,
8900,2023-10-11 01:21:33,38.4981882882629,-112.064459803491,24.278216,,,9846.3986963183,21.981628,0,0.54249673652,4.5658794112,19,5,25.071,9846.3986963183,24.278216,0.6263432,0.77558401432,0,0,-4.697574,144.6, -1.1, -0.6,0,0,1269,1024,1376,1024,37,0,53,0,0,0,0,98,4.174,4.174,4.178,4.178,4.188,4.179,0,32,9846.3986963183,24.278216,6,P-GPS,
9000,2023-10-11 01:21:33,38.4981882992031,-112.06445973813,24.934384,,,9847.0548643183,22.637796,0,0.5592847948,4.5849739,19,5,25.071,9847.0548643183,24.934384,0.6263432,0.77558401432,0,0,-4.697574,144.6, -3.3, -0.5,0,0,1304,1024,1373,1024,42,0,53,0,0,0,0,98,4.174,4.174,4.178,4.178,4.188,4.179,0,32,9847.0548643183,24.934384,6,P-GPS,
9100,2023-10-11 01:21:33,38.4981882647556,-112.06445962159,25.590552,,,9847.7110323183,23.293964,0,0.5775262652,4.6205382056,19,5,25.071,9847.7110323183,25.590552,0.6263432,0.77558401432,0,0,-4.697574,144.5, -6, -0.2,0,0,1334,1024,1367,1024,47,0,52,0,0,0,0,98,4.174,4.174,4.178,4.178,4.188,4.179,0,32,9847.7110323183,25.590552,6,P-GPS,
9200,2023-10-11 01:21:33,38.4981882257734,-112.064459536546,26.24672,,,9848.3672003183,23.950132,0.3131716,0.58896655428,4.6486878128,19,5,25.071,9848.3672003183,26.24672,0.6263432,0.77558401432,-0.223694,0.223694,-4.47388,144.4, -8.2, 0.1,0,0,1363,1024,1367,1024,51,0,52,0,0,0,0,98,4.174,4.174,4.178,4.178,4.188,4.179,0,32,9848.3672003183,26.24672,6,P-GPS,
9300,2023-10-11 01:21:33,38.4981880015264,-112.064459267216,26.902888,,,9849.0233683183,24.6063,0.3131716,0.61626642392,4.7609581576,19,5,25.071,9849.0233683183,26.902888,0.6263432,0.77558401432,-0.447388,0.447388,-4.47388,144.4, -9.9, 0.3,0,0,1363,1024,1367,1024,51,0,52,0,0,0,0,98,4.174,4.174,4.178,4.178,4.188,4.179,0,32,9849.0233683183,26.902888,6,P-GPS,
9400,2023-10-11 01:21:33,38.49818771554,-112.064458847948,27.559056,,,9849.6795363183,25.262468,1.11847,0.69814306696,4.919783622,19,5,25.071,9849.6795363183,27.559056,1.11847,0.77558401432,-0.894776,0.671082,-4.47388,144.3, -11.1, 0.4,0,0,1362,1024,1367,1024,51,0,52,0,0,0,0,98,4.174,4.174,4.178,4.178,4.188,4.179,0,32,9849.6795363183,27.559056,6,P-GPS,
9500,2023-10-11 01:21:33,38.498187212665,-112.064458356333,28.215224,,,9850.3357043183,25.590552,1.4316416,0.82377955392,5.1507875664,19,5,25.104,9850.3357043183,28.215224,1.4316416,0.82377955392,-1.11847,0.894776,-4.47388,144.3, -11.8, 0.4,0,0,1369,1024,1367,1024,52,0,52,0,0,0,0,98,4.178,4.187,4.191,4.185,4.18,4.183,0,32,9850.3357043183,28.215224,6,P-GPS,
9600,2023-10-11 01:21:33,38.4981863503291,-112.06445795488,28.871392,,,9850.9918723183,25.918636,1.9237684,1.00130580632,5.4856300968,19,5,25.104,9850.9918723183,28.871392,1.9237684,1.00130580632,-1.565858,1.11847,-4.250186,144.3, -12.1, 0.3,0,0,1383,1024,1367,1021,54,0,52,-0,0,0,0,98,4.178,4.187,4.191,4.185,4.18,4.183,0,32,9850.9918723183,28.871392,6,P-GPS,
9700,2023-10-11 01:21:33,38.4981855006518,-112.06445722934,29.52756,,,9851.6480403183,25.918636,1.9237684,1.32213586908,5.8584975628,19,5,25.104,9851.6480403183,29.52756,1.9237684,1.32213586908,-2.013246,1.342164,-4.250186,144.4, -11.8, 0,0,0,1393,1024,1368,1010,56,0,52,-2,0,0,0,98,4.178,4.187,4.191,4.185,4.18,4.183,0,32,9851.6480403183,29.52756,6,P-GPS,
9800,2023-10-11 01:21:34,38.4981844794975,-112.064456251003,30.183728,,,9852.3042083183,25.918636,2.908022,1.75993772036,6.3241799924,19,5,25.104,9852.3042083183,30.183728,2.908022,1.75993772036,-2.460634,1.565858,-4.250186,144.5, -11.6, -0.3,0,0,1399,1024,1368,1009,57,0,52,-2,0,0,0,98,4.178,4.187,4.191,4.185,4.18,4.183,0,32,9852.3042083183,30.183728,6,P-GPS,
9900,2023-10-11 01:21:34,38.4981833312539,-112.064455254782,30.839896,,,9852.9603763183,25.918636,3.4225182,2.242864245,6.830544838,20,5,25.104,9852.9603763183,30.839896,3.4225182,2.242864245,-2.908022,1.789552,-4.250186,144.6, -11.7, -0.5,0,0,1410,1024,1368,1009,58,0,52,-2,0,0,0,98,4.178,4.187,4.191,4.185,4.18,4.183,0,32,9852.9603763183,30.839896,6,P-GPS,
10000,2023-10-11 01:21:34,38.4981821328857,-112.064454247196,31.496064,,,9853.6165443183,25.918636,3.8475368,2.7491962822,7.3539372432,20,5,25.104,9853.6165443183,31.496064,3.8475368,2.7491962822,-3.131716,2.23694,-4.250186,144.6, -12.1, -0.5,0,0,1425,1024,1376,1001,61,0,53,-3,0,0,0,98,4.178,4.187,4.191,4.185,4.18,4.183,0,32,9853.6165443183,31.496064,6,P-GPS,
10100,2023-10-11 01:21:34,38.4981806983941,-112.064452987631,32.152232,,,9854.2727123183,25.918636,4.3396636,3.3728347536,7.9889766336,20,5,25.104,9854.2727123183,32.152232,4.3396636,3.3728347536,-3.579104,2.460634,-4.250186,144.8, -12.6, -0.3,0,0,1430,1024,1379,998,62,0,54,-4,0,0,0,98,4.178,4.187,4.191,4.185,4.18,4.183,0,32,9854.2727123183,32.152232,6,P-GPS,
10200,2023-10-11 01:21:34,38.4981790646476,-112.064451680066,32.8084,,,9854.9288803183,25.918636,4.3396636,4.0628938308,8.6923231128,20,5,25.104,9854.9288803183,32.8084,4.3396636,4.0628938308,-4.026492,2.684328,-4.250186,144.8, -12.9, -0.2,0,0,1437,1024,1379,996,63,0,54,-4,0,0,0,98,4.178,4.187,4.191,4.185,4.18,4.183,0,32,9854.9288803183,32.8084,6,P-GPS,
10300,2023-10-11 01:21:34,38.498177302822,-112.064450147321,33.464568,,,9855.5850483183,25.918636,5.144962,4.8342849316,9.469980618,20,5,25.104,9855.5850483183,33.464568,5.144962,4.8342849316,-4.250186,2.908022,-4.250186,144.7, -12.9, -0.1,0,0,1438,1024,1378,992,63,0,54,-5,0,0,0,98,4.178,4.187,4.191,4.185,4.18,4.183,0,32,9855.5850483183,33.464568,6,P-GPS,
10400,2023-10-11 01:21:34,38.498175522176,-112.064448582618,34.120736,,,9856.2412163183,25.918636,5.6370888,5.6185041168,10.2584648952,20,5,25.021,9856.2412163183,34.120736,5.6370888,5.6185041168,-4.697574,3.131716,-4.47388,144.5, -13, -0.2,0,0,1437,1024,1379,979,63,0,54,-7,0,0,0,98,4.164,4.166,4.178,4.167,4.169,4.177,0,32,9856.2412163183,34.120736,6,P-GPS,
10500,2023-10-11 01:21:34,38.4981734549282,-112.064446783597,34.776904,,,9856.8973843183,25.918636,6.151585,6.527067138,11.1709977328,20,5,25.021,9856.8973843183,34.776904,6.151585,6.527067138,-5.144962,3.35541,-4.47388,144.4, -13.3, -0.7,0,0,1435,1024,1379,980,62,0,54,-7,0,0,0,98,4.164,4.166,4.178,4.167,4.169,4.177,0,32,9856.8973843183,34.776904,6,P-GPS,
10600,2023-10-11 01:21:34,38.4981713110082,-112.064444995406,35.433072,,,9857.5535523183,25.918636,6.151585,7.4565619184,12.1051184976,20,5,25.021,9857.5535523183,35.433072,6.151585,7.4565619184,-5.59235,3.802798,-4.47388,144.2, -13.3, -1.5,0,0,1436,1024,1378,977,62,0,54,-7,0,0,0,98,4.164,4.166,4.178,4.167,4.169,4.177,0,32,9857.5535523183,35.433072,6,P-GPS,
10700,2023-10-11 01:21:35,38.4981689531896,-112.064442904368,36.08924,,,9858.2097203183,25.918636,7.2476856,8.501804734,13.1522642004,20,5,25.021,9858.2097203183,36.08924,7.2476856,8.501804734,-6.039738,4.026492,-4.47388,143.9, -13.2, -2,0,0,1438,1024,1378,962,63,0,54,-9,0,0,0,98,4.164,4.166,4.178,4.167,4.169,4.177,0,32,9858.2097203183,36.08924,6,P-GPS,
10800,2023-10-11 01:21:35,38.4981664551987,-112.064440982933,36.745408,,,9858.8658883183,25.918636,7.5608572,9.5586289148,14.2160765704,20,5,25.021,9858.8658883183,36.745408,7.5608572,9.5586289148,-6.263432,4.250186,-4.47388,143.6, -13.1, -2.3,0,0,1445,1024,1378,970,64,0,54,-8,0,0,0,98,4.164,4.166,4.178,4.167,4.169,4.177,0,32,9858.8658883183,36.745408,6,P-GPS,
10900,2023-10-11 01:21:35,38.4981638382869,-112.064438596507,37.401576,,,9859.5220563183,25.918636,7.5608572,10.7311683224,15.3890752956,20,5,25.021,9859.5220563183,37.401576,7.5608572,10.7311683224,-6.487126,4.697574,-4.47388,143.3, -12.8, -2.5,0,0,1445,1024,1378,974,64,0,54,-8,0,0,0,98,4.164,4.166,4.178,4.167,4.169,4.177,0,32,9859.5220563183,37.401576,6,P-GPS,
11000,2023-10-11 01:21:35,38.49816086911,-112.064436130227,38.057744,,,9860.1782243183,25.918636,8.500372,12.0204072088,16.6811357044,20,5,25.021,9860.1782243183,38.057744,8.500372,12.0204072088,-6.934514,4.921268,-4.47388,142.9, -12.7, -2.7,0,0,1444,1024,1378,974,64,0,54,-8,0,0,0,98,4.164,4.166,4.178,4.167,4.169,4.177,0,32,9860.1782243183,38.057744,6,P-GPS,
11100,2023-10-11 01:21:35,38.4981580063691,-112.064433425175,38.713912,,,9860.8343923183,25.918636,8.8135436,13.3194558068,17.9801843024,20,5,25.021,9860.8343923183,38.713912,8.8135436,13.3194558068,-7.158208,5.144962,-4.47388,142.7, -12.7, -2.3,0,0,1445,1024,1378,974,64,0,54,-8,0,0,0,98,4.164,4.166,4.178,4.167,4.169,4.177,0,32,9860.8343923183,38.713912,6,P-GPS,
11200,2023-10-11 01:21:35,38.4981550192848,-112.064430594496,39.37008,,,9861.4905603183,25.918636,9.2609316,14.6763128056,19.3370413012,20,5,25.021,9861.4905603183,39.37008,9.2609316,14.6763128056,-7.381902,5.59235,-4.47388,142.4, -13.2, -1.9,0,0,1444,1024,1378,976,64,0,54,-7,0,0,0,98,4.164,4.166,4.178,4.167,4.169,4.177,0,32,9861.4905603183,39.37008,6,P-GPS,
11300,2023-10-11 01:21:35,38.498151927903,-112.0644275957,40.026248,,,9862.1467283183,25.918636,9.7530584,16.092356158,20.7531502704,20,5,25.021,9862.1467283183,40.026248,9.7530584,16.092356158,-7.82929,5.816044,-4.47388,142.2, -13.6, -1.6,0,0,1445,1024,1377,981,64,0,53,-7,0,0,0,98,4.164,4.166,4.178,4.167,4.169,4.177,0,32,9862.1467283183,40.026248,6,P-GPS,
11400,2023-10-11 01:21:35,38.4981485812043,-112.064424543267,40.682416,,,9862.8028963183,25.918636,10.06623,17.5922905892,22.2533471688,20,5,25.031,9862.8028963183,40.682416,10.06623,17.5922905892,-8.052984,6.039738,-4.47388,141.9, -13.8, -1.4,0,0,1446,1024,1373,986,64,0,53,-6,0,0,0,98,4.167,4.169,4.173,4.173,4.174,4.175,0,32,9862.8028963183,40.682416,6,P-GPS,
11500,2023-10-11 01:21:35,38.4981449824363,-112.064421174788,41.338584,,,9863.4590643183,25.918636,10.3794016,19.2198825048,23.8809718928,20,5,25.031,9863.4590643183,41.338584,10.3794016,19.2198825048,-8.276678,6.263432,-4.47388,141.7, -13.9, -1.3,0,0,1445,1024,1369,989,64,0,52,-5,0,0,0,98,4.167,4.169,4.173,4.173,4.174,4.175,0,32,9863.4590643183,41.338584,6,P-GPS,
11600,2023-10-11 01:21:35,38.4981414750612,-112.064417766169,41.994752,,,9864.1152323183,25.918636,10.8715284,20.8274941048,25.4887147264,20,5,25.031,9864.1152323183,41.994752,10.8715284,20.8274941048,-8.724066,6.487126,-4.47388,141.6, -14, -1.7,0,0,1445,1024,1369,989,64,0,52,-5,0,0,0,98,4.167,4.169,4.173,4.173,4.174,4.175,0,32,9864.1152323183,41.994752,6,P-GPS,
11700,2023-10-11 01:21:35,38.4981378342531,-112.064414222952,42.65092,,,9864.7714003183,25.918636,11.3189164,22.4971463892,27.1584982444,20,5,25.031,9864.7714003183,42.65092,11.3189164,22.4971463892,-8.94776,6.934514,-4.47388,141.6, -14, -2,0,0,1444,1024,1369,989,64,0,52,-5,0,0,0,98,4.167,4.169,4.173,4.173,4.174,4.175,0,32,9864.7714003183,42.65092,6,P-GPS,
11800,2023-10-11 01:21:36,38.4981344532339,-112.064411093083,43.307088,,,9865.4275683183,25.918636,11.8110432,24.0203091676,28.681759448,20,5,25.031,9865.4275683183,43.307088,11.8110432,24.0203091676,-9.395148,7.158208,-4.250186,141.6, -13.6, -2.1,0,0,1443,1024,1367,989,63,0,52,-5,0,0,0,98,4.167,4.169,4.173,4.173,4.174,4.175,0,32,9865.4275683183,43.307088,6,P-GPS,
11900,2023-10-11 01:21:36,38.4981305968134,-112.064407329371,43.963256,,,9866.0837363183,25.918636,12.1242148,25.7906504316,30.452264754,20,5,25.031,9866.0837363183,43.963256,12.1242148,25.7906504316,-9.618842,7.381902,-4.250186,141.6, -13.2, -2,0,0,1439,1024,1362,989,63,0,51,-5,0,0,0,98,4.167,4.169,4.173,4.173,4.174,4.175,0,32,9866.0837363183,43.963256,6,P-GPS,
12000,2023-10-11 01:21:36,38.4981263388262,-112.064403722393,44.619424,,,9866.7399043183,25.918636,12.4373864,27.6520350056,32.3162083832,20,5,25.031,9866.7399043183,44.619424,12.4373864,27.6520350056,-9.842536,7.605596,-4.250186,141.5, -12.9, -1.8,0,0,1439,1024,1362,989,63,0,51,-5,0,0,0,98,4.167,4.169,4.173,4.173,4.174,4.175,0,32,9866.7399043183,44.619424,6,P-GPS,
12100,2023-10-11 01:21:36,38.4981222341983,-112.064399739662,45.275592,,,9867.3960723183,25.918636,12.9295132,29.532317218,34.196523404,20,5,25.031,9867.3960723183,45.275592,12.9295132,29.532317218,-10.289924,7.82929,-4.250186,141.4, -12.7, -1.7,0,0,1452,1024,1358,988,65,0,51,-5,0,0,0,98,4.167,4.169,4.173,4.173,4.174,4.175,0,32,9867.3960723183,45.275592,6,P-GPS,
12200,2023-10-11 01:21:36,38.4981181347296,-112.0643955867,45.93176,,,9868.0522403183,25.918636,13.2426848,31.4400600612,36.105316116,20,5,25.031,9868.0522403183,45.93176,13.2426848,31.4400600612,-10.513618,8.052984,-4.250186,141.3, -12.4, -2.4,0,0,1465,1024,1357,988,67,0,50,-5,0,0,0,98,4.167,4.169,4.173,4.173,4.174,4.175,0,32,9868.0522403183,45.93176,6,P-GPS,
12300,2023-10-11 01:21:36,38.4981138368859,-112.064391373889,46.587928,,,9868.7084083183,25.918636,13.5558564,33.416011568,38.081694132,20,5,25.031,9868.7084083183,46.587928,13.5558564,33.416011568,-10.737312,8.276678,-4.250186,141.2, -12.2, -3.2,0,0,1477,1024,1358,986,69,0,51,-6,0,0,0,98,4.167,4.169,4.173,4.173,4.174,4.175,0,32,9868.7084083183,46.587928,6,P-GPS,
12400,2023-10-11 01:21:36,38.4981093626699,-112.064386997881,47.244096,,,9869.3645763183,25.918636,13.869028,35.471785912,40.137468476,20,5,25.031,9869.3645763183,47.244096,13.869028,35.471785912,-10.961006,8.500372,-4.026492,141, -12.4, -3.5,0,0,1501,1024,1355,970,72,0,50,-8,0,0,0,98,4.167,4.169,4.173,4.173,4.174,4.175,0,32,9869.3645763183,47.244096,6,P-GPS,
12500,2023-10-11 01:21:36,38.4981049261226,-112.064382512253,47.900264,,,9870.0207443183,25.918636,14.0032444,37.535106188,42.20144492,20,5,25.056,9870.0207443183,47.900264,14.0032444,37.535106188,-10.961006,8.724066,-4.026492,140.8, -12.7, -3.4,0,0,1507,1024,1356,970,73,0,50,-8,0,0,0,98,4.172,4.173,4.177,4.177,4.179,4.178,0,32,9870.0207443183,47.900264,6,P-GPS,
12600,2023-10-11 01:21:36,38.4981007852817,-112.064378342671,48.556432,,,9870.6769123183,25.918636,14.316416,39.458006512,44.125001412,20,5,25.056,9870.6769123183,48.556432,14.316416,39.458006512,-11.1847,8.94776,-4.026492,140.7, -13.6, -3.1,0,0,1513,1024,1355,970,74,0,50,-8,0,0,0,98,4.172,4.173,4.177,4.177,4.179,4.178,0,32,9870.6769123183,48.556432,6,P-GPS,
12700,2023-10-11 01:21:36,38.4980962363876,-112.064373647936,48.884516,,,9871.0049963183,25.918636,14.6295876,41.590224428,46.258531664,20,5,25.056,9871.0049963183,48.884516,14.6295876,41.590224428,-11.408394,9.171454,-4.026492,140.3, -14.8, -2.8,0,0,1518,1024,1355,971,75,0,50,-8,0,0,0,98,4.172,4.173,4.177,4.177,4.179,4.178,0,32,9871.0049963183,48.884516,6,P-GPS,
12800,2023-10-11 01:21:37,38.4980912273345,-112.064368621104,49.540684,,,9871.6611643183,25.918636,14.9427592,43.913387232,48.582350636,20,5,25.056,9871.6611643183,49.540684,14.9427592,43.913387232,-11.632088,9.395148,-4.026492,140, -15.7, -2.5,0,0,1520,1024,1356,971,75,0,50,-8,0,0,0,98,4.172,4.173,4.177,4.177,4.179,4.178,0,32,9871.6611643183,49.540684,6,P-GPS,
12900,2023-10-11 01:21:37,38.4980864655127,-112.064363645412,50.196852,,,9872.3173323183,25.918636,15.4125166,46.156169456,50.82677328,20,5,25.056,9872.3173323183,50.196852,15.4125166,46.156169456,-11.855782,9.842536,-3.802798,139.6, -15.8, -2.7,0,0,1521,1024,1356,972,75,0,50,-8,0,0,0,98,4.172,4.173,4.177,4.177,4.179,4.178,0,32,9872.3173323183,50.196852,6,P-GPS,
13000,2023-10-11 01:21:37,38.4980814451135,-112.064358405743,50.85302,,,9872.9735003183,25.918636,15.7256882,48.519686592,53.191602752,20,5,25.056,9872.9735003183,50.85302,15.7256882,48.519686592,-12.079476,10.06623,-3.802798,139.3, -15.6, -3.5,0,0,1520,1024,1357,974,75,0,50,-8,0,0,0,98,4.172,4.173,4.177,4.177,4.179,4.178,0,32,9872.9735003183,50.85302,6,P-GPS,
13100,2023-10-11 01:21:37,38.498076488252,-112.064353110213,51.181104,,,9873.3015843183,25.918636,16.0388598,50.874673544,55.549214376,20,5,25.056,9873.3015843183,51.181104,16.0388598,50.874673544,-12.30317,10.289924,-3.802798,139, -15.4, -4.5,0,0,1521,1024,1358,983,75,0,51,-6,0,0,0,98,4.172,4.173,4.177,4.177,4.179,4.178,0,32,9873.3015843183,51.181104,6,P-GPS,
13200,2023-10-11 01:21:37,38.4980713607553,-112.064347721878,51.837272,,,9873.9577523183,25.918636,16.329662,53.295277296,57.971458548,20,5,25.056,9873.9577523183,51.837272,16.329662,53.295277296,-12.30317,10.737312,-3.802798,138.8, -15.4, -4.6,0,0,1523,1024,1359,983,76,0,51,-6,0,0,0,98,4.172,4.173,4.177,4.177,4.179,4.178,0,32,9873.9577523183,51.837272,6,P-GPS,
13300,2023-10-11 01:21:37,38.4980662568839,-112.064342087883,52.49344,,,9874.6139203183,25.918636,16.6428336,55.751970288,60.432088548,20,5,25.056,9874.6139203183,52.49344,16.6428336,55.751970288,-12.526864,10.961006,-4.026492,138.7, -15.4, -3.7,0,0,1523,1024,1362,982,76,0,51,-6,0,0,0,98,4.172,4.173,4.177,4.177,4.179,4.178,0,32,9874.6139203183,52.49344,6,P-GPS,
13400,2023-10-11 01:21:37,38.4980611179899,-112.064336404744,53.149608,,,9875.2700883183,25.918636,16.9560052,58.228020236,62.91174742,20,5,25.056,9875.2700883183,53.149608,16.9560052,58.228020236,-12.750558,11.1847,-4.026492,138.6, -15.8, -2.4,0,0,1523,1024,1363,983,76,0,51,-6,0,0,0,98,4.172,4.173,4.177,4.177,4.179,4.178,0,32,9875.2700883183,53.149608,6,P-GPS,
13500,2023-10-11 01:21:37,38.4980558568503,-112.064330486651,53.805776,,,9875.9262563183,25.918636,17.4257626,60.780513756,65.4691622,20,5,24.883,9875.9262563183,53.805776,17.4257626,60.780513756,-12.974252,11.632088,-4.026492,138.4, -16.2, -1.4,0,0,1522,1024,1363,983,75,0,51,-6,0,0,0,98,4.14,4.145,4.15,4.149,4.15,4.149,0,32,9875.9262563183,53.805776,6,P-GPS,
13600,2023-10-11 01:21:37,38.4980504373035,-112.064324564105,54.461944,,,9876.5824243183,25.918636,17.7389342,63.379595204,68.071196404,20,5,24.883,9876.5824243183,54.461944,17.7389342,63.379595204,-13.197946,11.855782,-4.026492,138.1, -16.3, -0.7,0,0,1523,1024,1363,982,76,0,51,-6,0,0,0,98,4.14,4.145,4.15,4.149,4.15,4.149,0,32,9876.5824243183,54.461944,6,P-GPS,
13700,2023-10-11 01:21:37,38.4980449413319,-112.064318401221,55.118112,,,9877.2385923183,25.918636,18.0521058,66.0433092,70.738847408,20,5,24.883,9877.2385923183,55.118112,18.0521058,66.0433092,-13.42164,12.079476,-4.026492,137.8, -16.3, -1,0,0,1525,1024,1364,983,76,0,52,-6,0,0,0,98,4.14,4.145,4.15,4.149,4.15,4.149,0,32,9877.2385923183,55.118112,6,P-GPS,
13800,2023-10-11 01:21:38,38.4980391887354,-112.064312119743,55.446196,,,9877.5666763183,25.918636,18.5442326,68.801839472,73.499674268,20,5,24.883,9877.5666763183,55.446196,18.5442326,68.801839472,-13.869028,12.30317,-4.026492,137.4, -16, -1.9,0,0,1524,1024,1365,983,76,0,52,-6,0,0,0,98,4.14,4.145,4.15,4.149,4.15,4.149,0,32,9877.5666763183,55.446196,6,P-GPS,
13900,2023-10-11 01:21:38,38.4980334520148,-112.064305675053,56.102364,,,9878.2228443183,25.918636,18.8574042,71.584976044,76.286747848,20,5,24.883,9878.2228443183,56.102364,18.8574042,71.584976044,-14.092722,12.526864,-4.026492,137, -15.2, -3.5,0,0,1524,1024,1364,983,76,0,52,-6,0,0,0,98,4.14,4.145,4.15,4.149,4.15,4.149,0,32,9878.2228443183,56.102364,6,P-GPS,
14000,2023-10-11 01:21:38,38.4980276043175,-112.064299208152,56.758532,,,9878.8790123183,25.918636,19.3271616,74.403873772,79.108270248,20,5,24.883,9878.8790123183,56.758532,19.3271616,74.403873772,-14.316416,12.974252,-4.026492,136.6, -14.7, -5.6,0,0,1524,1024,1365,982,76,0,52,-6,0,0,0,98,4.14,4.145,4.15,4.149,4.15,4.149,0,32,9878.8790123183,56.758532,6,P-GPS,
14100,2023-10-11 01:21:38,38.4980217321128,-112.064292396752,57.4147,,,9879.5351803183,25.918636,19.796919,77.29166914,82.001971128,21,5,24.883,9879.5351803183,57.4147,19.796919,77.29166914,-14.54011,13.42164,-4.026492,136.3, -14.3, -7.2,0,0,1524,1024,1365,983,76,0,52,-6,0,0,0,98,4.14,4.145,4.15,4.149,4.15,4.149,0,32,9879.5351803183,57.4147,6,P-GPS,
14200,2023-10-11 01:21:38,38.498015792346,-112.064285519648,58.070868,,,9880.1913483183,25.918636,20.0877212,80.210632488,84.926511904,21,5,24.883,9880.1913483183,58.070868,20.0877212,80.210632488,-14.54011,13.869028,-4.250186,136, -14.1, -6.8,0,0,1526,1024,1364,984,76,0,52,-6,0,0,0,98,4.14,4.145,4.15,4.149,4.15,4.149,0,32,9880.1913483183,58.070868,6,P-GPS,
14300,2023-10-11 01:21:38,38.4980098799466,-112.064278254564,58.727036,,,9880.8475163183,25.918636,20.4008928,83.191603712,87.919294152,21,5,24.883,9880.8475163183,58.727036,20.4008928,83.191603712,-14.54011,14.316416,-4.250186,135.6, -14, -4.8,0,0,1526,1024,1364,992,76,0,52,-5,0,0,0,98,4.14,4.145,4.15,4.149,4.15,4.149,0,32,9880.8475163183,58.727036,6,P-GPS,
14400,2023-10-11 01:21:38,38.4980044790673,-112.064271274569,59.383204,,,9881.5036843183,25.918636,20.7140644,85.977364956,90.722115764,21,5,24.883,9881.5036843183,59.383204,20.7140644,85.977364956,-14.763804,14.54011,-4.250186,135.2, -13.9, -2.7,0,0,1522,1024,1365,1000,75,0,52,-4,0,0,0,98,4.14,4.145,4.15,4.149,4.15,4.149,0,32,9881.5036843183,59.383204,6,P-GPS,
14500,2023-10-11 01:21:38,38.4979985174648,-112.064263683235,60.039372,,,9882.1598523183,25.918636,21.027236,89.033139332,93.79265392,21,5,24.883,9882.1598523183,60.039372,21.027236,89.033139332,-14.763804,14.987498,-4.250186,134.7, -13.4, -1.3,0,0,1518,1024,1371,1014,75,0,53,-2,0,0,0,98,4.14,4.145,4.15,4.149,4.15,4.149,0,32,9882.1598523183,60.039372,6,P-GPS,
14600,2023-10-11 01:21:38,38.4979918736815,-112.064255191384,60.69554,,,9882.8160203183,25.918636,21.362777,92.445212932,97.221459804,21,5,24.883,9882.8160203183,60.69554,21.362777,92.445212932,-14.987498,15.211192,-4.250186,134.4, -12.8, -0.7,0,0,1518,1024,1370,1024,75,0,52,0,0,0,0,98,4.14,4.145,4.15,4.149,4.15,4.149,0,32,9882.8160203183,60.69554,6,P-GPS,
14700,2023-10-11 01:21:38,38.4979857036211,-112.064247270169,61.023624,,,9883.1441043183,25.918636,21.6759486,95.62172222,100.412404788,21,5,24.883,9883.1441043183,61.023624,21.6759486,95.62172222,-15.211192,15.434886,-4.250186,134.2, -12.4, -0.8,0,0,1518,1024,1374,1024,75,0,53,0,0,0,0,98,4.14,4.145,4.15,4.149,4.15,4.149,0,32,9883.1441043183,61.023624,6,P-GPS,
14800,2023-10-11 01:21:39,38.4979793947543,-112.06423938819,61.679792,,,9883.8002723183,25.918636,21.9891202,98.830711824,103.63189308,21,5,24.883,9883.8002723183,61.679792,21.9891202,98.830711824,-15.434886,15.65858,-4.250186,134.1, -11.5, -0.4,0,0,1515,1024,1376,1024,74,0,53,0,0,0,0,98,4.14,4.145,4.15,4.149,4.15,4.149,0,32,9883.8002723183,61.679792,6,P-GPS,
14900,2023-10-11 01:21:39,38.4979731052913,-112.064231247097,62.33596,,,9884.4564403183,25.918636,22.145706,102.082680432,106.898297384,21,5,24.883,9884.4564403183,62.33596,22.145706,102.082680432,-15.434886,15.882274,-4.250186,134.1, -10.9, 0.4,0,0,1510,1024,1380,1024,74,0,54,0,0,0,0,98,4.14,4.145,4.15,4.149,4.15,4.149,0,32,9884.4564403183,62.33596,6,P-GPS,
15000,2023-10-11 01:21:39,38.4979668741252,-112.064223076834,62.992128,,,9885.1126083183,25.918636,22.145706,105.324478436,110.15584342,21,5,24.883,9885.1126083183,62.992128,22.145706,105.324478436,-15.434886,15.882274,-4.250186,134.1, -10.8, 1,0,0,1511,1024,1379,1024,74,0,54,0,0,0,0,98,4.14,4.145,4.15,4.149,4.15,4.149,0,32,9885.1126083183,62.992128,6,P-GPS,
15100,2023-10-11 01:21:39,38.4979604946307,-112.064214797924,63.648296,,,9885.7687763183,25.918636,22.4588776,108.6286124,113.473100744,22,5,24.883,9885.7687763183,63.648296,22.4588776,108.6286124,-15.65858,16.105968,-4.250186,134.1, -10.3, 1.5,0,0,1510,1024,1379,1024,74,0,54,0,0,0,0,98,4.14,4.145,4.15,4.149,4.15,4.149,0,32,9885.7687763183,63.648296,6,P-GPS,
15200,2023-10-11 01:21:39,38.4979540099139,-112.064206463388,64.304464,,,9886.4249443183,25.918636,22.6154634,111.973100696,116.82907198,22,5,24.883,9886.4249443183,64.304464,22.6154634,111.973100696,-15.882274,16.105968,-4.250186,134.1, -10.2, 1.8,0,0,1510,1024,1381,1024,74,0,54,0,0,0,0,98,4.14,4.145,4.15,4.149,4.15,4.149,0,32,9886.4249443183,64.304464,6,P-GPS,
15300,2023-10-11 01:21:39,38.4979475471698,-112.064198070556,64.960632,,,9887.0811123183,25.918636,22.7720492,115.322838336,120.190948728,22,5,24.883,9887.0811123183,64.960632,22.7720492,115.322838336,-15.882274,16.329662,-4.250186,134, -10.4, 1.9,0,0,1509,1024,1382,1024,73,0,54,0,0,0,0,98,4.14,4.145,4.15,4.149,4.15,4.149,0,32,9887.0811123183,64.960632,6,P-GPS,
15400,2023-10-11 01:21:39,38.4979409666843,-112.064189679979,65.6168,,,9887.7372803183,25.918636,23.0852208,118.705384376,123.58268112,22,5,24.883,9887.7372803183,65.6168,23.0852208,118.705384376,-16.105968,16.553356,-4.250186,133.9, -10.4, 1.6,0,0,1506,1024,1382,1024,73,0,54,0,0,0,0,98,4.14,4.145,4.15,4.149,4.15,4.149,0,32,9887.7372803183,65.6168,6,P-GPS,
15500,2023-10-11 01:21:39,38.4979343921586,-112.064181142918,66.272968,,,9888.3934483183,25.918636,23.0852208,122.11450522,127.00295682,22,5,24.883,9888.3934483183,66.272968,23.0852208,122.11450522,-16.329662,16.553356,-4.250186,134.2, -9.7, 0.8,0,0,1504,1024,1382,1024,73,0,54,0,0,0,0,98,4.14,4.145,4.15,4.149,4.15,4.149,0,32,9888.3934483183,66.272968,6,P-GPS,
15600,2023-10-11 01:21:39,38.4979284038567,-112.064173103733,66.929136,,,9889.0496163183,25.918636,23.4207618,125.269360964,130.171920176,22,5,24.884,9889.0496163183,66.929136,23.4207618,125.269360964,-16.329662,16.77705,-4.47388,134.3, -8.6, 0.2,0,0,1503,1024,1389,1024,73,0,55,0,0,0,0,98,4.14,4.144,4.152,4.148,4.149,4.151,0,32,9889.0496163183,66.929136,6,P-GPS,
15700,2023-10-11 01:21:39,38.4979218150993,-112.064164479732,67.585304,,,9889.7057843183,25.918636,23.4207618,128.699479184,133.613193252,22,5,24.884,9889.7057843183,67.585304,23.4207618,128.699479184,-16.329662,16.77705,-4.697574,134.2, -8.4, 0.4,0,0,1500,1024,1422,1024,72,0,60,0,0,0,0,98,4.14,4.144,4.152,4.148,4.149,4.151,0,32,9889.7057843183,67.585304,6,P-GPS,
15800,2023-10-11 01:21:40,38.497915120623,-112.064155648765,68.241472,,,9890.3619523183,25.918636,23.5773476,132.198495044,137.123692052,22,5,24.884,9890.3619523183,68.241472,23.5773476,132.198495044,-16.329662,17.000744,-4.697574,134.2, -8.7, 0.8,0,0,1501,1024,1441,1024,72,0,63,0,0,0,0,98,4.14,4.144,4.152,4.148,4.149,4.151,0,32,9890.3619523183,68.241472,6,P-GPS,
15900,2023-10-11 01:21:40,38.4979084534626,-112.064146936883,68.89764,,,9891.0181203183,25.918636,23.7339334,135.667983344,140.603022872,22,5,24.884,9891.0181203183,68.89764,23.7339334,135.667983344,-16.553356,17.000744,-4.921268,134.2, -9, 0.7,0,0,1500,1024,1455,1024,72,0,65,0,0,0,0,98,4.14,4.144,4.152,4.148,4.149,4.151,0,32,9891.0181203183,68.89764,6,P-GPS,
16000,2023-10-11 01:21:40,38.4979009617529,-112.064137332493,69.553808,,,9891.6742883183,25.918636,23.7339334,139.532156696,144.47507024,22,5,24.884,9891.6742883183,69.553808,23.7339334,139.532156696,-16.553356,17.000744,-5.144962,134.2, -9.1, 0.8,0,0,1500,1024,1471,1024,72,0,68,0,0,0,0,98,4.14,4.144,4.152,4.148,4.149,4.151,0,32,9891.6742883183,69.553808,6,P-GPS,
16100,2023-10-11 01:21:40,38.4978941384033,-112.064128467367,70.53806,,,9892.6585403183,25.918636,23.7339334,143.074479644,148.025595288,22,5,24.884,9892.6585403183,70.53806,23.7339334,143.074479644,-16.77705,17.224438,-5.368656,134.4, -8.2, 1.2,0,0,1501,1024,1490,1024,72,0,71,0,0,0,0,98,4.14,4.144,4.152,4.148,4.149,4.151,0,32,9892.6585403183,70.53806,6,P-GPS,
16200,2023-10-11 01:21:40,38.4978874413067,-112.064119727716,71.194228,,,9893.3147083183,25.918636,24.047105,146.558731724,151.518049468,22,5,24.884,9893.3147083183,71.194228,24.047105,146.558731724,-16.77705,17.224438,-5.816044,134.7, -7.7, 1.6,0,0,1499,1024,1519,1024,72,0,75,0,0,0,0,98,4.14,4.144,4.152,4.148,4.149,4.151,0,32,9893.3147083183,71.194228,6,P-GPS,
16300,2023-10-11 01:21:40,38.4978805138308,-112.064110868214,72.17848,,,9894.2989603183,25.918636,24.2036908,150.128941812,155.094165068,22,5,24.884,9894.2989603183,72.17848,24.2036908,150.128941812,-17.000744,17.224438,-6.039738,134.8, -7.8, 1.4,0,0,1499,1024,1534,1024,72,0,77,0,0,0,0,98,4.14,4.144,4.152,4.148,4.149,4.151,0,32,9894.2989603183,72.17848,6,P-GPS,
16400,2023-10-11 01:21:40,38.4978734292751,-112.064102099437,72.834648,,,9894.9551283183,25.918636,24.2036908,153.724742452,158.69259038,22,5,24.884,9894.9551283183,72.834648,24.2036908,153.724742452,-17.224438,17.000744,-6.487126,134.9, -8.3, 0.1,0,0,1500,1024,1537,1024,72,0,78,0,0,0,0,98,4.14,4.144,4.152,4.148,4.149,4.151,0,32,9894.9551283183,72.834648,6,P-GPS,
16500,2023-10-11 01:21:40,38.497866380136,-112.064093253742,73.8189,,,9895.9393803183,25.918636,24.5168624,157.325792436,162.297577372,22,5,24.702,9895.9393803183,73.8189,24.5168624,157.325792436,-17.448132,17.224438,-6.71082,134.9, -8.6, -1.1,0,0,1500,1024,1541,1024,72,0,78,0,0,0,0,98,4.108,4.11,4.118,4.119,4.115,4.132,0,32,9895.9393803183,73.8189,6,P-GPS,
16600,2023-10-11 01:21:40,38.4978594516326,-112.064084505098,75.131236,,,9897.2517163183,25.918636,24.5168624,160.875661316,165.85138326,22,5,24.702,9897.2517163183,75.131236,24.5168624,160.875661316,-17.448132,17.224438,-7.158208,134.8, -8.3, -1.9,0,0,1498,1024,1547,1024,72,0,79,0,0,0,0,98,4.108,4.11,4.118,4.119,4.115,4.132,0,32,9897.2517163183,75.131236,6,P-GPS,
16700,2023-10-11 01:21:40,38.4978523498824,-112.064075599861,76.115488,,,9898.2359683183,25.918636,24.5168624,164.502629936,169.481960804,22,5,24.702,9898.2359683183,76.115488,24.5168624,164.502629936,-17.448132,17.224438,-7.381902,134.8, -8.1, -2.2,0,0,1498,1024,1592,1024,72,0,86,0,0,0,0,98,4.108,4.11,4.118,4.119,4.115,4.132,0,32,9898.2359683183,76.115488,6,P-GPS,
16800,2023-10-11 01:21:41,38.4978452690259,-112.064066802352,77.09974,,,9899.2202203183,25.918636,24.6734482,168.10367992,173.085307376,22,5,24.702,9899.2202203183,77.09974,24.6734482,168.10367992,-17.671826,17.224438,-7.605596,134.7, -8.2, -2.2,0,0,1498,1024,1610,1024,72,0,89,0,0,0,0,98,4.108,4.11,4.118,4.119,4.115,4.132,0,32,9899.2202203183,77.09974,6,P-GPS,
16900,2023-10-11 01:21:41,38.4978381485398,-112.064057860636,78.412076,,,9900.5325563183,25.918636,24.5168624,171.742787648,176.727695944,22,5,24.702,9900.5325563183,78.412076,24.6734482,171.742787648,-17.448132,17.224438,-7.82929,134.5, -8.2, -2.4,0,0,1498,1024,1615,1024,72,0,90,0,0,0,0,98,4.108,4.11,4.118,4.119,4.115,4.132,0,32,9900.5325563183,78.412076,6,P-GPS,
17000,2023-10-11 01:21:41,38.497831012195,-112.064049016036,79.396328,,,9901.5168083183,25.918636,24.6734482,175.368115848,180.354992648,22,5,24.702,9901.5168083183,79.396328,24.6734482,175.368115848,-17.448132,17.448132,-8.276678,134.4, -8.3, -2.1,0,0,1497,1024,1630,1024,72,0,92,0,0,0,0,98,4.108,4.11,4.118,4.119,4.115,4.132,0,32,9901.5168083183,79.396328,6,P-GPS,
17100,2023-10-11 01:21:41,38.4978239380519,-112.064040056026,80.708664,,,9902.8291443183,25.918636,24.6734482,178.998693392,183.989179116,22,5,24.702,9902.8291443183,80.708664,24.6734482,178.998693392,-17.448132,17.448132,-8.724066,134, -8.7, -1.8,0,0,1494,1024,1648,1024,71,0,95,0,0,0,0,98,4.108,4.11,4.118,4.119,4.115,4.132,0,32,9902.8291443183,80.708664,6,P-GPS,
