time(millisecond),datetime(utc),latitude,longitude,height_above_takeoff(feet),height_above_ground_at_drone_location(feet),ground_elevation_at_drone_location(feet),altitude_above_seaLevel(feet),height_sonar(feet),speed(mph),distance(feet),mileage(feet),satellites,gpslevel,voltage(v),max_altitude(feet),max_ascent(feet),max_speed(mph),max_distance(feet), xSpeed(mph), ySpeed(mph), zSpeed(mph), compass_heading(degrees), pitch(degrees), roll(degrees),isPhoto,isVideo,rc_elevator,rc_aileron,rc_throttle,rc_rudder,rc_elevator(percent),rc_aileron(percent),rc_throttle(percent),rc_rudder(percent),gimbal_heading(degrees),gimbal_pitch(degrees),gimbal_roll(degrees),battery_percent,voltageCell1,voltageCell2,voltageCell3,voltageCell4,voltageCell5,voltageCell6,current(A),battery_temperature(f),altitude(feet),ascent(feet),flycStateRaw,flycState,message
0,2023-10-08 19:39:18,38.4982399476723,-112.064398515894,0,Available with any HD 360 subscription,Available with any HD 360 subscription,9821.3763638247,0.656168,0,0,0,23,5,0,9821.3763638247,0,0,0,0,0,0,54.8, -6, 2.7,0,0,364,364,364,1684,-100,-100,-100,100,0,0,0,100,,,,,,,0,32,9821.3763638247,0,41,Motors_Started,
100,2023-10-08 19:39:18,38.4982399633048,-112.06439847451,0,,,9821.3763638247,0.656168,0,0.0131214571128,0.0131214571128,23,5,0,9821.3763638247,0,0,0.0131214571128,0,0,0,54.9, -6, 2.7,0,0,364,364,364,1684,-100,-100,-100,100,0,0,0,100,,,,,,,0,32,9821.3763638247,0,41,Motors_Started,
200,2023-10-08 19:39:18,38.4982399575157,-112.064398488621,0,,,9821.3763638247,0.656168,0,0.0085760173348,0.0176707354736,23,5,0,9821.3763638247,0,0,0.0131214571128,0,0,0,54.9, -6, 2.7,0,0,364,364,364,1684,-100,-100,-100,100,0,0,0,100,,,,,,,0,32,9821.3763638247,0,41,Motors_Started,
300,2023-10-08 19:39:18,38.498239819483,-112.064398452474,0,,,9821.3763638247,0.656168,0,0.050153216828,0.069078742368,23,5,0,9821.3763638247,0,0,0.050153216828,0,0,0,54.9, -6, 2.7,0,0,364,364,364,1684,-100,-100,-100,100,0,0,0,100,,,,,,,0,32,9821.3763638247,0,41,Motors_Started,
400,2023-10-08 19:39:18,38.4982398011585,-112.06439846129,0,,,9821.3763638247,0.656168,0,0.055683072648,0.076222771468,23,5,0,9821.3763638247,0,0,0.055683072648,0,0,0,54.9, -6, 2.7,0,0,364,364,364,1684,-100,-100,-100,100,0,0,0,100,,,,,,,0,32,9821.3763638247,0,41,Motors_Started,
500,2023-10-08 19:39:18,38.498239831567,-112.064398589017,0,,,9821.3763638247,0.656168,0,0.047227035632,0.114344163764,23,5,0,9821.3763638247,0,0,0.055683072648,0,0,0,54.9, -6, 2.7,0,0,364,364,364,1684,-100,-100,-100,100,0,0,0,100,,,,,,,0,32,9821.3763638247,0,41,Motors_Started,
600,2023-10-08 19:39:18,38.4982398174009,-112.064398606442,0,,,9821.3763638247,0.656168,0,0.054106629028,0.121518376592,23,5,0,9821.3763638247,0,0,0.055683072648,0,0,0,54.8, -6, 2.7,0,0,490,590,655,1024,-81,-66,-56,0,0,0,0,100,,,,,,,0,32,9821.3763638247,0,41,Motors_Started,
700,2023-10-08 19:39:18,38.4982398445178,-112.064398573207,0,,,9821.3763638247,0.656168,0,0.04104002756,0.135227694616,23,5,0,9821.3763638247,0,0,0.055683072648,0,0,0,54.8, -6, 2.7,0,0,1024,1024,1024,1024,0,0,0,0,0,0,0,100,,,,,,,0,32,9821.3763638247,0,41,Motors_Started,
800,2023-10-08 19:39:19,38.4982398348805,-112.064398585251,0,,,9821.3763638247,0.656168,0,0.0456692928,0.14014600186,23,5,0,9821.3763638247,0,0,0.055683072648,0,0,0,54.9, -6, 2.6,0,0,1024,1024,1024,1024,0,0,0,0,0,0,0,100,,,,,,,0,32,9821.3763638247,0,41,Motors_Started,
900,2023-10-08 19:39:19,38.4982398543624,-112.064398710677,0,,,9821.3763638247,0.656168,0,0.065210632008,0.176658798304,23,5,0,9821.3763638247,0,0,0.065210632008,0,0,0,55.2, -6, 2.6,0,0,1024,1024,1024,1024,0,0,0,0,0,0,0,100,,,,,,,0,32,9821.3763638247,0,41,Motors_Started,"Setting new Return-To-Home altitude to 61m (200 ft). Data Recorder File Index is 29. Setting new Maximum Flight Altitude to 500m (1640 ft)"
1000,2023-10-08 19:39:19,38.4982398451398,-112.064398740899,0,,,9821.3763638247,0.656168,0,0.07434547482,0.185921265792,23,5,0,9821.3763638247,0,0,0.07434547482,0,0,0,54.9, -6, 2.6,0,0,1024,1024,1024,1024,0,0,0,0,0,0,0,100,,,,,,,0,32,9821.3763638247,0,41,Motors_Started,
1100,2023-10-08 19:39:19,38.4982398709872,-112.06439870943,0,,,9821.3763638247,0.656168,0,0.061941274948,0.198947184844,23,5,0,9821.3763638247,0,0,0.07434547482,0,0,0,54.8, -6.1, 2.6,0,0,1024,1024,1024,1024,0,0,0,0,0,0,0,100,,,,,,,0,32,9821.3763638247,0,41,Motors_Started,
1200,2023-10-08 19:39:19,38.4982398678694,-112.06439872932,0,,,9821.3763638247,0.656168,0,0.067540028408,0.204739507864,23,5,0,9821.3763638247,0,0,0.07434547482,0,0,0,54.7, -6.1, 2.7,0,0,1024,1024,1024,1024,0,0,0,0,0,0,0,100,,,,,,,0,32,9821.3763638247,0,41,Motors_Started,
1300,2023-10-08 19:39:19,38.4982398791563,-112.064398691902,0,,,9821.3763638247,0.656168,0,0.056131235392,0.216189967548,23,5,0,9821.3763638247,0,0,0.07434547482,0,0,0,54.7, -6, 2.7,0,0,1024,1024,1024,1024,0,0,0,0,0,0,0,100,,,,,,,0,32,9821.3763638247,0,41,Motors_Started,
1400,2023-10-08 19:39:19,38.4982398798176,-112.064398708379,0,,,9821.3763638247,0.656168,0,0.060280841824,0.220901253788,23,5,0,9821.3763638247,0,0,0.07434547482,0,0,0,54.7, -6.1, 2.6,0,0,1024,1024,1024,1024,0,0,0,0,0,0,0,100,,,,,,,0,32,9821.3763638247,0,41,Motors_Started,
1500,2023-10-08 19:39:19,38.4982398922667,-112.064398855084,0,,,9821.3763638247,0.656168,0,0.098939635712,0.263037081908,23,5,0,9821.3763638247,0,0,0.098939635712,0,0,0,54.7, -6, 2.6,0,0,1024,1024,1024,1024,0,0,0,0,0,0,0,100,,,,,,,0,32,9821.3763638247,0,41,Motors_Started,
1600,2023-10-08 19:39:19,38.4982398945205,-112.064398885547,0,,,9821.3763638247,0.656168,0,0.107317588736,0.271773958828,23,5,0,9821.3763638247,0,0,0.107317588736,0,0,0,54.7, -6.1, 2.6,0,0,1024,1024,1024,1024,0,0,0,0,0,0,0,100,,,,,,,0,32,9821.3763638247,0,41,Motors_Started,
1700,2023-10-08 19:39:19,38.498239743061,-112.064398814948,0,,,9821.3763638247,0.656168,0,0.113422903892,0.33059712344,23,5,0,9821.3763638247,0,0,0.113422903892,0,0,0,54.6, -6.1, 2.6,0,0,1024,1024,1024,1024,0,0,0,0,0,0,0,100,,,,,,,0,32,9821.3763638247,0,41,Motors_Started,
1800,2023-10-08 19:39:20,38.4982397323359,-112.064398838545,0,,,9821.3763638247,0.656168,0,0.121080384452,0.33838911844,23,5,0,9821.3763638247,0,0,0.121080384452,0,0,0,54.7, -6.1, 2.6,0,0,1024,1024,1024,1024,0,0,0,0,0,0,0,100,,,,,,,0,32,9821.3763638247,0,41,Motors_Started,
1900,2023-10-08 19:39:20,38.4982397581461,-112.064398792737,0,,,9821.3763638247,0.656168,0,0.105025593912,0.35450460452,23,5,0,9821.3763638247,0,0,0.121080384452,0,0,0,54.6, -6, 2.6,0,0,1024,1024,1024,1024,0,0,0,0,0,0,0,100,,,,,,,0,32,9821.3763638247,0,41,Motors_Started,
2000,2023-10-08 19:39:20,38.4982397507376,-112.06439881417,0,,,9821.3763638247,0.656168,0,0.111429793592,0.36119423728,23,5,0,9821.3763638247,0,0,0.121080384452,0,0,0,54.6, -6, 2.6,0,0,1024,1024,1024,1024,0,0,0,0,0,0,0,100,,,,,,,0,32,9821.3763638247,0,10,Assisted_Takeoff,
2100,2023-10-08 19:39:20,38.4982397663032,-112.064398937143,0,,,9821.3763638247,0.656168,0,0.137284453212,0.39676510456,23,5,0,9821.3763638247,0,0,0.137284453212,0,0,0,54.6, -6, 2.6,0,0,1024,1024,1024,1024,0,0,0,0,0,0,0,100,,,,,,,0,32,9821.3763638247,0,10,Assisted_Takeoff,
2200,2023-10-08 19:39:20,38.498239761957,-112.064398967854,0,,,9821.3763638247,0.656168,0,0.1457595191,0.405675866,23,5,0,9821.3763638247,0,0,0.1457595191,0,0,0,54.6, -6, 2.6,0,0,1024,1024,1024,1024,0,0,0,0,0,0,0,100,,,,,,,0,32,9821.3763638247,0,10,Assisted_Takeoff,
2300,2023-10-08 19:39:20,38.4982397770806,-112.064398920537,0,,,9821.3763638247,0.656168,0,0.131239505512,0.42027232316,23,5,0,9821.3763638247,0,0,0.1457595191,0,0,0,54.6, -6, 2.6,0,0,1024,1024,1024,1024,0,0,0,0,0,0,0,100,,,,,,,0,32,9821.3763638247,0,10,Assisted_Takeoff,
2400,2023-10-08 19:39:20,38.498239775347,-112.064398945093,0,,,9821.3763638247,0.656168,0,0.137740161888,0.4273130058,23,5,0,9821.3763638247,0,0,0.1457595191,0,0,0,54.6, -6, 2.6,0,0,1024,1024,1024,1024,0,0,0,0,0,0,0,100,,,,,,,0,32,9821.3763638247,0,10,Assisted_Takeoff,
2500,2023-10-08 19:39:20,38.4982397836178,-112.064399058566,0,,,9821.3763638247,0.656168,0,0.166113522376,0.45985237692,23,5,0,9821.3763638247,0,0,0.166113522376,0,0,0,54.6, -6, 2.6,0,0,1024,1024,1024,1024,0,0,0,0,0,0,0,100,,,,,,,0,32,9821.3763638247,0,10,Assisted_Takeoff,
2600,2023-10-08 19:39:20,38.4982397838659,-112.064399092246,0,,,9821.3763638247,0.656168,0,0.175087932112,0.4694717998,23,5,0,9821.3763638247,0,0,0.175087932112,0,0,0,54.6, -6, 2.6,0,0,1024,1024,1024,1024,0,0,0,0,0,0,0,100,,,,,,,0,32,9821.3763638247,0,10,Assisted_Takeoff,
2700,2023-10-08 19:39:20,38.4982397887004,-112.064399034417,0,,,9821.3763638247,0.656168,0,0.159014768868,0.48607613104,23,5,0,9821.3763638247,0,0,0.175087932112,0,0,0,54.6, -6, 2.6,0,0,1024,1024,1024,1024,0,0,0,0,0,0,0,100,,,,,,,0,32,9821.3763638247,0,10,Assisted_Takeoff,
2800,2023-10-08 19:39:21,38.4982397918577,-112.064399061619,0,,,9821.3763638247,0.656168,0,0.16587270872,0.493930462,23,5,0,9821.3763638247,0,0,0.175087932112,0,0,0,54.6, -6, 2.6,0,0,1024,1024,1043,1024,0,0,3,0,0,0,0,100,,,,,,,0,32,9821.3763638247,0,10,Assisted_Takeoff,
2900,2023-10-08 19:39:21,38.4982397955421,-112.064399167306,0,,,9821.3763638247,0.656168,0,0.194109586264,0.52413715588,23,5,0,9821.3763638247,0,0,0.194109586264,0,0,0,54.6, -6, 2.6,0,0,1024,1024,1068,1024,0,0,7,0,0,0,0,100,,,,,,,0,32,9821.3763638247,0,10,Assisted_Takeoff,
3000,2023-10-08 19:39:21,38.4982398010376,-112.064399206206,0,,,9821.3763638247,0.656168,0,0.20424377294,0.53542324548,23,5,0,9821.3763638247,0,0,0.20424377294,0,0,0,54.6, -6, 2.6,0,0,1024,1024,1101,1024,0,0,12,0,0,0,0,100,,,,,,,0,32,9821.3763638247,0,10,Assisted_Takeoff,
3100,2023-10-08 19:39:21,38.4982398062987,-112.064399144465,0,,,9821.3763638247,0.656168,0,0.186747381304,0.55315946652,23,5,0,9821.3763638247,0,0,0.20424377294,0,0,0,54.6, -5.9, 2.6,0,0,1024,1024,1132,1024,0,0,16,0,0,0,0,100,,,,,,,0,32,9821.3763638247,0,10,Assisted_Takeoff,
3200,2023-10-08 19:39:21,38.4982398145914,-112.06439917849,0,,,9821.3763638247,0.656168,0,0.195329402576,0.56333335136,23,5,0,9821.3763638247,0,0,0.20424377294,0,0,0,54.6, -5.9, 2.5,0,0,1024,1024,1155,1024,0,0,20,0,0,0,0,100,,,,,,,0,32,9821.3763638247,0,10,Assisted_Takeoff,
3300,2023-10-08 19:39:21,38.4982396582583,-112.0643991357,0,,,9821.3763638247,0.656168,0,0.206086620768,0.62166668656,23,5,0,9821.3763638247,0,0,0.206086620768,0,0,0,54.6, -5.7, 2.5,0,0,1024,1024,1170,1024,0,0,22,0,0,0,0,100,,,,,,,0,32,9821.3763638247,0,10,Assisted_Takeoff,
3400,2023-10-08 19:39:21,38.4982396486158,-112.064399171447,0,,,9821.3763638247,0.656168,0,0.216666017432,0.632463931,23,5,0,9821.3763638247,0,0,0.216666017432,0,0,0,54.6, -5.5, 2.5,0,0,1024,1024,1173,1024,0,0,23,0,0,0,0,100,,,,,,,0,32,9821.3763638247,0,10,Assisted_Takeoff,
3500,2023-10-08 19:39:21,38.4982396620221,-112.064399279431,0,,,9821.3763638247,0.656168,0,0.2416502702,0.6636811236,23,5,0,9821.3763638247,0,0,0.2416502702,0,0,0,54.6, -5.5, 2.5,0,0,1024,1024,1190,1024,0,0,25,0,0,0,0,100,,,,,,,0,32,9821.3763638247,0,10,Assisted_Takeoff,
3600,2023-10-08 19:39:21,38.4982396597233,-112.06439931665,0,,,9821.3763638247,0.656168,0,0.251629601228,0.6743438536,23,5,0,9821.3763638247,0,0,0.251629601228,0,0,0,54.6, -5.5, 2.5,0,0,1024,1024,1185,1024,0,0,24,0,0,0,0,100,,,,,,,0,32,9821.3763638247,0,10,Assisted_Takeoff,
3700,2023-10-08 19:39:22,38.4982396741646,-112.064399247863,0,,,9821.3763638247,0.656168,0,0.231606962792,0.69467849992,23,5,0,9821.3763638247,0,0,0.251629601228,0,0,0,54.6, -5.4, 2.5,0,0,1024,1024,1178,1024,0,0,23,0,0,0,0,100,,,,,,,0,32,9821.3763638247,0,10,Assisted_Takeoff,
3800,2023-10-08 19:39:22,38.4982396697214,-112.064399281661,0,,,9821.3763638247,0.656168,0,0.241029535272,0.70446524564,23,5,0,9821.3763638247,0,0,0.251629601228,0,0,0,54.6, -5.2, 2.5,0,0,1024,1024,1176,1024,0,0,23,0,0,0,0,100,,,,,,,0,32,9821.3763638247,0,10,Assisted_Takeoff,
3900,2023-10-08 19:39:22,38.4982396700873,-112.064399232745,0,,,9821.3763638247,0.656168,0,0.228375007308,0.71843178152,23,5,0,9821.3763638247,0,0,0.251629601228,0,0,0,54.7, -4.9, 2.4,0,0,1024,1024,1174,1024,0,0,23,0,0,0,0,100,,,,,,,0,32,9821.3763638247,0,10,Assisted_Takeoff,
4000,2023-10-08 19:39:22,38.4982396623965,-112.064399263479,0,,,9821.3763638247,0.656168,0,0.237489180828,0.72764766108,23,5,0,9821.3763638247,0,0,0.251629601228,0,0,0,54.8, -4.5, 2.3,0,0,1024,1024,1165,1024,0,0,21,0,0,0,0,100,,,,,,,0,32,9821.3763638247,0,10,Assisted_Takeoff,
4100,2023-10-08 19:39:22,38.4982396639326,-112.064399371129,0,,,9821.3763638247,0.656168,0,0.265240822136,0.75838913188,23,5,0,9821.3763638247,0,0,0.265240822136,0,0,0,55, -3.8, 2.2,0,0,1024,1024,1165,1024,0,0,21,0,0,0,0,100,,,,,,,0,32,9821.3763638247,0,10,Assisted_Takeoff,
4200,2023-10-08 19:39:22,38.498239650381,-112.064399406262,0,,,9821.3763638247,0.656168,0,0.276407817244,0.76957351544,23,5,0,9821.3763638247,0,0,0.276407817244,0,0,0,55.2, -2.4, 2.1,0,0,1024,1024,1165,1024,0,0,21,0,0,0,0,100,,,,,,,0,32,9821.3763638247,0,10,Assisted_Takeoff,
4300,2023-10-08 19:39:22,38.4982396399218,-112.064399309157,0,,,9821.3763638247,0.656168,0,0.25281168788,0.79756236148,23,5,0,9821.3763638247,0,0,0.276407817244,0,0,-0.223694,55.1, 0.2, 2,0,0,1024,1024,1164,1024,0,0,21,0,0,0,0,100,,,,,,,0,32,9821.3763638247,0,10,Assisted_Takeoff,
4400,2023-10-08 19:39:22,38.4982395748661,-112.064399338074,0,,,9821.3763638247,0.656168,0,0.271322843328,0.82269359588,23,5,0,9821.3763638247,0,0,0.276407817244,0,0,-0.447388,54.6, 4.2, 1.7,0,0,1024,1024,1164,1024,0,0,21,0,0,0,0,100,,,,,,,0,32,9821.3763638247,0,10,Assisted_Takeoff,
4500,2023-10-08 19:39:22,38.4982394407119,-112.064399420101,0,,,9821.3763638247,0.656168,0.223694,0.31760499704,0.87695540864,23,5,0,9821.3763638247,0,0.223694,0.31760499704,-0.223694,0,-0.447388,54.1, 6.7, 0.6,0,0,1024,1024,1162,1024,0,0,21,0,0,0,0,100,,,,,,,0,32,9821.3763638247,0,6,P-GPS,
4600,2023-10-08 19:39:22,38.4982392100229,-112.064399540858,0,,,9821.3763638247,0.984252,0.4921268,0.39760171876,0.96791013596,23,5,0,9821.3763638247,0,0.4921268,0.39760171876,-0.447388,-0.223694,-0.671082,53.6, 5.9, -1,0,0,1024,1024,1162,1024,0,0,21,0,0,0,0,100,,,,,,,0,32,9821.3763638247,0,6,P-GPS,
4700,2023-10-08 19:39:22,38.4982388508264,-112.064399708361,0.328084,,,9821.7044478247,0.984252,0.4921268,0.52543964936,1.10741801444,23,5,0,9821.7044478247,0.328084,0.4921268,0.52543964936,-0.671082,-0.223694,-0.671082,53.2, 2.7, -1.5,0,0,1024,1024,1164,1024,0,0,21,0,0,0,0,100,,,,,,,0,32,9821.7044478247,0.328084,6,P-GPS,
4800,2023-10-08 19:39:23,38.4982385517974,-112.064399934259,0.328084,,,9821.7044478247,0.984252,0.7158208,0.6506889972,1.23416014448,23,5,0,9821.7044478247,0.328084,0.7158208,0.6506889972,-0.671082,-0.223694,-0.894776,52.9, -0.6, -1.4,0,0,1024,1024,1170,1024,0,0,22,0,0,0,0,100,,,,,,,0,32,9821.7044478247,0.328084,6,P-GPS,
4900,2023-10-08 19:39:23,38.4982380580572,-112.064400189816,0.328084,,,9821.7044478247,1.312336,0.7158208,0.83890750716,1.42852038692,23,5,0,9821.7044478247,0.328084,0.7158208,0.83890750716,-0.671082,-0.223694,-0.894776,52.8, -2.7, -1,0,0,1024,1024,1173,1024,0,0,23,0,0,0,0,100,,,,,,,0,32,9821.7044478247,0.328084,6,P-GPS,
5000,2023-10-08 19:39:23,38.4982377680085,-112.064400349571,0.656168,,,9822.0325318247,1.64042,0.4921268,0.95213913808,1.54375661108,23,5,0,9822.0325318247,0.656168,0.7158208,0.95213913808,-0.447388,-0.223694,-0.894776,52.8, -3.2, -0.9,0,0,1024,1024,1196,1024,0,0,26,0,0,0,0,100,,,,,,,0,32,9822.0325318247,0.656168,6,P-GPS,"Home Point recorded. Return-to-Home Altitude:200.1 ft"
5100,2023-10-08 19:39:23,38.4982375567773,-112.064400400399,0.656168,,,9822.0325318247,1.64042,0.447388,1.024934416,1.6221785296,23,5,0,9822.0325318247,0.656168,0.7158208,1.024934416,-0.447388,0,-0.894776,52.9, -2.7, -1.4,0,0,1024,1024,1212,1024,0,0,28,0,0,0,0,100,,,,,,,0,32,9822.0325318247,0.656168,6,P-GPS,
5200,2023-10-08 19:39:23,38.4982373194279,-112.064400456789,0.984252,,,9822.3606158247,1.64042,0.447388,1.1075459672,1.71026252192,23,5,0,9822.3606158247,0.984252,0.7158208,1.1075459672,-0.447388,0,-0.894776,53, -2.1, -2,0,0,1024,1024,1212,1024,0,0,28,0,0,0,0,100,,,,,,,0,32,9822.3606158247,0.984252,6,P-GPS,
5300,2023-10-08 19:39:23,38.4982372534727,-112.064400499956,0.984252,,,9822.3606158247,1.968504,0.447388,1.13455056124,1.73729664352,22,5,0,9822.3606158247,0.984252,0.7158208,1.13455056124,-0.447388,0,-0.894776,53.1, -1.3, -2.4,0,0,1024,1024,1234,1024,0,0,32,0,0,0,0,100,,,,,,,0,32,9822.3606158247,0.984252,6,P-GPS,
5400,2023-10-08 19:39:23,38.4982370897176,-112.064400507324,1.312336,,,9822.6886998247,1.968504,0.223694,1.18769360756,1.79708011,22,5,0,9822.6886998247,1.312336,0.7158208,1.18769360756,-0.223694,0,-1.11847,53, -0.7, -2.4,0,0,1024,1024,1272,1024,0,0,38,0,0,0,0,100,,,,,,,0,32,9822.6886998247,1.312336,6,P-GPS,
5500,2023-10-08 19:39:23,38.4982371077626,-112.064400435508,1.312336,,,9822.6886998247,2.296588,0.223694,1.17219163856,1.8186188246,22,5,0,9822.6886998247,1.312336,0.7158208,1.18769360756,-0.223694,0,-1.11847,53, -0.7, -2.1,0,0,1024,1024,1289,1024,0,0,40,0,0,0,0,100,,,,,,,0,32,9822.6886998247,1.312336,6,P-GPS,
5600,2023-10-08 19:39:23,38.4982369919345,-112.06440041042,1.64042,,,9823.0167838247,2.296588,0.223694,1.20647641656,1.86147971836,22,5,0,9823.0167838247,1.64042,0.7158208,1.20647641656,-0.223694,0,-1.342164,53, -1, -2,0,0,1024,1024,1292,1024,0,0,41,0,0,0,0,100,,,,,,,0,32,9823.0167838247,1.64042,6,P-GPS,
5700,2023-10-08 19:39:23,38.4982365606898,-112.064400440333,1.64042,,,9823.0167838247,2.624672,0.223694,1.35240817976,2.01905190188,23,5,0,9823.0167838247,1.64042,0.7158208,1.35240817976,-0.223694,0,-1.565858,53.1, -1.2, -1.9,0,0,1024,1024,1287,1024,0,0,40,0,0,0,0,100,,,,,,,0,32,9823.0167838247,1.64042,6,P-GPS,
5800,2023-10-08 19:39:24,38.4982364543207,-112.064400378317,1.968504,,,9823.3448678247,2.952756,0,1.38104335128,2.06170938356,23,5,0,9823.3448678247,1.968504,0.7158208,1.38104335128,0,0,-1.789552,53.2, -1.3, -1.9,0,0,1024,1024,1282,1024,0,0,39,0,0,0,0,100,,,,,,,0,32,9823.3448678247,1.968504,6,P-GPS,
5900,2023-10-08 19:39:24,38.4982364002483,-112.064400163317,2.296588,,,9823.6729518247,3.28084,0,1.37710962412,2.12619429376,23,5,0,9823.6729518247,2.296588,0.7158208,1.38104335128,0,0,-2.23694,53.3, -1.2, -2,0,0,1024,1024,1278,1024,0,0,38,0,0,0,0,100,,,,,,,0,32,9823.6729518247,2.296588,6,P-GPS,
6000,2023-10-08 19:39:24,38.4982363338104,-112.064400052174,2.624672,,,9824.0010358247,3.608924,0,1.38957353528,2.16612867824,23,5,0,9824.0010358247,2.624672,0.7158208,1.38957353528,0,0,-2.23694,53.4, -0.9, -2,0,0,1024,1024,1279,1024,0,0,39,0,0,0,0,100,,,,,,,0,32,9824.0010358247,2.624672,6,P-GPS,
6100,2023-10-08 19:39:24,38.4982363510841,-112.064399889703,2.952756,,,9824.3291198247,3.937008,0,1.36959321968,2.21294626504,23,5,0,9824.3291198247,2.952756,0.7158208,1.38957353528,0,0,-2.460634,53.6, -0.7, -2.2,0,0,1024,1024,1287,1024,0,0,40,0,0,0,0,100,,,,,,,0,32,9824.3291198247,2.952756,6,P-GPS,
6200,2023-10-08 19:39:24,38.4982363147272,-112.064399759141,3.608924,,,9824.9852878247,4.265092,0,1.3721949258,2.25251647628,23,5,0,9824.9852878247,3.608924,0.7158208,1.38957353528,0,0,-2.684328,53.6, -0.6, -2.2,0,0,1024,1024,1297,1024,0,0,41,0,0,0,0,100,,,,,,,0,32,9824.9852878247,3.608924,6,P-GPS,
6300,2023-10-08 19:39:24,38.4982363793013,-112.06439973044,3.937008,,,9825.3133718247,4.593176,0,1.34731631608,2.2774607028,23,5,0,9825.3133718247,3.937008,0.7158208,1.38957353528,0,0,-2.684328,53.7, -0.7, -2.2,0,0,1024,1024,1307,1024,0,0,43,0,0,0,0,100,,,,,,,0,32,9825.3133718247,3.937008,6,P-GPS,
6400,2023-10-08 19:39:24,38.4982363728127,-112.064399605437,4.265092,,,9825.6414558247,5.249344,0,1.34087602716,2.31323170132,23,5,0,9825.6414558247,4.265092,0.7158208,1.38957353528,0,0,-2.908022,53.7, -0.7, -2.1,0,0,1024,1024,1315,1024,0,0,44,0,0,0,0,100,,,,,,,0,32,9825.6414558247,4.265092,6,P-GPS,
6500,2023-10-08 19:39:24,38.4982365072597,-112.064399508708,4.593176,,,9825.9695398247,5.577428,0,1.28684715404,2.36952763488,23,5,0,9825.9695398247,4.593176,0.7158208,1.38957353528,0,0,-2.908022,53.8, -0.5, -2.1,0,0,1024,1024,1319,1024,0,0,45,0,0,0,0,100,,,,,,,0,32,9825.9695398247,4.593176,6,P-GPS,
6600,2023-10-08 19:39:24,38.4982365310937,-112.064399385593,5.249344,,,9826.6257078247,5.905512,0,1.27103350524,2.4057415468,23,5,0,9826.6257078247,5.249344,0.7158208,1.38957353528,0,0,-3.131716,53.8, -0.4, -2.1,0,0,1024,1024,1319,1024,0,0,45,0,0,0,0,100,,,,,,,0,32,9826.6257078247,5.249344,6,P-GPS,
6700,2023-10-08 19:39:25,38.4982362800767,-112.064399469081,5.577428,,,9826.9537918247,6.56168,0,1.3655184164,2.5003773766,23,5,0,9826.9537918247,5.577428,0.7158208,1.38957353528,0,0,-3.131716,53.8, -0.4, -2.2,0,0,1024,1024,1313,1024,0,0,44,0,0,0,0,100,,,,,,,0,32,9826.9537918247,5.577428,6,P-GPS,
6800,2023-10-08 19:39:25,38.4982362905019,-112.064399377262,6.233596,,,9827.6099598247,6.889764,0,1.35679466284,2.52686687876,23,5,0,9827.6099598247,6.233596,0.7158208,1.38957353528,0,0,-3.35541,53.8, -0.5, -2.3,0,0,1024,1024,1313,1024,0,0,44,0,0,0,0,100,,,,,,,0,32,9827.6099598247,6.233596,6,P-GPS,
6900,2023-10-08 19:39:25,38.4982366333146,-112.064399289897,6.56168,,,9827.9380438247,7.217848,0,1.22927169288,2.65440625292,23,5,0,9827.9380438247,6.56168,0.7158208,1.38957353528,0,0,-3.35541,53.8, -0.7, -2.4,0,0,1024,1024,1320,1024,0,0,45,0,0,0,0,100,,,,,,,0,32,9827.9380438247,6.56168,6,P-GPS,
7000,2023-10-08 19:39:25,38.4982366922621,-112.064399208947,7.217848,,,9828.5942118247,7.874016,0,1.20410765008,2.68598105708,23,5,0,9828.5942118247,7.217848,0.7158208,1.38957353528,0,0,-3.35541,53.9, -0.7, -2.3,0,0,1024,1024,1346,1024,0,0,49,0,0,0,0,100,,,,,,,0,32,9828.5942118247,7.217848,6,P-GPS,
7100,2023-10-08 19:39:25,38.4982366714122,-112.064398980537,7.545932,,,9828.9222958247,8.2021,0,1.20268048468,2.75164378884,23,5,0,9828.9222958247,7.545932,0.7158208,1.38957353528,0,0,-3.35541,53.9, -0.6, -2.1,0,0,1024,1024,1351,1024,0,0,50,0,0,0,0,100,,,,,,,0,32,9828.9222958247,7.545932,6,P-GPS,
7200,2023-10-08 19:39:25,38.4982367410832,-112.064398888911,8.2021,,,9829.5784638247,8.530184,0,1.17476053628,2.78812016796,23,5,0,9829.5784638247,8.2021,0.7158208,1.38957353528,0,0,-3.35541,53.9, -0.2, -2.1,0,0,1024,1024,1350,1024,0,0,49,0,0,0,0,100,,,,,,,0,32,9829.5784638247,8.2021,6,P-GPS,
7300,2023-10-08 19:39:25,38.4982366990432,-112.064398803412,8.858268,,,9830.2346318247,9.186352,0,1.18810043172,2.81695218988,23,5,0,9830.2346318247,8.858268,0.7158208,1.38957353528,0,0,-3.579104,53.8, 0, -2,0,0,1024,1024,1353,1024,0,0,50,0,0,0,0,100,,,,,,,0,32,9830.2346318247,8.858268,6,P-GPS,
7400,2023-10-08 19:39:25,38.4982367603915,-112.064398731337,9.186352,,,9830.5627158247,9.514436,0,1.16450463044,2.847359015,23,5,0,9830.5627158247,9.186352,0.7158208,1.38957353528,0,0,-3.579104,53.8, 0.1, -2.1,0,0,1024,1024,1358,1024,0,0,51,0,0,0,0,100,,,,,,,0,32,9830.5627158247,9.186352,6,P-GPS,
7500,2023-10-08 19:39:25,38.4982366654783,-112.064398487039,9.84252,,,9831.2188838247,10.170604,0,1.19753612756,2.92523959492,23,5,0,9831.2188838247,9.84252,0.7158208,1.38957353528,0,0,-3.802798,53.9, 0, -2.2,0,0,1024,1024,1347,1024,0,0,49,0,0,0,0,100,,,,,,,0,32,9831.2188838247,9.84252,6,P-GPS,
7600,2023-10-08 19:39:25,38.4982367119005,-112.064398423809,10.498688,,,9831.8750518247,10.498688,0,1.18086289868,2.94999353272,23,5,0,9831.8750518247,10.498688,0.7158208,1.38957353528,0,0,-3.802798,53.9, 0, -2.3,0,0,1024,1024,1318,1136,0,0,45,17,0,0,0,100,,,,,,,0,32,9831.8750518247,10.498688,6,P-GPS,
7700,2023-10-08 19:39:25,38.4982367636465,-112.064398373674,11.154856,,,9832.5312198247,11.154856,0,1.16239833116,2.9736877592,23,5,0,9832.5312198247,11.154856,0.7158208,1.38957353528,0,0,-4.026492,54, -0.2, -2.3,0,0,1024,1024,1311,1165,0,0,43,21,0,0,0,100,,,,,,,0,32,9832.5312198247,11.154856,6,P-GPS,
7800,2023-10-08 19:39:26,38.4982368198874,-112.064398333702,11.48294,,,9832.8593038247,11.48294,0,1.1423556796,2.99716873108,23,5,0,9832.8593038247,11.48294,0.7158208,1.38957353528,0,0,-3.802798,54.1, -0.5, -2.1,0,0,1024,1024,1307,1181,0,0,43,24,0,0,0,100,,,,,,,0,32,9832.8593038247,11.48294,6,P-GPS,
7900,2023-10-08 19:39:26,38.4982368951633,-112.064398374952,12.139108,,,9833.5154718247,11.811024,0,1.11443245036,3.0270506218,23,5,0,9833.5154718247,12.139108,0.7158208,1.38957353528,0,0,-3.802798,54.5, -0.8, -1.9,0,0,1024,1024,1303,1191,0,0,42,25,0,0,0,100,,,,,,,0,32,9833.5154718247,12.139108,6,P-GPS,
8000,2023-10-08 19:39:26,38.498236963906,-112.064398339936,12.795276,,,9834.1716398247,12.467192,0,1.08978349944,3.054051935,23,5,0,9834.1716398247,12.795276,0.7158208,1.38957353528,0,0,-3.579104,55.2, -0.8, -2,0,0,1024,1024,1297,1215,0,0,41,29,0,0,0,100,,,,,,,0,32,9834.1716398247,12.795276,6,P-GPS,
8100,2023-10-08 19:39:26,38.4982371822729,-112.0643982733,13.12336,,,9834.4997238247,12.795276,0,1.01132877252,3.13596138644,23,5,0,9834.4997238247,13.12336,0.7158208,1.38957353528,0,0,-3.579104,56.2, -0.5, -2.2,0,0,1024,1024,1297,1229,0,0,41,31,0,0,0,100,,,,,,,0,32,9834.4997238247,13.12336,6,P-GPS,
8200,2023-10-08 19:39:26,38.4982372730093,-112.064398226452,13.779528,,,9835.1558918247,13.12336,0,0.97934386336,3.171670049,23,5,0,9835.1558918247,13.779528,0.7158208,1.38957353528,0,0,-3.35541,57.4, -0.2, -2.4,0,0,1024,1024,1292,1305,0,0,41,43,0,0,0,100,,,,,,,0,32,9835.1558918247,13.779528,6,P-GPS,
8300,2023-10-08 19:39:26,38.4982372858315,-112.064398190043,14.107612,,,9835.4839758247,13.451444,0,0.97561682912,3.18306768716,23,5,0,9835.4839758247,14.107612,0.7158208,1.38957353528,0,0,-3.131716,58.8, 0.1, -2.3,0,0,1024,1024,1293,1311,0,0,41,43,0,0,0,100,,,,,,,0,32,9835.4839758247,14.107612,6,P-GPS,
8400,2023-10-08 19:39:26,38.4982373756939,-112.064398165638,14.76378,,,9836.1401438247,13.779528,0.223694,0.9437008176,3.21658802944,23,5,0,9836.1401438247,14.76378,0.7158208,1.38957353528,0.223694,0,-3.131716,60.6, 0.3, -2,0,0,1024,1024,1297,1312,0,0,41,44,0,0,0,100,,,,,,,0,32,9836.1401438247,14.76378,6,P-GPS,
8500,2023-10-08 19:39:26,38.4982373429075,-112.064398035266,15.091864,,,9836.4682278247,14.107612,0,0.9602034428,3.25568908056,23,5,0,9836.4682278247,15.091864,0.7158208,1.38957353528,0,0,-3.131716,62.9, 0.3, -1.8,0,0,1024,1024,1315,1328,0,0,44,46,0,0,0,100,,,,,,,0,32,9836.4682278247,15.091864,6,P-GPS,
8600,2023-10-08 19:39:26,38.4982374157371,-112.064398022851,15.748032,,,9837.1243958247,14.76378,0,0.93444228712,3.28248042,23,5,0,9837.1243958247,15.748032,0.7158208,1.38957353528,0,0,-2.908022,65.4, 0.2, -1.7,0,0,1024,1024,1326,1339,0,0,46,48,0,0,0,100,,,,,,,0,32,9837.1243958247,15.748032,6,P-GPS,
8700,2023-10-08 19:39:26,38.4982376393756,-112.064398087217,16.076116,,,9837.4524798247,15.091864,0,0.85103021096,3.36614184,23,5,0,9837.4524798247,16.076116,0.7158208,1.38957353528,0,0,-2.908022,68, 0.4, -1.6,0,0,1024,1024,1334,1349,0,0,47,49,0,0,0,100,,,,,,,0,32,9837.4524798247,16.076116,6,P-GPS,
8800,2023-10-08 19:39:27,38.4982377221895,-112.064398102039,16.732284,,,9838.1086478247,15.419948,0,0.8205216798,3.396653652,23,5,0,9838.1086478247,16.732284,0.7158208,1.38957353528,0,0,-3.131716,70.9, 0.6, -1.4,0,0,1024,1024,1339,1349,0,0,48,49,0,0,0,100,,,,,,,0,32,9838.1086478247,16.732284,6,P-GPS,
8900,2023-10-08 19:39:27,38.4982377254807,-112.06439853772,17.060368,,,9838.4367318247,15.748032,0,0.81079070836,3.5210631048,23,5,0,9838.4367318247,17.060368,0.7158208,1.38957353528,0,0,-3.131716,73.8, 0.5, -1.2,0,0,1024,1024,1339,1350,0,0,48,49,0,0,0,100,,,,,,,0,32,9838.4367318247,17.060368,6,P-GPS,
9000,2023-10-08 19:39:27,38.4982377892038,-112.06439861667,17.716536,,,9839.0928998247,16.076116,0,0.7880413638,3.5534449956,23,5,0,9839.0928998247,17.716536,0.7158208,1.38957353528,0,0,-3.35541,76.9, 0.2, -1.1,0,0,1024,1024,1339,1349,0,0,48,49,0,0,0,100,,,,,,,0,32,9839.0928998247,17.716536,6,P-GPS,
9100,2023-10-08 19:39:27,38.4982377151538,-112.064398662361,18.04462,,,9839.4209838247,16.732284,0,0.81560698148,3.5834318732,23,5,0,9839.4209838247,18.04462,0.7158208,1.38957353528,0,0,-3.35541,80, -0.2, -1.2,0,0,1024,1024,1339,1348,0,0,48,49,0,0,0,100,,,,,,,0,32,9839.4209838247,18.04462,6,P-GPS,
9200,2023-10-08 19:39:27,38.4982377580172,-112.064398738566,18.700788,,,9840.0771518247,17.060368,0,0.80142062932,3.610236336,23,5,0,9840.0771518247,18.700788,0.7158208,1.38957353528,0,0,-3.579104,83.2, -0.4, -1.4,0,0,1024,1024,1346,1343,0,0,49,48,0,0,0,100,,,,,,,0,32,9840.0771518247,18.700788,6,P-GPS,
9300,2023-10-08 19:39:27,38.4982378021467,-112.06439878849,19.028872,,,9840.4052358247,17.716536,0,0.78665356848,3.6317586464,23,5,0,9840.4052358247,19.028872,0.7158208,1.38957353528,0,0,-3.579104,86.4, -0.3, -1.4,0,0,1024,1024,1360,1325,0,0,51,46,0,0,0,100,,,,,,,0,32,9840.4052358247,19.028872,6,P-GPS,
9400,2023-10-08 19:39:27,38.4982378471396,-112.064398844055,19.68504,,,9841.0614038247,18.04462,0,0.77208663888,3.6545604844,23,5,0,9841.0614038247,19.68504,0.7158208,1.38957353528,0,0,-3.579104,89.5, 0, -1.2,0,0,1024,1024,1360,1324,0,0,51,45,0,0,0,100,,,,,,,0,32,9841.0614038247,19.68504,6,P-GPS,
9500,2023-10-08 19:39:27,38.4982380104472,-112.064398674998,20.341208,,,9841.7175718247,18.700788,0,0.70825461584,3.7312665236,23,5,0,9841.7175718247,20.341208,0.7158208,1.38957353528,0,0,-3.802798,92.5, 0.2, -0.8,0,0,1024,1024,1361,1324,0,0,51,45,0,0,0,100,,,,,,,0,32,9841.7175718247,20.341208,6,P-GPS,
9600,2023-10-08 19:39:27,38.4982380555464,-112.064398710674,20.669292,,,9842.0456558247,19.356956,0,0.69257876232,3.7506234796,23,5,0,9842.0456558247,20.669292,0.7158208,1.38957353528,0,0,-3.802798,95.4, 0.5, -0.4,0,0,1024,1024,1364,1319,0,0,52,45,0,0,0,100,,,,,,,0,32,9842.0456558247,20.669292,6,P-GPS,
9700,2023-10-08 19:39:27,38.4982381158527,-112.064398664095,21.32546,,,9842.7018238247,19.68504,0,0.66967521828,3.7763124568,23,5,0,9842.7018238247,21.32546,0.7158208,1.38957353528,0,0,-4.026492,98.2, 0.7, -0.4,0,0,1024,1024,1376,1310,0,0,53,43,0,0,0,100,,,,,,,0,32,9842.7018238247,21.32546,6,P-GPS,
9800,2023-10-08 19:39:28,38.4982381348549,-112.064398707851,21.981628,,,9843.3579918247,20.341208,0,0.66367128108,3.7906169192,23,5,0,9843.3579918247,21.981628,0.7158208,1.38957353528,0,0,-4.026492,101, 0.8, -0.6,0,0,1024,1024,1397,1284,0,0,57,39,0,0,0,100,,,,,,,0,32,9843.3579918247,21.981628,6,P-GPS,
9900,2023-10-08 19:39:28,38.4982381261943,-112.064398978011,22.637796,,,9844.0141598247,21.32546,0,0.67753939176,3.8678150844,23,5,0,9844.0141598247,22.637796,0.7158208,1.38957353528,0,0,-4.250186,103.7, 0.8, -0.8,0,0,1024,1024,1405,1276,0,0,58,38,0,0,0,100,,,,,,,0,32,9844.0141598247,22.637796,6,P-GPS,
10000,2023-10-08 19:39:28,38.4982381382229,-112.064399056692,23.293964,,,9844.6703278247,21.981628,0,0.67799542852,3.8907153476,23,5,0,9844.6703278247,23.293964,0.7158208,1.38957353528,0,0,-4.250186,106.2, 0.8, -1.2,0,0,1024,1024,1406,1276,0,0,58,38,0,0,0,100,,,,,,,0,32,9844.6703278247,23.293964,6,P-GPS,
10100,2023-10-08 19:39:28,38.4982381774125,-112.064398921072,23.950132,,,9845.3264958247,22.96588,0,0.65615815748,3.9319883148,23,5,0,9845.3264958247,23.950132,0.7158208,1.38957353528,0,0,-4.47388,108.5, 0.8, -1.5,0,0,1024,1024,1407,1273,0,0,58,38,0,0,0,100,,,,,,,0,32,9845.3264958247,23.950132,6,P-GPS,
10200,2023-10-08 19:39:28,38.4982381980697,-112.064398993464,24.6063,,,9845.9826638247,23.622048,0,0.65274608388,3.9540027512,23,5,0,9845.9826638247,24.6063,0.7158208,1.38957353528,0,0,-4.697574,110.8, 0.6, -1.6,0,0,1024,1024,1418,1262,0,0,60,36,0,0,0,100,,,,,,,0,32,9845.9826638247,24.6063,6,P-GPS,
10300,2023-10-08 19:39:28,38.4982381604201,-112.064399080081,25.262468,,,9846.6388318247,24.278216,0,0.67168309236,3.982283592,23,5,0,9846.6388318247,25.262468,0.7158208,1.38957353528,0,0,-4.921268,113.1, 0.3, -1.6,0,0,1024,1024,1430,1235,0,0,62,32,0,0,0,100,,,,,,,0,32,9846.6388318247,25.262468,6,P-GPS,
10400,2023-10-08 19:39:28,38.4982381910583,-112.064399137531,25.918636,,,9847.2949998247,28.871392,0,0.665026268,4.002132674,23,5,0,9847.2949998247,25.918636,0.7158208,1.38957353528,0,0,-4.921268,115.2, 0.4, -1.2,0,0,1024,1024,1430,1227,0,0,62,31,0,0,0,100,,,,,,,0,32,9847.2949998247,25.918636,6,P-GPS,
10500,2023-10-08 19:39:28,38.4982382178825,-112.06439927427,26.574804,,,9847.9511678247,29.855644,0,0.66723099248,4.0423885808,23,5,0,9847.9511678247,26.574804,0.7158208,1.38957353528,0,0,-5.144962,117.2, 0.4, -0.8,0,0,1052,1024,1432,1225,4,0,62,30,0,0,0,100,,,,,,,0,32,9847.9511678247,26.574804,6,P-GPS,
10600,2023-10-08 19:39:28,38.4982382433122,-112.064399330397,27.559056,,,9848.9354198247,30.839896,0,0.66390422072,4.0608925184,23,5,0,9848.9354198247,27.559056,0.7158208,1.38957353528,0,0,-5.144962,119.1, 0.6, -0.8,0,0,1082,1024,1438,1224,9,0,63,30,0,0,0,100,,,,,,,0,32,9848.9354198247,27.559056,6,P-GPS,
10700,2023-10-08 19:39:29,38.4982381937281,-112.064399323376,28.215224,,,9849.5915878247,31.496064,0,0.68019687216,4.0791011804,23,5,0,9849.5915878247,28.215224,0.7158208,1.38957353528,0,0,-5.368656,120.8, 0.9, -1,0,0,1131,1024,1440,1221,16,0,63,30,0,0,0,100,,,,,,,0,32,9849.5915878247,28.215224,6,P-GPS,
10800,2023-10-08 19:39:29,38.4982382119956,-112.064399375047,29.199476,,,9850.5758398247,32.480316,0,0.6791174758,4.09530853,23,5,0,9850.5758398247,29.199476,0.7158208,1.38957353528,0,0,-5.368656,122.5, 0.9, -1.3,0,0,1183,1024,1438,1213,24,0,63,29,0,0,0,100,,,,,,,0,32,9850.5758398247,29.199476,6,P-GPS,
10900,2023-10-08 19:39:29,38.4982380519966,-112.064399365089,29.855644,,,9851.2320078247,33.136484,0,0.73291012844,4.1537402904,24,5,0,9851.2320078247,29.855644,0.7158208,1.38957353528,0,0,-5.59235,124.1, 0.1, -1.4,0,0,1265,1024,1437,1206,37,0,63,28,0,0,0,99,,,,,,,0,32,9851.2320078247,29.855644,6,P-GPS,
11000,2023-10-08 19:39:29,38.4982380666826,-112.06439938753,30.839896,,,9852.2162598247,34.120736,0,0.73001642756,4.162073624,24,5,0,9852.2162598247,30.839896,0.7158208,1.38957353528,0,0,-5.59235,125.6, -1.6, -1.4,0,0,1277,1024,1437,1206,38,0,63,28,0,0,0,99,,,,,,,0,32,9852.2162598247,30.839896,6,P-GPS,
11100,2023-10-08 19:39:29,38.4982381553107,-112.064399372696,31.496064,,,9852.8724278247,34.776904,0,0.69820868376,4.194717982,24,5,0,9852.8724278247,31.496064,0.7158208,1.38957353528,0,0,-5.59235,127.1, -4, -1.1,0,0,1290,1024,1435,1206,40,0,62,28,0,0,0,99,,,,,,,0,32,9852.8724278247,31.496064,6,P-GPS,
11200,2023-10-08 19:39:29,38.4982381258814,-112.064399260835,32.480316,,,9853.8566798247,34.776904,0.223694,0.69788716144,4.2284122088,24,5,0,9853.8566798247,32.480316,0.7158208,1.38957353528,0,0.223694,-5.59235,128.6, -6.3, -0.7,0,0,1303,1024,1435,1206,42,0,62,28,0,0,0,99,,,,,,,0,32,9853.8566798247,32.480316,6,P-GPS,
11300,2023-10-08 19:39:29,38.4982380929331,-112.064398949273,33.136484,,,9854.5128478247,34.776904,0.4921268,0.68792325036,4.3181759912,24,5,0,9854.5128478247,33.136484,0.7158208,1.38957353528,-0.223694,0.447388,-5.59235,130.1, -7.9, -0.3,0,0,1358,1024,1422,1206,51,0,60,28,0,0,0,99,,,,,,,0,32,9854.5128478247,33.136484,6,P-GPS,
11400,2023-10-08 19:39:29,38.4982379149477,-112.064398590715,34.120736,,,9855.4970998247,34.776904,0.4921268,0.7419455618,4.4394030292,24,5,0,9855.4970998247,34.120736,0.7158208,1.38957353528,-0.447388,0.671082,-5.59235,131.6, -8.9, 0.1,0,0,1369,1024,1420,1208,52,0,60,28,0,0,0,99,,,,,,,0,32,9855.4970998247,34.120736,6,P-GPS,
11500,2023-10-08 19:39:29,38.4982374257013,-112.064397966684,35.104988,,,9856.4813518247,34.776904,1.11847,0.93340882252,4.6916340084,24,5,0,9856.4813518247,35.104988,1.11847,1.38957353528,-0.671082,0.894776,-5.59235,133.1, -9.6, 0.5,0,0,1388,1024,1416,1208,55,0,59,28,0,0,0,99,,,,,,,0,32,9856.4813518247,35.104988,6,P-GPS,
11600,2023-10-08 19:39:29,38.498237005181,-112.064397334229,35.761156,,,9857.1375198247,34.776904,1.4316416,1.12534124336,4.9286090816,24,5,0,9857.1375198247,35.761156,1.4316416,1.38957353528,-0.894776,1.11847,-5.59235,134.5, -10.2, 0.7,0,0,1399,1024,1417,1208,57,0,60,28,0,0,0,99,,,,,,,0,32,9857.1375198247,35.761156,6,P-GPS,
11700,2023-10-08 19:39:30,38.498236590644,-112.064396609129,36.745408,,,9858.1217718247,34.776904,1.901399,1.3403707778,5.1850067276,23,5,0,9858.1217718247,36.745408,1.901399,1.38957353528,-1.342164,1.342164,-5.368656,136, -10.6, 0.9,0,0,1432,1024,1415,1182,62,0,59,24,0,0,0,99,,,,,,,0,32,9858.1217718247,36.745408,6,P-GPS,
11800,2023-10-08 19:39:30,38.4982359151966,-112.064395711278,37.401576,,,9858.7779398247,34.776904,1.901399,1.6750820746,5.5406169752,23,5,0,9858.7779398247,37.401576,1.901399,1.6750820746,-1.565858,1.565858,-5.368656,137.5, -10.8, 1.2,0,0,1432,1024,1415,1182,62,0,59,24,0,0,0,99,,,,,,,0,32,9858.7779398247,37.401576,6,P-GPS,
11900,2023-10-08 19:39:30,38.4982351627179,-112.064394757246,38.057744,,,9859.4341078247,34.776904,2.8409138,2.04930124668,5.9273623944,23,5,0,9859.4341078247,38.057744,2.8409138,2.04930124668,-2.013246,2.013246,-5.368656,138.9, -11.2, 1.5,0,0,1447,1024,1415,1139,64,0,59,17,0,0,0,99,,,,,,,0,32,9859.4341078247,38.057744,6,P-GPS,
12000,2023-10-08 19:39:30,38.4982341961765,-112.064393622337,39.041996,,,9860.4183598247,34.776904,3.3330406,2.52108931952,6.4062994176,23,5,0,9860.4183598247,39.041996,3.3330406,2.52108931952,-2.460634,2.23694,-5.144962,140, -11.7, 1.6,0,0,1456,1024,1414,1132,65,0,59,16,0,0,0,99,,,,,,,0,32,9860.4183598247,39.041996,6,P-GPS,
12100,2023-10-08 19:39:30,38.4982331531195,-112.064392553699,39.698164,,,9861.0745278247,34.776904,3.802798,3.00728027996,6.8940947088,24,5,0,9861.0745278247,39.698164,3.802798,3.00728027996,-2.908022,2.460634,-5.144962,140.9, -12.4, 1.7,0,0,1473,1024,1421,1122,68,0,60,15,0,0,0,99,,,,,,,0,32,9861.0745278247,39.698164,6,P-GPS,
12200,2023-10-08 19:39:30,38.4982318597653,-112.064391182583,40.682416,,,9862.0587798247,34.776904,4.2949248,3.6183400108,7.507218088,24,5,0,9862.0587798247,40.682416,4.2949248,3.6183400108,-3.35541,2.684328,-5.144962,141.7, -12.8, 1.6,0,0,1482,1024,1423,1117,69,0,60,14,0,0,0,99,,,,,,,0,32,9862.0587798247,40.682416,6,P-GPS,
12300,2023-10-08 19:39:30,38.4982303765715,-112.06438966412,41.338584,,,9862.7149478247,34.776904,4.7870516,4.3107612928,8.2006564304,24,5,0,9862.7149478247,41.338584,4.7870516,4.3107612928,-3.802798,2.908022,-5.144962,142.3, -13, 1.2,0,0,1485,1024,1424,1113,70,0,61,13,0,0,0,99,,,,,,,0,32,9862.7149478247,41.338584,6,P-GPS,
12400,2023-10-08 19:39:30,38.4982287205549,-112.064388022836,41.994752,,,9863.3711158247,34.776904,5.2791784,5.0750657792,8.9652890008,24,5,0,9863.3711158247,41.994752,5.2791784,5.0750657792,-4.250186,3.131716,-5.144962,142.9, -13.1, 0.9,0,0,1503,1024,1426,1109,73,0,61,13,0,0,0,99,,,,,,,0,32,9863.3711158247,41.994752,6,P-GPS,
12500,2023-10-08 19:39:30,38.4982266262976,-112.064386113923,42.979004,,,9864.3553678247,34.776904,5.9055216,6.0135828696,9.903871708,24,5,0,9864.3553678247,42.979004,5.9055216,6.0135828696,-4.697574,3.579104,-5.144962,143.5, -13.3, 0.9,0,0,1516,1024,1430,1108,75,0,62,13,0,0,0,99,,,,,,,0,32,9864.3553678247,42.979004,6,P-GPS,
12600,2023-10-08 19:39:30,38.4982245928258,-112.064384178991,43.635172,,,9865.0115358247,34.776904,6.3976484,6.9385828992,10.828904546,24,5,0,9865.0115358247,43.635172,6.3976484,6.9385828992,-5.144962,3.802798,-5.144962,144, -13.6, 1,0,0,1520,1024,1430,1105,75,0,62,12,0,0,0,99,,,,,,,0,32,9865.0115358247,43.635172,6,P-GPS,
12700,2023-10-08 19:39:30,38.4982222934193,-112.064382399247,44.29134,,,9865.6677038247,34.776904,6.8897752,7.9162076024,11.8097772808,24,5,0,9865.6677038247,44.29134,6.8897752,7.9162076024,-5.59235,4.026492,-5.368656,144.5, -14, 1.4,0,0,1535,1024,1428,1093,77,0,61,10,0,0,0,99,,,,,,,0,32,9865.6677038247,44.29134,6,P-GPS,
12800,2023-10-08 19:39:31,38.4982198780407,-112.064380216984,45.275592,,,9866.6519558247,34.776904,7.381902,8.9955055372,12.8890752156,24,5,0,9866.6519558247,45.275592,7.381902,8.9955055372,-6.039738,4.250186,-5.368656,145.1, -14.3, 1.7,0,0,1550,1024,1425,1080,80,0,61,8,0,0,0,99,,,,,,,0,32,9866.6519558247,45.275592,6,P-GPS,
12900,2023-10-08 19:39:31,38.4982171425782,-112.064377811284,45.93176,,,9867.3081238247,34.776904,7.8740288,10.2069228988,14.1006566192,24,5,0,9867.3081238247,45.93176,7.8740288,10.2069228988,-6.487126,4.47388,-5.368656,145.6, -14.5, 1.6,0,0,1549,1024,1426,1076,80,0,61,8,0,0,0,99,,,,,,,0,32,9867.3081238247,45.93176,6,P-GPS,
13000,2023-10-08 19:39:31,38.4982143271414,-112.064375368503,46.916012,,,9868.2923758247,34.776904,8.6793272,11.448327138,15.3422905172,24,5,0,9868.2923758247,46.916012,8.6793272,11.448327138,-7.158208,4.921268,-5.368656,146.2, -14.8, 1.6,0,0,1548,1024,1430,1052,79,0,62,4,0,0,0,99,,,,,,,0,32,9868.2923758247,46.916012,6,P-GPS,
13100,2023-10-08 19:39:31,38.4982109022243,-112.064372618197,47.57218,,,9868.9485438247,34.776904,9.171454,12.9222773164,16.8181763912,24,5,0,9868.9485438247,47.57218,9.171454,12.9222773164,-7.605596,5.144962,-5.368656,146.6, -14.9, 1.4,0,0,1550,1024,1430,1049,80,0,62,4,0,0,0,99,,,,,,,0,32,9868.9485438247,47.57218,6,P-GPS,
13200,2023-10-08 19:39:31,38.4982076524377,-112.064369905032,48.228348,,,9869.6047118247,34.776904,9.6859502,14.3380253932,18.2345150192,24,5,0,9869.6047118247,48.228348,9.6859502,14.3380253932,-8.052984,5.368656,-5.368656,146.8, -14.9, 1,0,0,1551,1024,1428,1048,80,0,61,4,0,0,0,99,,,,,,,0,32,9869.6047118247,48.228348,6,P-GPS,
13300,2023-10-08 19:39:31,38.4982045825448,-112.064367486943,49.2126,,,9870.5889638247,34.776904,10.178077,15.6520346216,19.5502959012,24,5,0,9870.5889638247,49.2126,10.178077,15.6520346216,-8.500372,5.59235,-5.368656,147, -15.1, 0.5,0,0,1552,1024,1429,1049,80,0,61,4,0,0,0,99,,,,,,,0,32,9870.5889638247,49.2126,6,P-GPS,
13400,2023-10-08 19:39:31,38.4982009856996,-112.064364541157,49.868768,,,9871.2451318247,34.776904,10.6702038,17.2100727292,21.1090229852,24,5,0,9871.2451318247,49.868768,10.6702038,17.2100727292,-8.94776,5.816044,-5.368656,147, -15.3, 0.1,0,0,1555,1024,1432,1054,80,0,62,5,0,0,0,99,,,,,,,0,32,9871.2451318247,49.868768,6,P-GPS,
13500,2023-10-08 19:39:31,38.4981971424219,-112.064361592628,50.85302,,,9872.2293838247,34.776904,11.296547,18.8431108392,22.744587342,24,5,0,9872.2293838247,50.85302,11.296547,18.8431108392,-9.395148,6.263432,-5.368656,147.1, -15.8, 0,0,0,1558,1024,1431,1056,81,0,62,5,0,0,0,99,,,,,,,0,32,9872.2293838247,50.85302,6,P-GPS,
13600,2023-10-08 19:39:31,38.4981931717481,-112.064358356872,51.509188,,,9872.8855518247,34.776904,11.296547,20.5608274296,24.4628288668,24,5,0,9872.8855518247,51.509188,11.296547,20.5608274296,-10.06623,6.487126,-5.368656,147, -16.1, 0.2,0,0,1561,1024,1428,1056,81,0,61,5,0,0,0,99,,,,,,,0,32,9872.8855518247,51.509188,6,P-GPS,
13700,2023-10-08 19:39:32,38.4981887199148,-112.064354884221,52.49344,,,9873.8698038247,34.776904,12.4821252,22.4621726348,26.3658473004,24,5,0,9873.8698038247,52.49344,12.4821252,22.4621726348,-10.513618,6.71082,-5.368656,147.1, -16.2, 0.3,0,0,1561,1024,1426,1053,81,0,61,4,0,0,0,99,,,,,,,0,32,9873.8698038247,52.49344,6,P-GPS,
13800,2023-10-08 19:39:32,38.4981843335628,-112.064351360469,53.149608,,,9874.5259718247,34.776904,13.086099,24.3519364748,28.2562345,24,5,0,9874.5259718247,53.149608,13.086099,24.3519364748,-10.961006,7.158208,-5.368656,147.1, -16, 0.4,0,0,1560,1024,1426,1053,81,0,61,4,0,0,0,99,,,,,,,0,32,9874.5259718247,53.149608,6,P-GPS,
13900,2023-10-08 19:39:32,38.4981797317013,-112.064347772751,54.13386,,,9875.5102238247,34.776904,13.5782258,26.3174549104,30.2230652716,24,5,0,9875.5102238247,54.13386,13.5782258,26.3174549104,-11.408394,7.381902,-5.368656,147.2, -15.9, 0.3,0,0,1559,1024,1425,1050,81,0,61,4,0,0,0,99,,,,,,,0,32,9875.5102238247,54.13386,6,P-GPS,
14000,2023-10-08 19:39:32,38.4981749735779,-112.064343979712,54.790028,,,9876.1663918247,34.776904,14.092722,28.363025842,32.2692267544,24,5,0,9876.1663918247,54.790028,14.092722,28.363025842,-11.855782,7.605596,-5.368656,147.2, -15.8, 0.2,0,0,1554,1024,1409,1051,80,0,58,4,0,0,0,99,,,,,,,0,32,9876.1663918247,54.790028,6,P-GPS,
14100,2023-10-08 19:39:32,38.4981702636342,-112.06434050498,55.77428,,,9877.1506438247,34.776904,14.092722,30.3442266928,34.25361002,24,5,0,9877.1506438247,55.77428,14.092722,30.3442266928,-12.30317,7.82929,-5.368656,147.3, -15.8, 0,0,0,1559,1024,1403,1041,81,0,57,3,0,0,0,99,,,,,,,0,32,9877.1506438247,55.77428,6,P-GPS,
14200,2023-10-08 19:39:32,38.4981651794916,-112.064336484145,56.430448,,,9877.8068118247,34.776904,15.0769756,32.5251978912,36.435040536,24,5,0,9877.8068118247,56.430448,15.0769756,32.5251978912,-12.750558,8.052984,-5.368656,147.3, -15.9, 0,0,0,1558,1024,1402,1025,81,0,57,0,0,0,0,99,,,,,,,0,32,9877.8068118247,56.430448,6,P-GPS,
14300,2023-10-08 19:39:32,38.4981597450663,-112.064332058579,57.4147,,,9878.7910638247,34.776904,15.7033188,34.876313452,38.78609048,24,5,0,9878.7910638247,57.4147,15.7033188,34.876313452,-13.197946,8.500372,-5.144962,147.4, -16.1, 0,0,0,1558,1024,1401,1024,81,0,57,0,0,0,0,99,,,,,,,0,32,9878.7910638247,57.4147,6,P-GPS,
14400,2023-10-08 19:39:32,38.4981543195295,-112.064327758275,58.070868,,,9879.4472318247,34.776904,16.0164904,37.205381768,41.11548688,24,5,0,9879.4472318247,58.070868,16.0164904,37.205381768,-13.42164,8.724066,-5.144962,147.3, -16, -0.1,0,0,1564,1024,1386,1025,82,0,55,0,0,0,0,99,,,,,,,0,32,9879.4472318247,58.070868,6,P-GPS,
14500,2023-10-08 19:39:32,38.4981482503031,-112.064323176214,58.727036,,,9880.1033998247,34.776904,16.0164904,39.77526374,43.68766544,24,5,0,9880.1033998247,58.727036,16.0164904,39.77526374,-13.869028,8.94776,-4.921268,147.4, -15.5, -0.2,0,0,1568,1024,1369,1025,82,0,52,0,0,0,0,99,,,,,,,0,32,9880.1033998247,58.727036,6,P-GPS,
14600,2023-10-08 19:39:32,38.4981424750789,-112.064318594454,59.383204,,,9880.7595678247,34.776904,17.000744,42.255250696,46.16798048,24,5,0,9880.7595678247,59.383204,17.000744,42.255250696,-14.316416,9.171454,-4.921268,147.4, -15.1, -0.3,0,0,1568,1024,1357,1026,82,0,50,0,0,0,0,99,,,,,,,0,32,9880.7595678247,59.383204,6,P-GPS,
14700,2023-10-08 19:39:32,38.4981369193929,-112.064314118459,60.367456,,,9881.7438198247,34.776904,17.3139156,44.651576232,48.563977932,24,5,0,9881.7438198247,60.367456,17.3139156,44.651576232,-14.54011,9.395148,-4.921268,147.5, -15.2, -0.1,0,0,1569,1024,1352,1024,83,0,50,0,0,0,0,99,,,,,,,0,32,9881.7438198247,60.367456,6,P-GPS,
14800,2023-10-08 19:39:33,38.4981309084977,-112.064309319305,61.023624,,,9882.3999878247,34.776904,17.8060424,47.237206236,51.150264104,24,5,0,9882.3999878247,61.023624,17.8060424,47.237206236,-14.987498,9.618842,-4.697574,147.5, -15.5, 0.1,0,0,1570,1024,1336,1024,83,0,47,0,0,0,0,99,,,,,,,0,32,9882.3999878247,61.023624,6,P-GPS,
14900,2023-10-08 19:39:33,38.4981242722977,-112.064304111054,61.679792,,,9883.0561558247,34.776904,18.231061,50.078413676,53.991471544,24,5,0,9883.0561558247,61.679792,18.231061,50.078413676,-15.211192,10.06623,-4.47388,147.4, -15.6, 0.4,0,0,1574,1024,1305,1024,83,0,43,0,0,0,0,99,,,,,,,0,32,9883.0561558247,61.679792,6,P-GPS,
15000,2023-10-08 19:39:33,38.4981179375838,-112.064299058367,62.33596,,,9883.7123238247,34.776904,18.6113408,52.802823212,56.716209164,24,5,0,9883.7123238247,62.33596,18.6113408,52.802823212,-15.65858,10.06623,-4.250186,147.5, -15.7, 0.4,0,0,1574,1024,1287,1024,83,0,40,0,0,0,0,99,,,,,,,0,32,9883.7123238247,62.33596,6,P-GPS,
15100,2023-10-08 19:39:33,38.498112080523,-112.064294242068,62.992128,,,9884.3684918247,34.776904,18.9245124,55.343833792,59.257547828,24,5,0,9884.3684918247,62.992128,18.9245124,55.343833792,-15.882274,10.289924,-4.026492,147.6, -15.9, 0.3,0,0,1577,1024,1284,1024,84,0,39,0,0,0,0,99,,,,,,,0,32,9884.3684918247,62.992128,6,P-GPS,
15200,2023-10-08 19:39:33,38.4981055510009,-112.064289022083,63.648296,,,9885.0246598247,34.776904,19.4166392,58.153873252,62.067587288,24,5,0,9885.0246598247,63.648296,19.4166392,58.153873252,-16.329662,10.513618,-3.579104,147.6, -16.1, 0.3,0,0,1577,1024,1278,1024,84,0,38,0,0,0,0,99,,,,,,,0,32,9885.0246598247,63.648296,6,P-GPS,
15300,2023-10-08 19:39:33,38.4980986965726,-112.064283868068,63.97638,,,9885.3527438247,34.776904,19.7298108,61.053807728,64.969162184,24,5,0,9885.3527438247,63.97638,19.7298108,61.053807728,-16.553356,10.737312,-3.35541,147.7, -16.1, 0.6,0,0,1577,1024,1276,1024,84,0,38,0,0,0,0,99,,,,,,,0,32,9885.3527438247,63.97638,6,P-GPS,
15400,2023-10-08 19:39:33,38.4980918893693,-112.064278472216,64.632548,,,9886.0089118247,34.776904,20.2219376,63.97638,67.89206254,24,5,0,9886.0089118247,64.632548,20.2219376,63.97638,-17.000744,10.961006,-3.131716,147.7, -15.9, 0.7,0,0,1580,1024,1262,1024,84,0,36,0,0,0,0,99,,,,,,,0,32,9886.0089118247,64.632548,6,P-GPS,
15500,2023-10-08 19:39:33,38.4980844811545,-112.064272454479,64.960632,,,9886.3369958247,34.776904,20.5351092,67.179464092,71.094818548,24,5,0,9886.3369958247,64.960632,20.5351092,67.179464092,-17.224438,11.1847,-2.908022,147.6, -15.6, 0.4,0,0,1586,1024,1260,1024,85,0,36,0,0,0,0,99,,,,,,,0,32,9886.3369958247,64.960632,6,P-GPS,
15600,2023-10-08 19:39:33,38.4980773715487,-112.064266835807,65.288716,,,9886.6650798247,34.776904,21.027236,70.229004872,74.144687412,24,5,0,9886.6650798247,65.288716,21.027236,70.229004872,-17.671826,11.408394,-2.684328,147.6, -15.4, 0.2,0,0,1586,1024,1262,1024,85,0,36,0,0,0,0,99,,,,,,,0,32,9886.6650798247,65.288716,6,P-GPS,
15700,2023-10-08 19:39:33,38.4980701162863,-112.064261380117,65.944884,,,9887.3212478247,34.776904,21.2285606,73.29888686,77.21620982,24,5,0,9887.3212478247,65.944884,21.2285606,73.29888686,-17.89552,11.408394,-2.460634,147.6, -15.3, 0.1,0,0,1586,1024,1267,1024,85,0,37,0,0,0,0,99,,,,,,,0,32,9887.3212478247,65.944884,6,P-GPS,
15800,2023-10-08 19:39:34,38.4980627528046,-112.06425561389,66.272968,,,9887.6493318247,34.776904,21.5417322,76.449805596,80.367128556,24,5,0,9887.6493318247,66.272968,21.5417322,76.449805596,-18.119214,11.632088,-2.460634,147.5, -15, 0,0,0,1588,1024,1265,1024,85,0,37,0,0,0,0,99,,,,,,,0,32,9887.6493318247,66.272968,6,P-GPS,
15900,2023-10-08 19:39:34,38.4980553236275,-112.064249751662,66.601052,,,9887.9774158247,34.776904,21.8996426,79.635173152,83.55315228,24,5,0,9887.9774158247,66.601052,21.8996426,79.635173152,-18.566602,11.632088,-2.460634,147.4, -14.8, 0,0,0,1588,1024,1265,1024,85,0,37,0,0,0,0,99,,,,,,,0,32,9887.9774158247,66.601052,6,P-GPS,
16000,2023-10-08 19:39:34,38.4980477343907,-112.06424380569,66.929136,,,9888.3054998247,34.776904,22.2128142,82.882876668,86.800855796,24,5,0,9888.3054998247,66.929136,22.2128142,82.882876668,-18.790296,11.855782,-2.23694,147.3, -14.7, -0.2,0,0,1584,1024,1269,1024,85,0,37,0,0,0,0,99,,,,,,,0,32,9888.3054998247,66.929136,6,P-GPS,
16100,2023-10-08 19:39:34,38.4980406478023,-112.06423842403,67.25722,,,9888.6335838247,34.776904,22.5259858,85.889766528,89.808729908,24,5,0,9888.6335838247,67.25722,22.5259858,85.889766528,-19.01399,12.079476,-2.23694,147.3, -14.4, -0.2,0,0,1585,1024,1270,1024,85,0,37,0,0,0,0,99,,,,,,,0,32,9888.6335838247,67.25722,6,P-GPS,
16200,2023-10-08 19:39:34,38.498032889686,-112.064232368272,67.585304,,,9888.9616678247,34.776904,22.704941,89.206367684,93.125659148,24,5,0,9888.9616678247,67.585304,22.704941,89.206367684,-19.237684,12.079476,-2.23694,147.3, -14.3, -0.2,0,0,1584,1024,1274,1024,85,0,38,0,0,0,0,99,,,,,,,0,32,9888.9616678247,67.585304,6,P-GPS,
16300,2023-10-08 19:39:34,38.4980249451017,-112.064226224753,67.913388,,,9889.2897518247,34.776904,23.0181126,92.594163068,96.513782616,24,5,0,9889.2897518247,67.913388,23.0181126,92.594163068,-19.461378,12.30317,-2.460634,147.4, -14.6, -0.3,0,0,1586,1024,1272,1024,85,0,38,0,0,0,0,99,,,,,,,0,32,9889.2897518247,67.913388,6,P-GPS,
16400,2023-10-08 19:39:34,38.4980169679779,-112.064220037721,68.241472,,,9889.6178358247,34.776904,23.3983924,95.998362652,99.918310284,24,5,0,9889.6178358247,68.241472,23.3983924,95.998362652,-19.908766,12.30317,-2.460634,147.4, -14.9, -0.7,0,0,1590,1024,1265,1024,86,0,37,0,0,0,0,99,,,,,,,0,32,9889.6178358247,68.241472,6,P-GPS,
16500,2023-10-08 19:39:34,38.4980082991347,-112.064213223672,68.569556,,,9889.9459198247,34.776904,23.711564,99.711617364,103.63189308,24,5,0,9889.9459198247,68.569556,23.711564,99.711617364,-20.13246,12.526864,-2.460634,147.5, -15, -1.2,0,0,1592,1024,1264,1024,86,0,36,0,0,0,0,99,,,,,,,0,32,9889.9459198247,68.569556,6,P-GPS,
16600,2023-10-08 19:39:34,38.4980000646413,-112.064206830789,69.225724,,,9890.6020878247,34.776904,23.711564,103.22670934,107.14731314,24,5,0,9890.6020878247,69.225724,23.711564,103.22670934,-20.356154,12.526864,-2.460634,147.6, -15.2, -1.6,0,0,1592,1024,1264,1024,86,0,36,0,0,0,0,99,,,,,,,0,32,9890.6020878247,69.225724,6,P-GPS,
16700,2023-10-08 19:39:35,38.497992358725,-112.064201006846,69.553808,,,9890.9301718247,34.776904,24.2036908,106.492457476,110.413717444,24,5,0,9890.9301718247,69.553808,24.2036908,106.492457476,-20.579848,12.750558,-2.460634,147.7, -15.2, -1.5,0,0,1596,1024,1262,1024,87,0,36,0,0,0,0,99,,,,,,,0,32,9890.9301718247,69.553808,6,P-GPS,
16800,2023-10-08 19:39:35,38.497983980887,-112.064194482273,69.881892,,,9891.2582558247,34.776904,24.5168624,110.071853916,113.993441968,24,5,0,9891.2582558247,69.881892,24.5168624,110.071853916,-20.803542,12.974252,-2.460634,147.7, -15, -1.3,0,0,1611,1024,1258,1024,89,0,35,0,0,0,0,99,,,,,,,0,32,9891.2582558247,69.881892,6,P-GPS,
16900,2023-10-08 19:39:35,38.4979749604982,-112.064187411332,70.209976,,,9891.5863398247,34.776904,24.718187,113.932746428,117.85433448,25,5,0,9891.5863398247,70.209976,24.718187,113.932746428,-21.027236,12.974252,-2.460634,147.7, -14.9, -1.2,0,0,1619,1024,1259,1024,90,0,36,0,0,0,0,99,,,,,,,0,32,9891.5863398247,70.209976,6,P-GPS,
17000,2023-10-08 19:39:35,38.4979663447627,-112.064180681149,70.53806,,,9891.9144238247,34.776904,25.0089892,117.617129748,121.5387178,25,5,0,9891.9144238247,70.53806,25.0089892,117.617129748,-21.25093,13.197946,-2.460634,147.7, -14.9, -1,0,0,1643,1024,1267,1013,94,0,37,-2,0,0,0,99,,,,,,,0,32,9891.9144238247,70.53806,6,P-GPS,
17100,2023-10-08 19:39:35,38.497958286907,-112.064174387022,70.866144,,,9892.2425078247,34.776904,25.3221608,121.062667916,124.984584052,25,5,0,9892.2425078247,70.866144,25.3221608,121.062667916,-21.474624,13.42164,-2.23694,147.5, -15.2, -0.9,0,0,1659,1024,1263,1008,96,0,36,-2,0,0,0,99,,,,,,,0,32,9892.2425078247,70.866144,6,P-GPS,
17200,2023-10-08 19:39:35,38.4979495371947,-112.064167529723,71.194228,,,9892.5705918247,34.776904,25.3221608,124.807418692,128.729662912,25,5,0,9892.5705918247,71.194228,25.3221608,124.807418692,-21.698318,13.42164,-2.460634,147.4, -15.4, -1.2,0,0,1661,1024,1262,1010,97,0,36,-2,0,0,0,99,,,,,,,0,32,9892.5705918247,71.194228,6,P-GPS,
17300,2023-10-08 19:39:35,38.4979407143544,-112.064160569727,71.522312,,,9892.8986758247,34.776904,25.8142876,128.590555296,132.512471432,25,5,0,9892.8986758247,71.522312,25.8142876,128.590555296,-21.922012,13.645334,-2.460634,147.4, -15.8, -1.7,0,0,1667,1020,1261,1009,97,-1,36,-2,0,0,0,99,,,,,,,0,32,9892.8986758247,71.522312,6,P-GPS,
17400,2023-10-08 19:39:35,38.4979317686179,-112.064153515548,71.850396,,,9893.2267598247,34.776904,26.1274592,132.425857256,136.348101476,25,5,0,9893.2267598247,71.850396,26.1274592,132.425857256,-22.145706,13.869028,-2.460634,147.3, -16.6, -1.8,0,0,1676,1016,1261,1010,99,-1,36,-2,0,0,0,99,,,,,,,0,32,9893.2267598247,71.850396,6,P-GPS,
17500,2023-10-08 19:39:35,38.4979219121202,-112.064145709939,72.17848,,,9893.5548438247,34.776904,26.4406308,136.65682852,140.578744656,25,5,0,9893.5548438247,72.17848,26.4406308,136.65682852,-22.3694,14.092722,-2.23694,147.3, -17.1, -1.5,0,0,1682,1012,1261,1006,100,-2,36,-3,0,0,0,99,,,,,,,0,32,9893.5548438247,72.17848,6,P-GPS,
17600,2023-10-08 19:39:35,38.4979126783927,-112.064138375618,72.506564,,,9893.8829278247,34.776904,26.4406308,140.62336408,144.5456083,25,5,0,9893.8829278247,72.506564,26.4406308,140.62336408,-22.816788,14.316416,-2.23694,147.3, -17.4, -1.2,0,0,1683,1011,1260,991,100,-2,36,-5,0,0,0,99,,,,,,,0,32,9893.8829278247,72.506564,6,P-GPS,
17700,2023-10-08 19:39:36,38.4979038120181,-112.06413107749,73.162732,,,9894.5390958247,34.776904,27.2459292,144.471133232,148.393705536,25,5,0,9894.5390958247,73.162732,27.2459292,144.471133232,-23.040482,14.54011,-2.460634,147.3, -17.5, -0.9,0,0,1684,994,1260,968,100,-5,36,-8,0,0,0,99,,,,,,,0,32,9894.5390958247,73.162732,6,P-GPS,
17800,2023-10-08 19:39:36,38.4978943706891,-112.064123543227,73.490816,,,9894.8671798247,34.776904,27.5591008,148.532485068,152.455057372,25,5,0,9894.8671798247,73.490816,27.5591008,148.532485068,-23.264176,14.763804,-2.460634,147.2, -17.3, -2.6,0,0,1684,983,1261,965,100,-6,36,-9,0,0,0,99,,,,,,,0,32,9894.8671798247,73.490816,6,P-GPS,
17900,2023-10-08 19:39:36,38.4978856017614,-112.064116741159,73.8189,,,9895.1952638247,34.776904,27.8722724,152.274939256,156.19751156,25,5,0,9895.1952638247,73.8189,27.8722724,152.274939256,-23.48787,14.987498,-2.460634,147.1, -16.9, -5.1,0,0,1684,969,1263,961,100,-8,36,-10,0,0,0,99,,,,,,,0,32,9895.1952638247,73.8189,6,P-GPS,
18000,2023-10-08 19:39:36,38.4978760521276,-112.064109007325,74.146984,,,9895.5233478247,34.776904,28.1630746,156.399939388,160.322839776,25,5,0,9895.5233478247,74.146984,28.1630746,156.399939388,-23.711564,15.211192,-2.460634,146.8, -16.8, -8.1,0,0,1684,965,1258,975,100,-9,35,-7,0,0,0,99,,,,,,,0,32,9895.5233478247,74.146984,6,P-GPS,
18100,2023-10-08 19:39:36,38.4978662945498,-112.06410078428,74.475068,,,9895.8514318247,34.776904,28.1630746,160.663062884,164.587275608,25,5,0,9895.8514318247,74.475068,28.1630746,160.663062884,-23.935258,15.65858,-2.23694,146.5, -16.5, -10.2,0,0,1684,965,1254,987,100,-9,35,-6,0,0,0,99,,,,,,,0,32,9895.8514318247,74.475068,6,P-GPS,
18200,2023-10-08 19:39:36,38.4978566847351,-112.064092590909,74.803152,,,9896.1795158247,34.776904,28.856526,164.875989528,168.80249884,25,5,0,9896.1795158247,74.803152,28.856526,164.875989528,-23.935258,16.105968,-2.23694,146, -16.2, -9.8,0,0,1684,967,1254,984,100,-9,35,-6,0,0,0,99,,,,,,,0,32,9896.1795158247,74.803152,6,P-GPS,
18300,2023-10-08 19:39:36,38.4978453587917,-112.064083047877,75.131236,,,9896.5075998247,34.776904,29.1025894,169.8244805,173.752302148,25,5,0,9896.5075998247,75.131236,29.1025894,169.8244805,-23.935258,16.553356,-2.23694,145.7, -16.1, -7.6,0,0,1684,968,1254,984,100,-8,35,-6,0,0,0,99,,,,,,,0,32,9896.5075998247,75.131236,6,P-GPS,
18400,2023-10-08 19:39:36,38.497835565626,-112.064074329627,75.45932,,,9896.8356838247,34.776904,29.3486528,174.173890088,178.10696108,25,5,0,9896.8356838247,75.45932,29.3486528,174.173890088,-23.935258,17.000744,-2.23694,145.3, -16.2, -5.3,0,0,1684,968,1254,983,100,-8,35,-6,0,0,0,99,,,,,,,0,32,9896.8356838247,75.45932,6,P-GPS,
18500,2023-10-08 19:39:36,38.4978266782549,-112.064066211686,75.787404,,,9897.1637678247,34.776904,29.6618244,178.15289284,182.092853596,25,5,0,9897.1637678247,75.787404,29.6618244,178.15289284,-24.158952,17.224438,-2.013246,145, -16.2, -3.7,0,0,1684,970,1254,982,100,-8,35,-6,0,0,0,99,,,,,,,0,32,9897.1637678247,75.787404,6,P-GPS,
18600,2023-10-08 19:39:36,38.4978168541939,-112.064057277169,76.115488,,,9897.4918518247,34.776904,29.974996,182.545281432,186.492460036,25,5,0,9897.4918518247,76.115488,29.974996,182.545281432,-24.382646,17.448132,-2.013246,144.7, -16.2, -3,0,0,1684,971,1254,977,100,-8,35,-7,0,0,0,99,,,,,,,0,32,9897.4918518247,76.115488,6,P-GPS,
18700,2023-10-08 19:39:36,38.4978075330552,-112.064049165486,76.443572,,,9897.8199358247,34.776904,30.2881676,186.657486288,190.60696148,25,5,0,9897.8199358247,76.443572,30.2881676,186.657486288,-24.60634,17.671826,-2.013246,144.4, -16, -3.1,0,0,1684,971,1254,975,100,-8,35,-7,0,0,0,99,,,,,,,0,32,9897.8199358247,76.443572,6,P-GPS,
18800,2023-10-08 19:39:37,38.497797619802,-112.064040092889,76.771656,,,9898.1480198247,34.776904,30.6013392,191.099415564,195.056108604,25,5,0,9898.1480198247,76.771656,30.6013392,191.099415564,-24.830034,17.89552,-2.23694,144.1, -15.5, -4.7,0,0,1684,969,1253,969,100,-8,35,-8,0,0,0,99,,,,,,,0,32,9898.1480198247,76.771656,6,P-GPS,
18900,2023-10-08 19:39:37,38.4977872613752,-112.064030703277,77.09974,,,9898.4761038247,34.776904,30.7355556,195.727040384,199.689638936,25,5,0,9898.4761038247,77.09974,30.7355556,195.727040384,-24.830034,18.119214,-2.23694,143.8, -15, -6.8,0,0,1684,969,1253,969,100,-8,35,-8,0,0,0,99,,,,,,,0,32,9898.4761038247,77.09974,6,P-GPS,
19000,2023-10-08 19:39:37,38.4977772461537,-112.064021323316,77.427824,,,9898.8041878247,34.776904,31.0039884,200.24770982,204.220150892,25,5,0,9898.8041878247,77.427824,31.0039884,200.24770982,-24.830034,18.566602,-2.23694,143.5, -14.7, -8.8,0,0,1684,969,1253,961,100,-8,35,-10,0,0,0,99,,,,,,,0,32,9898.8041878247,77.427824,6,P-GPS,
