time(millisecond),datetime(utc),latitude,longitude,height_above_takeoff(feet),height_above_ground_at_drone_location(feet),ground_elevation_at_drone_location(feet),altitude_above_seaLevel(feet),height_sonar(feet),speed(mph),distance(feet),mileage(feet),satellites,gpslevel,voltage(v),max_altitude(feet),max_ascent(feet),max_speed(mph),max_distance(feet), xSpeed(mph), ySpeed(mph), zSpeed(mph), compass_heading(degrees), pitch(degrees), roll(degrees),isPhoto,isVideo,rc_elevator,rc_aileron,rc_throttle,rc_rudder,rc_elevator(percent),rc_aileron(percent),rc_throttle(percent),rc_rudder(percent),gimbal_heading(degrees),gimbal_pitch(degrees),gimbal_roll(degrees),battery_percent,voltageCell1,voltageCell2,voltageCell3,voltageCell4,voltageCell5,voltageCell6,current(A),battery_temperature(f),altitude(feet),ascent(feet),flycStateRaw,flycState,message
0,2023-10-09 18:33:47,38.4981531316441,-112.064387015156,0,Available with any HD 360 subscription,Available with any HD 360 subscription,9819.6854818808,0.656168,0,0,0,18,5,0,9819.6854818808,0,0,0,0,0,0,149.1, -8.6, -2,0,0,1024,1024,1024,1024,0,0,0,0,0,0,0,99,4.349,4.351,4.351,4.35,4.34,4.346,0,32,9819.6854818808,0,6,P-GPS,
100,2023-10-09 18:33:47,38.4981531180948,-112.064387006358,0,,,9819.6854818808,0.656168,0,0.0055452101512,0.0055452101512,18,5,0,9819.6854818808,0,0,0.0055452101512,0,0,0,149.1, -8.6, -2,0,0,1024,1024,1024,1024,0,0,0,0,0,0,0,99,4.349,4.351,4.351,4.35,4.34,4.346,0,32,9819.6854818808,0,41,Motors_Started,
200,2023-10-09 18:33:47,38.4981531437804,-112.064387024802,0,,,9819.6854818808,0.656168,0,0.0052146983296,0.0162950792616,18,5,0,9819.6854818808,0,0,0.0055452101512,0,0,0,149.1, -8.6, -2,0,0,1024,1024,1024,1024,0,0,0,0,0,0,0,99,4.349,4.351,4.351,4.35,4.34,4.346,0,32,9819.6854818808,0,41,Motors_Started,
300,2023-10-09 18:33:47,38.4981531323529,-112.064387017736,0,,,9819.6854818808,0.656168,0,0.00078079398824,0.0209269691736,18,5,0,9819.6854818808,0,0,0.0055452101512,0,0,0,149.1, -8.5, -2,0,0,1024,1024,1024,1024,0,0,0,0,0,0,0,99,4.349,4.351,4.351,4.35,4.34,4.346,0,32,9819.6854818808,0,41,Motors_Started,
400,2023-10-09 18:33:47,38.49815315125,-112.064387032708,0,,,9819.6854818808,0.656168,0,0.0087342194396,0.0290394038164,18,5,0,9819.6854818808,0,0,0.0087342194396,0,0,0,149, -8.5, -2,0,0,1024,1024,1024,1024,0,0,0,0,0,0,0,99,4.349,4.351,4.351,4.35,4.34,4.346,0,32,9819.6854818808,0,41,Motors_Started,
500,2023-10-09 18:33:47,38.4981531420397,-112.064387028932,0,,,9819.6854818808,0.656168,0,0.0054642718284,0.0325685377876,18,5,0,9819.6854818808,0,0,0.0087342194396,0,0,0,149, -8.5, -2,0,0,707,690,639,1517,-48,-51,-58,75,0,0,0,99,4.349,4.351,4.351,4.35,4.34,4.346,0,32,9819.6854818808,0,41,Motors_Started,
600,2023-10-09 18:33:47,38.4981531630229,-112.06438704056,0,,,9819.6854818808,0.656168,0,0.0135532156568,0.040913387136,18,5,0,9819.6854818808,0,0,0.0135532156568,0,0,0,149.1, -8.5, -2,0,0,1024,1024,1024,1024,0,0,0,0,0,0,0,99,4.349,4.351,4.351,4.35,4.34,4.346,0,32,9819.6854818808,0,41,Motors_Started,
700,2023-10-09 18:33:48,38.498153153627,-112.064387037135,0,,,9819.6854818808,0.656168,0,0.0101841210608,0.044478019796,19,5,0,9819.6854818808,0,0,0.0135532156568,0,0,0,149.1, -8.6, -2,0,0,1024,1024,1024,1024,0,0,0,0,0,0,0,99,4.349,4.351,4.351,4.35,4.34,4.346,0,32,9819.6854818808,0,41,Motors_Started,"Setting new Return-To-Home altitude to 61m (200 ft). Data Recorder File Index is 37. Setting new Maximum Flight Altitude to 500m (1640 ft)"
800,2023-10-09 18:33:48,38.4981533326801,-112.064387048941,0,,,9819.6854818808,0.656168,0,0.07397966116,0.109892391968,19,5,0,9819.6854818808,0,0,0.07397966116,0,0,0,149.1, -8.5, -2,0,0,1024,1024,1024,1024,0,0,0,0,0,0,0,99,4.349,4.351,4.351,4.35,4.34,4.346,0,32,9819.6854818808,0,41,Motors_Started,
900,2023-10-09 18:33:48,38.4981533397418,-112.064387046674,0,,,9819.6854818808,0.656168,0,0.076455711108,0.112548888116,19,5,0,9819.6854818808,0,0,0.076455711108,0,0,0,149, -8.5, -2,0,0,1024,1024,1024,1024,0,0,0,0,0,0,0,99,4.349,4.351,4.351,4.35,4.34,4.346,0,32,9819.6854818808,0,41,Motors_Started,
1000,2023-10-09 18:33:48,38.4981531731992,-112.064386889666,0,,,9819.6854818808,0.656168,0,0.038908137728,0.18806102964,19,5,0,9819.6854818808,0,0,0.076455711108,0,0,0,149, -8.5, -2.1,0,0,1024,1024,1024,1024,0,0,0,0,0,0,0,99,4.349,4.351,4.351,4.35,4.34,4.346,0,32,9819.6854818808,0,41,Motors_Started,
1100,2023-10-09 18:33:48,38.4981531642159,-112.064386877252,0,,,9819.6854818808,0.656168,0,0.041131234912,0.1928887857,19,5,26.087,9819.6854818808,0,0,0.076455711108,0,0,0,149.1, -8.5, -2.1,0,0,1024,1024,1024,1024,0,0,0,0,0,0,0,99,4.349,4.351,4.351,4.35,4.34,4.346,0,32,9819.6854818808,0,41,Motors_Started,
1200,2023-10-09 18:33:48,38.4981531663512,-112.064386910077,0,,,9819.6854818808,0.656168,0,0.032566930176,0.202293969728,19,5,26.087,9819.6854818808,0,0,0.076455711108,0,0,0,149, -8.6, -2,0,0,1024,1024,1024,1024,0,0,0,0,0,0,0,99,4.349,4.351,4.351,4.35,4.34,4.346,0,32,9819.6854818808,0,41,Motors_Started,
1300,2023-10-09 18:33:48,38.4981531588928,-112.064386902576,0,,,9819.6854818808,0.656168,0,0.03364829504,0.205756896348,19,5,26.087,9819.6854818808,0,0,0.076455711108,0,0,0,149, -8.5, -2,0,0,1024,1024,1024,1024,0,0,0,0,0,0,0,99,4.349,4.351,4.351,4.35,4.34,4.346,0,32,9819.6854818808,0,41,Motors_Started,
1400,2023-10-09 18:33:48,38.4981531467287,-112.06438693779,0,,,9819.6854818808,0.656168,0,0.0227663065028,0.216747710348,19,5,26.087,9819.6854818808,0,0,0.076455711108,0,0,0,149.1, -8.5, -2,0,0,1024,1024,1024,1024,0,0,0,0,0,0,0,99,4.349,4.351,4.351,4.35,4.34,4.346,0,32,9819.6854818808,0,41,Motors_Started,
1500,2023-10-09 18:33:48,38.4981531388839,-112.064386932357,0,,,9819.6854818808,0.656168,0,0.0237894036484,0.22000328788,19,5,26.087,9819.6854818808,0,0,0.076455711108,0,0,0,149.1, -8.5, -2,0,0,1024,1024,1024,1024,0,0,0,0,0,0,0,99,4.349,4.351,4.351,4.35,4.34,4.346,0,32,9819.6854818808,0,41,Motors_Started,
1600,2023-10-09 18:33:49,38.4981531735519,-112.064386932442,0,,,9819.6854818808,0.656168,0,0.0281353683544,0.232651910332,19,5,26.087,9819.6854818808,0,0,0.076455711108,0,0,0,149.1, -8.5, -2,0,0,1024,1024,1024,1024,0,0,0,0,0,0,0,99,4.349,4.351,4.351,4.35,4.34,4.346,0,32,9819.6854818808,0,41,Motors_Started,
1700,2023-10-09 18:33:49,38.4981531701247,-112.064386924667,0,,,9819.6854818808,0.656168,0,0.0294063001536,0.23520013876,19,5,26.087,9819.6854818808,0,0,0.076455711108,0,0,0,149.1, -8.6, -2,0,0,1024,1024,1024,1024,0,0,0,0,0,0,0,99,4.349,4.351,4.351,4.35,4.34,4.346,0,32,9819.6854818808,0,41,Motors_Started,
1800,2023-10-09 18:33:49,38.4981531938895,-112.06438692847,0,,,9819.6854818808,0.656168,0,0.033592192676,0.243938328016,19,5,26.087,9819.6854818808,0,0,0.076455711108,0,0,0,149.1, -8.6, -2.1,0,0,1024,1024,1024,1024,0,0,0,0,0,0,0,99,4.349,4.351,4.351,4.35,4.34,4.346,0,32,9819.6854818808,0,41,Motors_Started,
1900,2023-10-09 18:33:49,38.4981531954139,-112.064386920804,0,,,9819.6854818808,0.656168,0,0.035597114,0.246196858272,19,5,26.087,9819.6854818808,0,0,0.076455711108,0,0,0,149.1, -8.5, -2.1,0,0,1024,1024,1024,1024,0,0,0,0,0,0,0,99,4.349,4.351,4.351,4.35,4.34,4.346,0,32,9819.6854818808,0,41,Motors_Started,
2000,2023-10-09 18:33:49,38.4981531970121,-112.064386930011,0,,,9819.6854818808,0.656168,0,0.034057087704,0.248889771744,19,5,25.996,9819.6854818808,0,0,0.076455711108,0,0,0,149.1, -8.5, -2.1,0,0,1024,1024,1024,1024,0,0,0,0,0,0,0,99,4.334,4.337,4.338,4.334,4.326,4.327,0,32,9819.6854818808,0,41,Motors_Started,
2100,2023-10-09 18:33:49,38.4981532003316,-112.064386922759,0,,,9819.6854818808,0.656168,0,0.036388124524,0.251288721952,19,5,25.996,9819.6854818808,0,0,0.076455711108,0,0,0,149.1, -8.5, -2.1,0,0,1024,1024,1024,1024,0,0,0,0,0,0,0,99,4.334,4.337,4.338,4.334,4.326,4.327,0,32,9819.6854818808,0,10,Assisted_Takeoff,
2200,2023-10-09 18:33:49,38.4981532013922,-112.064386931683,0,,,9819.6854818808,0.656168,0,0.034866470932,0.253866149856,19,5,25.996,9819.6854818808,0,0,0.076455711108,0,0,0,149.1, -8.5, -2.1,0,0,1024,1024,1024,1024,0,0,0,0,0,0,0,99,4.334,4.337,4.338,4.334,4.326,4.327,0,32,9819.6854818808,0,10,Assisted_Takeoff,
2300,2023-10-09 18:33:49,38.4981532061333,-112.064386925019,0,,,9819.6854818808,0.656168,0,0.037430447392,0.256438000332,19,5,25.996,9819.6854818808,0,0,0.076455711108,0,0,0,149.1, -8.5, -2.1,0,0,1024,1024,1024,1024,0,0,0,0,0,0,0,99,4.334,4.337,4.338,4.334,4.326,4.327,0,32,9819.6854818808,0,10,Assisted_Takeoff,
2400,2023-10-09 18:33:49,38.4981532068008,-112.064386934331,0,,,9819.6854818808,0.656168,0,0.035840552328,0.259107947924,19,5,25.996,9819.6854818808,0,0,0.076455711108,0,0,0,149.1, -8.5, -2.1,0,0,1024,1024,1024,1024,0,0,0,0,0,0,0,99,4.334,4.337,4.338,4.334,4.326,4.327,0,32,9819.6854818808,0,10,Assisted_Takeoff,
2500,2023-10-09 18:33:49,38.4981532127654,-112.064386929039,0,,,9819.6854818808,0.656168,0,0.03847933194,0.261757554308,19,5,25.996,9819.6854818808,0,0,0.076455711108,0,0,0,149.1, -8.5, -2.1,0,0,1024,1024,1024,1024,0,0,0,0,0,0,0,99,4.334,4.337,4.338,4.334,4.326,4.327,0,32,9819.6854818808,0,10,Assisted_Takeoff,
2600,2023-10-09 18:33:50,38.4981532070391,-112.0643869378,0,,,9819.6854818808,0.656168,0,0.035278544436,0.265017068848,19,5,25.996,9819.6854818808,0,0,0.076455711108,0,0,0,149.1, -8.5, -2.1,0,0,1024,1024,1024,1024,0,0,0,0,0,0,0,99,4.334,4.337,4.338,4.334,4.326,4.327,0,32,9819.6854818808,0,10,Assisted_Takeoff,
2700,2023-10-09 18:33:50,38.4981532139883,-112.064386934512,0,,,9819.6854818808,0.656168,0,0.037853019584,0.267720481008,19,5,25.996,9819.6854818808,0,0,0.076455711108,0,0,0,149.1, -8.5, -2.1,0,0,1024,1024,1024,1024,0,0,0,0,0,0,0,99,4.334,4.337,4.338,4.334,4.326,4.327,0,32,9819.6854818808,0,10,Assisted_Takeoff,
2800,2023-10-09 18:33:50,38.4981532128771,-112.064386782922,0,,,9819.6854818808,0.656168,0,0.072634188676,0.311007555884,19,5,25.996,9819.6854818808,0,0,0.076455711108,0,0,0,149.1, -8.5, -2.1,0,0,1024,1024,1024,1024,0,0,0,0,0,0,0,99,4.334,4.337,4.338,4.334,4.326,4.327,0,32,9819.6854818808,0,10,Assisted_Takeoff,
2900,2023-10-09 18:33:50,38.4981532195478,-112.064386763322,0,,,9819.6854818808,0.656168,0,0.07873687916,0.317110574452,19,5,25.996,9819.6854818808,0,0,0.07873687916,0,0,0,149.1, -8.5, -2.1,0,0,1024,1024,1024,1024,0,0,0,0,0,0,0,99,4.334,4.337,4.338,4.334,4.326,4.327,0,32,9819.6854818808,0,10,Assisted_Takeoff,
3000,2023-10-09 18:33:50,38.4981532096755,-112.064386795332,0,,,9819.6854818808,0.656168,0,0.068923558636,0.326934721748,19,5,25.996,9819.6854818808,0,0,0.07873687916,0,0,0,149.1, -8.5, -2.1,0,0,1024,1024,1024,1024,0,0,0,0,0,0,0,99,4.334,4.337,4.338,4.334,4.326,4.327,0,32,9819.6854818808,0,10,Assisted_Takeoff,
3100,2023-10-09 18:33:50,38.4981532172219,-112.064386779295,0,,,9819.6854818808,0.656168,0,0.074233598176,0.33227691352,19,5,26.056,9819.6854818808,0,0,0.07873687916,0,0,0,149.1, -8.5, -2.1,0,0,1024,1024,1024,1024,0,0,0,0,0,0,0,99,4.344,4.345,4.344,4.348,4.334,4.341,0,32,9819.6854818808,0,10,Assisted_Takeoff,
3200,2023-10-09 18:33:50,38.4981530542649,-112.064386799836,0,,,9819.6854818808,0.656168,0,0.067654529724,0.39202100992,19,5,26.056,9819.6854818808,0,0,0.07873687916,0,0,0,149.1, -8.5, -2.1,0,0,1024,1024,1117,1024,0,0,14,0,0,0,0,99,4.344,4.345,4.344,4.348,4.334,4.341,0,32,9819.6854818808,0,10,Assisted_Takeoff,
3300,2023-10-09 18:33:50,38.4981530471382,-112.064386784275,0,,,9819.6854818808,0.656168,0,0.072779529888,0.39716864788,19,5,26.056,9819.6854818808,0,0,0.07873687916,0,0,0,149.1, -8.5, -2.1,0,0,1024,1024,1187,1024,0,0,25,0,0,0,0,99,4.344,4.345,4.344,4.348,4.334,4.341,0,32,9819.6854818808,0,10,Assisted_Takeoff,
3400,2023-10-09 18:33:50,38.4981530629191,-112.064386807141,0,,,9819.6854818808,0.656168,0,0.064472443008,0.40587599724,19,5,26.056,9819.6854818808,0,0,0.07873687916,0,0,0,149.1, -8.5, -2.1,0,0,1024,1024,1291,1024,0,0,40,0,0,0,0,99,4.344,4.345,4.344,4.348,4.334,4.341,0,32,9819.6854818808,0,10,Assisted_Takeoff,
3500,2023-10-09 18:33:50,38.4981530590488,-112.064386794585,0,,,9819.6854818808,0.656168,0,0.068324805336,0.4097277034,19,5,26.056,9819.6854818808,0,0,0.07873687916,0,0,0,149.1, -8.4, -2.1,0,0,1024,1024,1340,1024,0,0,48,0,0,0,0,99,4.344,4.345,4.344,4.348,4.334,4.341,0,32,9819.6854818808,0,10,Assisted_Takeoff,
3600,2023-10-09 18:33:51,38.4981532308092,-112.064386812468,0,,,9819.6854818808,0.656168,0,0.068253939192,0.47260172116,19,5,26.056,9819.6854818808,0,0,0.07873687916,0,0,0,149.1, -8.3, -2.1,0,0,1024,1024,1390,1024,0,0,55,0,0,0,0,99,4.344,4.345,4.344,4.348,4.334,4.341,0,32,9819.6854818808,0,10,Assisted_Takeoff,
3700,2023-10-09 18:33:51,38.4981532449512,-112.064386802157,0,,,9819.6854818808,0.656168,0,0.073539700516,0.4785433224,19,5,26.056,9819.6854818808,0,0,0.07873687916,0,0,0,149.1, -8.2, -2.1,0,0,1024,1024,1418,1024,0,0,60,0,0,0,0,99,4.344,4.345,4.344,4.348,4.334,4.341,0,32,9819.6854818808,0,10,Assisted_Takeoff,
3800,2023-10-09 18:33:51,38.4981530692166,-112.064386661359,0,,,9819.6854818808,0.656168,0,0.103559386516,0.55422245868,19,5,26.056,9819.6854818808,0,0,0.103559386516,0,0,0,149.1, -8.3, -2.1,0,0,1024,1024,1464,1024,0,0,67,0,0,0,0,99,4.344,4.345,4.344,4.348,4.334,4.341,0,32,9819.6854818808,0,10,Assisted_Takeoff,
3900,2023-10-09 18:33:51,38.4981530650351,-112.06438663881,0,,,9819.6854818808,0.656168,0,0.110175856544,0.56083991296,19,5,26.056,9819.6854818808,0,0,0.110175856544,0,0,0,149, -8.2, -2.1,0,0,1024,1024,1493,1024,0,0,71,0,0,0,0,99,4.344,4.345,4.344,4.348,4.334,4.341,0,32,9819.6854818808,0,10,Assisted_Takeoff,
4000,2023-10-09 18:33:51,38.4981530681513,-112.064386675545,0,,,9819.6854818808,0.656168,0,0.09970144676,0.5713910944,19,5,26.056,9819.6854818808,0,0,0.110175856544,0,0,0,149, -8.1, -2.1,0,0,1024,1024,1466,1024,0,0,67,0,0,0,0,99,4.344,4.345,4.344,4.348,4.334,4.341,0,32,9819.6854818808,0,10,Assisted_Takeoff,
4100,2023-10-09 18:33:51,38.4981530635585,-112.064386655839,0,,,9819.6854818808,0.656168,0,0.105563979756,0.57726051716,19,5,26.052,9819.6854818808,0,0,0.110175856544,0,0,0,149, -7.9, -2.1,0,0,1024,1024,1488,1024,0,0,70,0,0,0,0,99,4.343,4.346,4.345,4.344,4.335,4.339,0,32,9819.6854818808,0,10,Assisted_Takeoff,
4200,2023-10-09 18:33:51,38.4981530679781,-112.064386689949,0,,,9819.6854818808,0.656168,0,0.095721131672,0.58713256472,19,5,26.052,9819.6854818808,0,0,0.110175856544,0,0,0,149.1, -7.1, -2.1,0,0,1024,1024,1488,1024,0,0,70,0,0,0,0,99,4.343,4.346,4.345,4.344,4.335,4.339,0,32,9819.6854818808,0,10,Assisted_Takeoff,
4300,2023-10-09 18:33:51,38.498153041681,-112.064386645505,0,,,9819.6854818808,0.656168,0,0.11053642086,0.60304135788,19,5,26.052,9819.6854818808,0,0,0.11053642086,0,0,0,149, -4.9, -2,0,0,1024,1024,1484,1024,0,0,70,0,0,0,0,99,4.343,4.346,4.345,4.344,4.335,4.339,0,32,9819.6854818808,0,10,Assisted_Takeoff,
4400,2023-10-09 18:33:51,38.4981531458499,-112.064386583683,0,,,9819.6854818808,0.656168,0,0.123312339904,0.6449475272,19,5,26.052,9819.6854818808,0,0,0.123312339904,0,0,-0.223694,148.4, 0, -1.1,0,0,1024,1024,1463,1024,0,0,67,0,0,0,0,99,4.343,4.346,4.345,4.344,4.335,4.339,0,32,9819.6854818808,0,6,P-GPS,
4500,2023-10-09 18:33:51,38.4981530747279,-112.064386465171,0,,,9819.6854818808,0.656168,0,0.15841043814,0.68759188552,19,5,26.052,9819.6854818808,0,0,0.15841043814,0,0,-0.671082,147.7, 4.5, -0.4,0,0,1024,1024,1442,1024,0,0,63,0,0,0,0,99,4.343,4.346,4.345,4.344,4.335,4.339,0,32,9819.6854818808,0,6,P-GPS,
4600,2023-10-09 18:33:52,38.4981528537857,-112.064386447516,0,,,9819.6854818808,0.984252,0,0.191177171472,0.76835960464,19,5,26.052,9819.6854818808,0,0,0.191177171472,0,0,-0.894776,147.3, 6.5, -0.2,0,0,1024,1024,1443,1024,0,0,63,0,0,0,0,99,4.343,4.346,4.345,4.344,4.335,4.339,0,32,9819.6854818808,0,6,P-GPS,
4700,2023-10-09 18:33:52,38.4981528850591,-112.064386476441,0.328084,,,9820.0135658808,0.984252,0,0.178202761608,0.78244425076,19,5,26.052,9820.0135658808,0.328084,0,0.191177171472,0,0,-1.342164,147, 5.7, -0.2,0,0,1024,1024,1424,1024,0,0,61,0,0,0,0,99,4.343,4.346,4.345,4.344,4.335,4.339,0,32,9820.0135658808,0.328084,6,P-GPS,
4800,2023-10-09 18:33:52,38.4981531347759,-112.064386562976,0.656168,,,9820.3416498808,1.312336,0.3131716,0.129121067124,0.87684714092,19,5,26.052,9820.3416498808,0.656168,0.3131716,0.191177171472,0.223694,-0.223694,-1.789552,146.7, 3.8, 0,0,0,1024,1024,1434,1024,0,0,62,0,0,0,0,99,4.343,4.346,4.345,4.344,4.335,4.339,0,32,9820.3416498808,0.656168,6,P-GPS,
4900,2023-10-09 18:33:52,38.4981532773536,-112.064386718953,0.984252,,,9820.6697338808,1.64042,0.3131716,0.09989829716,0.94532811424,19,5,26.052,9820.6697338808,0.984252,0.3131716,0.191177171472,0.223694,-0.223694,-2.23694,146.3, 1.5, 0,0,0,1024,1024,1438,1024,0,0,63,0,0,0,0,99,4.343,4.346,4.345,4.344,4.335,4.339,0,32,9820.6697338808,0.984252,6,P-GPS,
5000,2023-10-09 18:33:52,38.4981533171896,-112.064387057286,1.312336,,,9820.9978178808,1.968504,0.3131716,0.06875656388,1.04302168692,19,5,26.052,9820.9978178808,1.312336,0.3131716,0.191177171472,0.223694,-0.223694,-2.684328,146.2, -0.2, 0,0,0,1024,1024,1456,1024,0,0,65,0,0,0,0,99,4.343,4.346,4.345,4.344,4.335,4.339,0,32,9820.9978178808,1.312336,6,P-GPS,
5100,2023-10-09 18:33:52,38.4981534356232,-112.064387282751,1.64042,,,9821.3259018808,2.296588,0.3131716,0.134679794336,1.12055777864,19,5,25.407,9821.3259018808,1.64042,0.3131716,0.191177171472,0.223694,-0.223694,-3.131716,146.1, -1.2, 0,0,0,1024,1024,1468,1024,0,0,67,0,0,0,0,99,4.229,4.249,4.244,4.235,4.221,4.229,0,32,9821.3259018808,1.64042,6,P-GPS,
5200,2023-10-09 18:33:52,38.4981533723118,-112.064387275299,2.296588,,,9821.9820698808,2.952756,0.223694,0.115012798956,1.14375659828,19,5,25.407,9821.9820698808,2.296588,0.3131716,0.191177171472,0,-0.223694,-3.579104,146.2, -1.6, -0.3,0,0,1024,1024,1486,1024,0,0,70,0,0,0,0,99,4.229,4.249,4.244,4.235,4.221,4.229,0,32,9821.9820698808,2.296588,6,P-GPS,
5300,2023-10-09 18:33:52,38.498153389046,-112.064387473563,2.624672,,,9822.3101538808,3.608924,0.223694,0.161099414604,1.20069557648,19,5,25.407,9822.3101538808,2.624672,0.3131716,0.191177171472,0,-0.223694,-4.250186,146.4, -1.2, -0.9,0,0,1024,1024,1489,1024,0,0,70,0,0,0,0,99,4.229,4.249,4.244,4.235,4.221,4.229,0,32,9822.3101538808,2.624672,6,P-GPS,
5400,2023-10-09 18:33:52,38.4981534698825,-112.064387716924,3.28084,,,9822.9663218808,4.265092,0.223694,0.235335309368,1.27618442404,19,5,25.407,9822.9663218808,3.28084,0.3131716,0.235335309368,0,-0.223694,-4.697574,146.5, -0.8, -1.5,0,0,1024,1024,1495,1024,0,0,71,0,0,0,0,99,4.229,4.249,4.244,4.235,4.221,4.229,0,32,9822.9663218808,3.28084,6,P-GPS,
5500,2023-10-09 18:33:52,38.4981534327546,-112.06438786801,4.265092,,,9823.9505738808,4.92126,0.223694,0.2671588012,1.32140424176,19,5,25.407,9823.9505738808,4.265092,0.3131716,0.2671588012,0,-0.223694,-5.368656,146.8, -0.7, -2.2,0,0,1024,1024,1494,1024,0,0,71,0,0,0,0,99,4.229,4.249,4.244,4.235,4.221,4.229,0,32,9823.9505738808,4.265092,6,P-GPS,
5600,2023-10-09 18:33:52,38.4981530673751,-112.064388085777,4.92126,,,9824.6067418808,5.577428,0.223694,0.306604996688,1.46850070316,19,5,25.407,9824.6067418808,4.92126,0.3131716,0.306604996688,0,-0.223694,-5.816044,147, -0.7, -2.5,0,0,1024,1024,1519,1024,0,0,75,0,0,0,0,99,4.229,4.249,4.244,4.235,4.221,4.229,0,32,9824.6067418808,4.92126,6,P-GPS,
5700,2023-10-09 18:33:53,38.4981529671893,-112.064388146496,5.905512,,,9825.5909938808,6.56168,0,0.32856956432,1.5089567412,19,5,25.407,9825.5909938808,5.905512,0.3131716,0.32856956432,0,0,-6.263432,147.1, -0.7, -2.5,0,0,1024,1024,1519,1024,0,0,75,0,0,0,0,99,4.229,4.249,4.244,4.235,4.221,4.229,0,32,9825.5909938808,5.905512,6,P-GPS,
5800,2023-10-09 18:33:53,38.4981527087819,-112.064388149883,6.889764,,,9826.5752458808,7.217848,0,0.35886812172,1.60324152112,19,5,25.407,9826.5752458808,6.889764,0.3131716,0.35886812172,0,0,-6.71082,147.2, -0.7, -2.2,0,0,1085,1024,1512,1024,9,0,74,0,0,0,0,99,4.229,4.249,4.244,4.235,4.221,4.229,0,32,9826.5752458808,6.889764,6,P-GPS,
5900,2023-10-09 18:33:53,38.4981525607484,-112.064388111693,7.874016,,,9827.5594978808,8.2021,0,0.37605972332,1.65834322892,19,5,25.407,9827.5594978808,7.874016,0.3131716,0.37605972332,0,0,-6.934514,147.3, -0.5, -2,0,0,1266,1024,1494,1024,37,0,71,0,0,0,0,99,4.229,4.249,4.244,4.235,4.221,4.229,0,32,9827.5594978808,7.874016,6,P-GPS,
6000,2023-10-09 18:33:53,38.4981525998324,-112.064388242308,8.858268,,,9828.5437498808,8.858268,0,0.40053807056,1.69827105172,19,5,25.407,9828.5437498808,8.858268,0.3131716,0.40053807056,0,0,-7.381902,147.5, -0.3, -1.9,0,0,1343,1024,1500,1024,48,0,72,0,0,0,0,99,4.229,4.249,4.244,4.235,4.221,4.229,0,32,9828.5437498808,8.858268,6,P-GPS,
6100,2023-10-09 18:33:53,38.4981524413207,-112.064388148044,9.84252,,,9829.5280018808,9.84252,0.223694,0.4099737664,1.76206042384,19,5,25.178,9829.5280018808,9.84252,0.3131716,0.4099737664,-0.223694,0,-7.605596,147.7, -1.1, -1.5,0,0,1426,1024,1498,1024,61,0,72,0,0,0,0,99,4.198,4.193,4.201,4.2,4.194,4.192,0,32,9829.5280018808,9.84252,6,P-GPS,
6200,2023-10-09 18:33:53,38.4981523954284,-112.064388001457,11.154856,,,9830.8403378808,10.498688,0.223694,0.38918636416,1.80714244628,19,5,25.178,9830.8403378808,11.154856,0.3131716,0.4099737664,-0.223694,0,-7.605596,147.8, -4.1, -0.9,0,0,1528,1024,1497,1024,76,0,72,0,0,0,0,99,4.198,4.193,4.201,4.2,4.194,4.192,0,32,9830.8403378808,11.154856,6,P-GPS,
6300,2023-10-09 18:33:53,38.4981521530485,-112.06438781621,12.139108,,,9831.8245898808,11.154856,0.4921268,0.42402560412,1.910187069,19,5,25.178,9831.8245898808,12.139108,0.4921268,0.42402560412,-0.447388,0.223694,-7.605596,147.9, -8.6, -0.5,0,0,1557,1024,1496,1024,81,0,72,0,0,0,0,99,4.198,4.193,4.201,4.2,4.194,4.192,0,32,9831.8245898808,12.139108,6,P-GPS,
6400,2023-10-09 18:33:53,38.4981518396938,-112.064387657642,13.451444,,,9833.1369258808,11.811024,0.8052984,0.50581038364,2.0331529522,19,5,25.178,9833.1369258808,13.451444,0.8052984,0.50581038364,-0.671082,0.447388,-7.605596,147.8, -13.8, -0.2,0,0,1637,1024,1497,988,93,0,72,-5,0,0,0,99,4.198,4.193,4.201,4.2,4.194,4.192,0,32,9833.1369258808,13.451444,6,P-GPS,
6500,2023-10-09 18:33:53,38.4981512652109,-112.064387245562,14.435696,,,9834.1211778808,12.795276,1.4987498,0.684137161,2.2735236948,19,5,25.178,9834.1211778808,14.435696,1.4987498,0.684137161,-1.342164,0.671082,-7.605596,147.8, -18.2, 0,0,0,1675,1024,1503,981,99,0,73,-7,0,0,0,99,4.198,4.193,4.201,4.2,4.194,4.192,0,32,9834.1211778808,14.435696,6,P-GPS,
6600,2023-10-09 18:33:54,38.4981504162447,-112.064386670711,15.748032,,,9835.4335138808,13.451444,2.3040482,0.99558074052,2.62407160628,19,5,25.178,9835.4335138808,15.748032,2.3040482,0.99558074052,-2.013246,1.11847,-7.381902,147.7, -21, -0.1,0,0,1684,1024,1510,963,100,0,74,-9,0,0,0,99,4.198,4.193,4.201,4.2,4.194,4.192,0,32,9835.4335138808,15.748032,6,P-GPS,
6700,2023-10-09 18:33:54,38.4981492745069,-112.064385872327,16.732284,,,9836.4177658808,8.858268,3.3106712,1.44461290712,3.09893710704,19,5,25.178,9836.4177658808,16.732284,3.3106712,1.44461290712,-2.908022,1.565858,-7.381902,147.3, -22.8, -0.7,0,0,1684,1024,1514,931,100,0,74,-14,0,0,0,99,4.198,4.193,4.201,4.2,4.194,4.192,0,32,9836.4177658808,16.732284,6,P-GPS,
6800,2023-10-09 18:33:54,38.4981477978032,-112.064384728508,18.04462,,,9837.7301018808,9.84252,4.1159696,2.05266410768,3.7289699356,19,5,25.178,9837.7301018808,18.04462,4.1159696,2.05266410768,-3.579104,2.013246,-7.381902,146.8, -23.2, -1.8,0,0,1684,1024,1514,948,100,0,74,-12,0,0,0,99,4.198,4.193,4.201,4.2,4.194,4.192,0,32,9837.7301018808,18.04462,6,P-GPS,
6900,2023-10-09 18:33:54,38.4981460090626,-112.064383389428,19.028872,,,9838.7143538808,5.249344,5.2120702,2.79730651996,4.4853675976,19,5,25.178,9838.7143538808,19.028872,5.2120702,2.79730651996,-4.47388,2.684328,-7.381902,146, -22.5, -3.2,0,0,1684,1024,1517,991,100,0,75,-5,0,0,0,99,4.198,4.193,4.201,4.2,4.194,4.192,0,32,9838.7143538808,19.028872,6,P-GPS,
7000,2023-10-09 18:33:54,38.4981439348633,-112.064381775732,20.013124,,,9839.6986058808,6.233596,6.0173686,3.6738518236,5.3713584396,19,5,25.178,9839.6986058808,20.013124,6.0173686,3.6738518236,-5.144962,3.131716,-7.381902,145.3, -21.1, -4.7,0,0,1684,1024,1529,992,100,0,77,-5,0,0,0,99,4.198,4.193,4.201,4.2,4.194,4.192,0,32,9839.6986058808,20.013124,6,P-GPS,
7100,2023-10-09 18:33:54,38.4981416008013,-112.064379825146,21.32546,,,9841.0109418808,6.889764,6.9568834,4.6812337456,6.3889109656,19,5,25.384,9841.0109418808,21.32546,6.9568834,4.6812337456,-5.816044,3.802798,-7.158208,144.4, -20.5, -5.1,0,0,1684,1024,1535,978,100,0,77,-7,0,0,0,99,4.228,4.235,4.234,4.236,4.224,4.227,0,32,9841.0109418808,21.32546,6,P-GPS,
7200,2023-10-09 18:33:54,38.4981389366522,-112.0643774457,22.309712,,,9841.9951938808,3.608924,7.5608572,5.8556760404,7.5748690088,19,5,25.384,9841.9951938808,22.309712,7.5608572,5.8556760404,-6.263432,4.250186,-6.934514,144.1, -21, -4.8,0,0,1684,1024,1535,982,100,0,77,-6,0,0,0,99,4.228,4.235,4.234,4.236,4.224,4.227,0,32,9841.9951938808,22.309712,6,P-GPS,
7300,2023-10-09 18:33:54,38.4981361769118,-112.064374927974,23.293964,,,9842.9794458808,4.593176,8.3214168,7.0836288356,8.8120409644,19,5,25.384,9842.9794458808,23.293964,8.3214168,7.0836288356,-6.71082,4.921268,-6.487126,143.8, -22.5, -4.4,0,0,1684,1024,1534,981,100,0,77,-7,0,0,0,99,4.228,4.235,4.234,4.236,4.224,4.227,0,32,9842.9794458808,23.293964,6,P-GPS,
7400,2023-10-09 18:33:54,38.4981331514304,-112.064372476567,24.278216,,,9843.9636978808,5.577428,9.1267152,8.388943838,10.1191276204,19,5,25.384,9843.9636978808,24.278216,9.1267152,8.388943838,-7.381902,5.368656,-5.816044,143.5, -23.7, -3.7,0,0,1684,1024,1530,973,100,0,77,-8,0,0,0,99,4.228,4.235,4.234,4.236,4.224,4.227,0,32,9843.9636978808,24.278216,6,P-GPS,
7500,2023-10-09 18:33:54,38.4981300170576,-112.064369504804,24.934384,,,9844.6198658808,6.233596,9.7530584,9.8041013636,11.543143414,19,5,25.384,9844.6198658808,24.934384,9.7530584,9.8041013636,-7.82929,5.816044,-5.144962,143.3, -24.3, -3.1,0,0,1684,1024,1527,976,100,0,76,-7,0,0,0,99,4.228,4.235,4.234,4.236,4.224,4.227,0,32,9844.6198658808,24.934384,6,P-GPS,
7600,2023-10-09 18:33:55,38.4981267087425,-112.06436667153,25.590552,,,9845.2760338808,6.889764,10.3794016,11.255249704,12.99622745,19,5,25.384,9845.2760338808,25.590552,10.3794016,11.255249704,-8.276678,6.263432,-4.47388,143.1, -24.7, -2.5,0,0,1684,1024,1527,977,100,0,76,-7,0,0,0,99,4.228,4.235,4.234,4.236,4.224,4.227,0,32,9845.2760338808,25.590552,6,P-GPS,
7700,2023-10-09 18:33:55,38.4981232234109,-112.064363308216,26.24672,,,9845.9322018808,7.217848,10.8715284,12.8411749516,14.5897642464,19,5,25.384,9845.9322018808,26.24672,10.8715284,12.8411749516,-8.724066,6.487126,-3.579104,143, -24.8, -2.2,0,0,1684,1024,1522,969,100,0,75,-8,0,0,0,99,4.228,4.235,4.234,4.236,4.224,4.227,0,32,9845.9322018808,26.24672,6,P-GPS,
7800,2023-10-09 18:33:55,38.4981192755338,-112.064359800721,26.902888,,,9846.5883698808,7.217848,11.4978716,14.5934059788,16.3440950112,19,5,25.384,9846.5883698808,26.902888,11.4978716,14.5934059788,-9.171454,6.934514,-2.684328,142.9, -24.8, -1.8,0,0,1684,1024,1524,961,100,0,76,-10,0,0,0,99,4.228,4.235,4.234,4.236,4.224,4.227,0,32,9846.5883698808,26.902888,6,P-GPS,
7900,2023-10-09 18:33:55,38.4981154287516,-112.064356058266,27.230972,,,9846.9164538808,7.217848,12.1242148,16.3511488172,18.1081370624,19,5,25.384,9846.9164538808,27.230972,12.1242148,16.3511488172,-9.618842,7.381902,-1.789552,142.8, -24.6, -1.6,0,0,1684,1024,1526,956,100,0,76,-10,0,0,0,99,4.228,4.235,4.234,4.236,4.224,4.227,0,32,9846.9164538808,27.230972,6,P-GPS,
8000,2023-10-09 18:33:55,38.4981107662216,-112.064351930504,27.559056,,,9847.2445378808,7.217848,12.1242148,18.4195872036,20.1776909344,19,5,25.384,9847.2445378808,27.559056,12.1242148,18.4195872036,-10.06623,7.82929,-1.11847,142.6, -23.9, -1.7,0,0,1684,1024,1532,960,100,0,77,-10,0,0,0,99,4.228,4.235,4.234,4.236,4.224,4.227,0,32,9847.2445378808,27.559056,6,P-GPS,
8100,2023-10-09 18:33:55,38.4981064864427,-112.064347761286,27.559056,,,9847.2445378808,7.217848,13.3769012,20.377953408,22.1412080576,19,5,25.384,9847.2445378808,27.559056,13.3769012,20.377953408,-10.513618,8.276678,-0.671082,142.4, -23, -1.9,0,0,1684,1024,1571,958,100,0,83,-10,0,0,0,99,4.228,4.235,4.234,4.236,4.224,4.227,0,32,9847.2445378808,27.559056,6,P-GPS,
8200,2023-10-09 18:33:55,38.4981020736889,-112.064343646355,27.559056,,,9847.2445378808,7.217848,14.0032444,22.3690295872,24.134351166,19,5,25.581,9847.2445378808,27.559056,14.0032444,22.3690295872,-10.961006,8.724066,-0.223694,142, -22.1, -2.1,0,0,1684,1024,1579,959,100,0,84,-10,0,0,0,99,4.268,4.273,4.262,4.268,4.257,4.253,0,32,9847.2445378808,27.559056,6,P-GPS,
8300,2023-10-09 18:33:55,38.4980974123684,-112.064339063562,27.88714,,,9847.5726218808,7.217848,14.6295876,24.5102041964,26.2802173764,19,5,25.581,9847.5726218808,27.88714,14.6295876,24.5102041964,-11.408394,9.171454,-0.223694,141.6, -21, -2.5,0,0,1684,1024,1577,970,100,0,84,-8,0,0,0,99,4.268,4.273,4.262,4.268,4.257,4.253,0,32,9847.5726218808,27.88714,6,P-GPS,
8400,2023-10-09 18:33:55,38.4980922811447,-112.064334255851,27.88714,,,9847.5726218808,7.217848,15.434886,26.8300205436,28.6017397604,19,5,25.581,9847.5726218808,27.88714,15.434886,26.8300205436,-12.079476,9.618842,0,141, -20.1, -3,0,0,1684,1024,1530,994,100,0,77,-5,0,0,0,99,4.268,4.273,4.262,4.268,4.257,4.253,0,32,9847.5726218808,27.88714,6,P-GPS,
8500,2023-10-09 18:33:55,38.4980872295784,-112.064329225199,27.88714,,,9847.5726218808,7.217848,16.0612292,29.162074424,30.9384524336,19,5,25.581,9847.5726218808,27.88714,16.0612292,29.162074424,-12.526864,10.06623,0,140.6, -19.8, -3.3,0,0,1682,1024,1492,1018,100,0,71,-1,0,0,0,99,4.268,4.273,4.262,4.268,4.257,4.253,0,32,9847.5726218808,27.88714,6,P-GPS,
8600,2023-10-09 18:33:56,38.4980827741081,-112.064323870027,27.88714,,,9847.5726218808,7.217848,16.5309866,31.3694891928,33.170276652,19,5,25.581,9847.5726218808,27.88714,16.5309866,31.3694891928,-12.750558,10.513618,-0.223694,140.1, -20.1, -3.3,0,0,1658,1024,1488,1018,96,0,70,-1,0,0,0,99,4.268,4.273,4.262,4.268,4.257,4.253,0,32,9847.5726218808,27.88714,6,P-GPS,
8700,2023-10-09 18:33:56,38.4980774549523,-112.064318351758,27.88714,,,9847.5726218808,7.217848,16.5309866,33.863846228,35.669948648,19,5,25.581,9847.5726218808,27.88714,16.5309866,33.863846228,-13.197946,10.961006,-0.223694,139.6, -20.5, -2.6,0,0,1651,1024,1486,1024,95,0,70,0,0,0,0,99,4.268,4.273,4.262,4.268,4.257,4.253,0,32,9847.5726218808,27.88714,6,P-GPS,
8800,2023-10-09 18:33:56,38.4980715035817,-112.064312256617,27.88714,,,9847.5726218808,7.217848,17.783673,36.64206154,38.452757136,19,5,25.581,9847.5726218808,27.88714,17.783673,36.64206154,-13.645334,11.408394,-0.447388,139.2, -20.7, -2,0,0,1619,1024,1449,1024,90,0,64,0,0,0,0,99,4.268,4.273,4.262,4.268,4.257,4.253,0,32,9847.5726218808,27.88714,6,P-GPS,
8900,2023-10-09 18:33:56,38.4980657784026,-112.064306236261,27.88714,,,9847.5726218808,7.217848,18.5889714,39.341864776,41.1581378,19,5,25.581,9847.5726218808,27.88714,18.5889714,39.341864776,-14.316416,11.855782,-0.894776,138.7, -20.7, -1.7,0,0,1599,1024,1434,1024,87,0,62,0,0,0,0,99,4.268,4.273,4.262,4.268,4.257,4.253,0,32,9847.5726218808,27.88714,6,P-GPS,
9000,2023-10-09 18:33:56,38.4980597456321,-112.064299958165,28.215224,,,9847.9007058808,7.217848,18.5889714,42.176182452,43.996720568,19,5,25.581,9847.9007058808,28.215224,18.5889714,42.176182452,-14.763804,12.30317,-1.11847,138.3, -21.2, -2.3,0,0,1590,1024,1433,1024,86,0,62,0,0,0,0,99,4.268,4.273,4.262,4.268,4.257,4.253,0,32,9847.9007058808,28.215224,6,P-GPS,
9100,2023-10-09 18:33:56,38.4980536602933,-112.064293495528,28.215224,,,9847.9007058808,7.217848,19.685072,45.057744224,46.883859768,19,5,25.581,9847.9007058808,28.215224,19.685072,45.057744224,-14.987498,12.750558,-0.894776,138.3, -22.6, -3.8,0,0,1585,1024,1429,1024,85,0,61,0,0,0,0,99,4.268,4.273,4.262,4.268,4.257,4.253,0,32,9847.9007058808,28.215224,6,P-GPS,
9200,2023-10-09 18:33:56,38.4980472851741,-112.064287031987,28.543308,,,9848.2287898808,7.217848,20.3114152,48.025264004,49.853019968,19,5,25.24,9848.2287898808,28.543308,20.3114152,48.025264004,-15.434886,13.197946,-0.894776,138.3, -22.9, -4.1,0,0,1572,1024,1411,1024,83,0,59,0,0,0,0,99,4.208,4.212,4.207,4.208,4.201,4.204,0,32,9848.2287898808,28.543308,6,P-GPS,
9300,2023-10-09 18:33:56,38.4980409063042,-112.06428009926,28.543308,,,9848.2287898808,7.217848,20.3114152,51.073820532,52.90846626,19,5,25.24,9848.2287898808,28.543308,20.3114152,51.073820532,-15.882274,13.869028,-0.671082,138.2, -22, -3.4,0,0,1558,1024,1406,1024,81,0,58,0,0,0,0,99,4.208,4.212,4.207,4.208,4.201,4.204,0,32,9848.2287898808,28.543308,6,P-GPS,
9400,2023-10-09 18:33:56,38.4980342268132,-112.064272753137,28.543308,,,9848.2287898808,7.217848,21.5417322,54.281825884,56.12368946,19,5,25.24,9848.2287898808,28.543308,21.5417322,54.281825884,-16.105968,14.316416,-0.447388,138.1, -20.5, -2.3,0,0,1551,1024,1394,1024,80,0,56,0,0,0,0,99,4.208,4.212,4.207,4.208,4.201,4.204,0,32,9848.2287898808,28.543308,6,P-GPS,
9500,2023-10-09 18:33:56,38.4980275707762,-112.064265403556,28.543308,,,9848.2287898808,7.217848,21.8549038,57.484581892,59.333335232,19,5,25.24,9848.2287898808,28.543308,21.8549038,57.484581892,-16.329662,14.54011,-0.447388,138, -18.6, -1.4,0,0,1532,1024,1364,1024,77,0,52,0,0,0,0,99,4.208,4.212,4.207,4.208,4.201,4.204,0,32,9848.2287898808,28.543308,6,P-GPS,
9600,2023-10-09 18:33:56,38.4980212702236,-112.064258697697,28.543308,,,9848.2287898808,7.217848,21.8549038,60.473427132,62.325133228,19,5,25.24,9848.2287898808,28.543308,21.8549038,60.473427132,-16.77705,14.763804,-0.223694,138, -17, -1,0,0,1524,1024,1353,1024,76,0,50,0,0,0,0,99,4.208,4.212,4.207,4.208,4.201,4.204,0,32,9848.2287898808,28.543308,6,P-GPS,
9700,2023-10-09 18:33:57,38.4980144316577,-112.064251169849,28.871392,,,9848.5568738808,7.217848,22.6602022,63.760828812,65.61844042,19,5,25.24,9848.5568738808,28.871392,22.6602022,63.760828812,-17.000744,14.987498,-0.223694,138, -15.8, -1,0,0,1523,1024,1356,1024,76,0,50,0,0,0,0,99,4.208,4.212,4.207,4.208,4.201,4.204,0,32,9848.5568738808,28.871392,6,P-GPS,
9800,2023-10-09 18:33:57,38.4980073320231,-112.064243517434,28.871392,,,9848.5568738808,7.217848,22.9733738,67.146327608,69.007220056,19,5,25.24,9848.5568738808,28.871392,22.9733738,67.146327608,-17.224438,15.211192,-0.447388,137.8, -14.9, -1.1,0,0,1516,1024,1354,1024,75,0,50,0,0,0,0,99,4.208,4.212,4.207,4.208,4.201,4.204,0,32,9848.5568738808,28.871392,6,P-GPS,
9900,2023-10-09 18:33:57,38.4980003114763,-112.06423580715,28.871392,,,9848.5568738808,7.217848,23.2865454,70.519031128,72.384844836,19,5,25.24,9848.5568738808,28.871392,23.2865454,70.519031128,-17.448132,15.434886,-0.447388,137.7, -14.3, -1.3,0,0,1519,1024,1362,1024,75,0,51,0,0,0,0,99,4.208,4.212,4.207,4.208,4.201,4.204,0,32,9848.5568738808,28.871392,6,P-GPS,
10000,2023-10-09 18:33:57,38.4979926776475,-112.064227457083,28.871392,,,9848.5568738808,7.217848,23.6220864,74.18143282,76.051183536,19,5,25.24,9848.5568738808,28.871392,23.6220864,74.18143282,-17.671826,15.65858,-0.671082,137.6, -13.7, -1.5,0,0,1512,1024,1365,1024,74,0,52,0,0,0,0,99,4.208,4.212,4.207,4.208,4.201,4.204,0,32,9848.5568738808,28.871392,6,P-GPS,
10100,2023-10-09 18:33:57,38.4979854496193,-112.06421953876,29.199476,,,9848.8849578808,7.217848,23.7786722,77.651249204,79.524936928,19,5,25.345,9848.8849578808,29.199476,23.7786722,77.651249204,-17.89552,15.65858,-1.11847,137.4, -12.8, -1.3,0,0,1506,1024,1365,1024,73,0,52,0,0,0,0,99,4.221,4.229,4.228,4.23,4.214,4.223,0,32,9848.8849578808,29.199476,6,P-GPS,
10200,2023-10-09 18:33:57,38.4979778903914,-112.064211688471,29.199476,,,9848.8849578808,7.217848,23.935258,81.204727008,83.0790709,19,5,25.345,9848.8849578808,29.199476,23.935258,81.204727008,-17.89552,15.882274,-1.342164,137.3, -12.2, -1.1,0,0,1506,1024,1368,1024,73,0,52,0,0,0,0,99,4.221,4.229,4.228,4.23,4.214,4.223,0,32,9848.8849578808,29.199476,6,P-GPS,
10300,2023-10-09 18:33:57,38.497970529551,-112.064203672092,29.52756,,,9849.2130418808,7.217848,24.0918438,84.730645756,86.60761432,19,5,25.345,9849.2130418808,29.52756,24.0918438,84.730645756,-18.119214,15.882274,-1.11847,137.5, -13.4, -1.7,0,0,1506,1024,1369,1024,73,0,52,0,0,0,0,99,4.221,4.229,4.228,4.23,4.214,4.223,0,32,9849.2130418808,29.52756,6,P-GPS,
10400,2023-10-09 18:33:57,38.4979633519247,-112.064195657344,29.52756,,,9849.2130418808,7.217848,24.2484296,88.20374298,90.085632804,19,5,25.345,9849.2130418808,29.52756,24.2484296,88.20374298,-18.119214,16.105968,-0.894776,137.6, -14.5, -2.4,0,0,1504,1024,1368,1024,73,0,52,0,0,0,0,99,4.221,4.229,4.228,4.23,4.214,4.223,0,32,9849.2130418808,29.52756,6,P-GPS,
10500,2023-10-09 18:33:57,38.4979559367264,-112.064187505478,29.855644,,,9849.5411258808,7.217848,24.5616012,91.769687976,93.654530556,19,5,25.345,9849.5411258808,29.855644,24.5616012,91.769687976,-18.342908,16.329662,-0.671082,137.7, -14.9, -2.3,0,0,1496,1024,1364,1024,72,0,52,0,0,0,0,99,4.221,4.229,4.228,4.23,4.214,4.223,0,32,9849.5411258808,29.855644,6,P-GPS,
10600,2023-10-09 18:33:58,38.4979491081108,-112.064179936939,29.855644,,,9849.5411258808,7.217848,24.718187,95.064635588,96.952759008,19,5,25.345,9849.5411258808,29.855644,24.718187,95.064635588,-18.342908,16.553356,-0.447388,137.7, -14.1, -1.5,0,0,1496,1024,1359,1024,72,0,51,0,0,0,0,99,4.221,4.229,4.228,4.23,4.214,4.223,0,32,9849.5411258808,29.855644,6,P-GPS,
10700,2023-10-09 18:33:58,38.4979416754954,-112.064171656382,29.855644,,,9849.5411258808,7.217848,24.8747728,98.658795808,100.550528152,20,5,25.345,9849.5411258808,29.855644,24.8747728,98.658795808,-18.566602,16.553356,-0.223694,137.7, -12.9, -0.7,0,0,1479,1024,1349,1024,69,0,49,0,0,0,0,99,4.221,4.229,4.228,4.23,4.214,4.223,0,32,9849.5411258808,29.855644,6,P-GPS,
10800,2023-10-09 18:33:58,38.4979340896537,-112.064163303284,29.855644,,,9849.5411258808,7.217848,25.0313586,102.310042644,104.204071576,20,5,25.345,9849.5411258808,29.855644,25.0313586,102.310042644,-18.566602,16.77705,0,137.6, -11.8, -0.1,0,0,1469,1024,1338,1024,67,0,48,0,0,0,0,99,4.221,4.229,4.228,4.23,4.214,4.223,0,32,9849.5411258808,29.855644,6,P-GPS,
10900,2023-10-09 18:33:58,38.4979265921308,-112.064154921256,29.855644,,,9849.5411258808,7.217848,25.0313586,105.941276356,107.838914212,20,5,25.345,9849.5411258808,29.855644,25.0313586,105.941276356,-18.566602,16.77705,0,137.6, -10.8, 0.1,0,0,1467,1024,1336,1024,67,0,47,0,0,0,0,99,4.221,4.229,4.228,4.23,4.214,4.223,0,32,9849.5411258808,29.855644,6,P-GPS,
11000,2023-10-09 18:33:58,38.497919011307,-112.064146448613,29.855644,,,9849.5411258808,7.217848,25.0313586,109.612536316,111.513455012,20,5,25.345,9849.5411258808,29.855644,25.0313586,109.612536316,-18.566602,16.77705,0,137.6, -10.1, 0.3,0,0,1458,1024,1332,1024,66,0,47,0,0,0,0,99,4.221,4.229,4.228,4.23,4.214,4.223,0,32,9849.5411258808,29.855644,6,P-GPS,
11100,2023-10-09 18:33:58,38.497911482923,-112.064138017262,29.855644,,,9849.5411258808,7.217848,25.165575,113.261814648,115.166014184,20,5,25.402,9849.5411258808,29.855644,25.165575,113.261814648,-18.566602,17.000744,0,137.6, -9.7, 0.2,0,0,1447,1024,1334,1024,64,0,47,0,0,0,0,99,4.234,4.239,4.235,4.236,4.227,4.231,0,32,9849.5411258808,29.855644,6,P-GPS,
11200,2023-10-09 18:33:58,38.4979037837757,-112.064129550286,29.855644,,,9849.5411258808,7.217848,25.165575,116.966211092,118.872051048,20,5,25.402,9849.5411258808,29.855644,25.165575,116.966211092,-18.566602,17.000744,0,137.6, -9.3, 0.2,0,0,1453,1024,1334,1015,65,0,47,-1,0,0,0,99,4.234,4.239,4.235,4.236,4.227,4.231,0,32,9849.5411258808,29.855644,6,P-GPS,
11300,2023-10-09 18:33:58,38.4978962404922,-112.064121098235,29.855644,,,9849.5411258808,7.217848,25.165575,120.623691524,122.532484236,20,5,25.402,9849.5411258808,29.855644,25.165575,120.623691524,-18.566602,17.000744,0,137.5, -8.9, 0.4,0,0,1457,1024,1335,1016,66,0,47,-1,0,0,0,99,4.234,4.239,4.235,4.236,4.227,4.231,0,32,9849.5411258808,29.855644,6,P-GPS,
11400,2023-10-09 18:33:58,38.4978889188533,-112.064112628042,29.855644,,,9849.5411258808,7.217848,25.165575,124.222116836,126.136158892,20,5,25.402,9849.5411258808,29.855644,25.165575,124.222116836,-18.566602,17.000744,0,137.5, -8.5, 0.6,0,0,1455,1024,1338,1017,65,0,48,-1,0,0,0,99,4.234,4.239,4.235,4.236,4.227,4.231,0,32,9849.5411258808,29.855644,6,P-GPS,
11500,2023-10-09 18:33:58,38.4978814033995,-112.064104184284,29.855644,,,9849.5411258808,7.217848,25.165575,127.870739,129.787405728,20,5,25.402,9849.5411258808,29.855644,25.165575,127.870739,-18.566602,17.000744,0,137.6, -8.4, 0.6,0,0,1454,1024,1337,997,65,0,47,-4,0,0,0,99,4.234,4.239,4.235,4.236,4.227,4.231,0,32,9849.5411258808,29.855644,6,P-GPS,
11600,2023-10-09 18:33:59,38.4978738265489,-112.064095545748,29.855644,,,9849.5411258808,7.217848,25.165575,131.571854604,133.49245834,20,5,25.402,9849.5411258808,29.855644,25.165575,131.571854604,-18.566602,17.000744,0,137.5, -8.5, 0.6,0,0,1452,1024,1340,921,65,0,48,-16,0,0,0,99,4.234,4.239,4.235,4.236,4.227,4.231,0,32,9849.5411258808,29.855644,6,P-GPS,
11700,2023-10-09 18:33:59,38.4978663113349,-112.064087105731,29.855644,,,9849.5411258808,7.217848,25.165575,135.220148684,137.142720924,20,5,25.402,9849.5411258808,29.855644,25.165575,135.220148684,-18.566602,17.000744,0,137.4, -8.5, -1.2,0,0,1454,1024,1339,917,65,0,48,-16,0,0,0,99,4.234,4.239,4.235,4.236,4.227,4.231,0,32,9849.5411258808,29.855644,6,P-GPS,
11800,2023-10-09 18:33:59,38.4978587349296,-112.064078848107,29.855644,,,9849.5411258808,7.217848,25.165575,138.852694732,140.776251224,20,5,25.402,9849.5411258808,29.855644,25.165575,138.852694732,-18.566602,17.000744,0,137.1, -8.3, -4.6,0,0,1458,1024,1341,948,66,0,48,-12,0,0,0,99,4.234,4.239,4.235,4.236,4.227,4.231,0,32,9849.5411258808,29.855644,6,P-GPS,
11900,2023-10-09 18:33:59,38.4978512811808,-112.064070330582,29.855644,,,9849.5411258808,7.217848,25.165575,142.497707972,144.424545304,20,5,25.402,9849.5411258808,29.855644,25.165575,142.497707972,-18.342908,17.224438,0,136.4, -7.9, -9,0,0,1460,1024,1347,961,66,0,49,-10,0,0,0,99,4.234,4.239,4.235,4.236,4.227,4.231,0,32,9849.5411258808,29.855644,6,P-GPS,
12000,2023-10-09 18:33:59,38.497843585202,-112.064060959983,29.855644,,,9849.5411258808,7.217848,25.2997914,146.366146416,148.303154352,20,5,25.402,9849.5411258808,29.855644,25.2997914,146.366146416,-18.119214,17.671826,-0.223694,135.4, -7.3, -10.3,0,0,1461,1024,1347,959,66,0,49,-10,0,0,0,99,4.234,4.239,4.235,4.236,4.227,4.231,0,32,9849.5411258808,29.855644,6,P-GPS,
12100,2023-10-09 18:33:59,38.497836367655,-112.064052059511,29.855644,,,9849.5411258808,7.217848,25.1432056,150.01476858,151.962931372,20,5,25.402,9849.5411258808,29.855644,25.2997914,150.01476858,-17.671826,17.89552,-0.447388,134.4, -6.5, -8.7,0,0,1461,1024,1347,959,66,0,49,-10,0,0,0,99,4.234,4.239,4.235,4.236,4.227,4.231,0,32,9849.5411258808,29.855644,6,P-GPS,
12200,2023-10-09 18:33:59,38.497830086592,-112.064043887251,29.855644,,,9849.5411258808,7.217848,25.1432056,153.268377608,155.233600768,20,5,25.138,9849.5411258808,29.855644,25.2997914,153.268377608,-17.448132,18.119214,-0.447388,134, -7.5, -7,0,0,1462,1024,1348,962,66,0,49,-9,0,0,0,99,4.217,4.16,4.18,4.214,4.147,4.22,0,32,9849.5411258808,29.855644,6,P-GPS,
12300,2023-10-09 18:33:59,38.497823156522,-112.064034895682,29.855644,,,9849.5411258808,7.217848,25.0089892,156.854335728,158.83694734,20,5,25.138,9849.5411258808,29.855644,25.2997914,156.854335728,-17.224438,18.119214,-0.223694,133.6, -8.8, -5.6,0,0,1459,1024,1348,965,66,0,49,-9,0,0,0,99,4.217,4.16,4.18,4.214,4.147,4.22,0,32,9849.5411258808,29.855644,6,P-GPS,
12400,2023-10-09 18:33:59,38.4978164105223,-112.064025675636,29.855644,,,9849.5411258808,7.217848,25.0089892,160.431763664,162.44095008,20,5,25.138,9849.5411258808,29.855644,25.2997914,160.431763664,-17.000744,18.342908,-0.223694,133.1, -9.6, -4.8,0,0,1462,1024,1344,979,66,0,48,-7,0,0,0,99,4.217,4.16,4.18,4.214,4.147,4.22,0,32,9849.5411258808,29.855644,6,P-GPS,
12500,2023-10-09 18:33:59,38.4978096133843,-112.064016510165,29.855644,,,9849.5411258808,7.217848,25.165575,164.014440944,166.04659324,20,5,25.138,9849.5411258808,29.855644,25.2997914,164.014440944,-17.000744,18.566602,0,132.7, -9.5, -4.6,0,0,1457,1024,1341,996,66,0,48,-4,0,0,0,99,4.217,4.16,4.18,4.214,4.147,4.22,0,32,9849.5411258808,29.855644,6,P-GPS,
12600,2023-10-09 18:34:00,38.4978028648499,-112.064007457346,29.855644,,,9849.5411258808,7.217848,25.0313586,167.56398174,169.616475244,20,5,25.138,9849.5411258808,29.855644,25.2997914,167.56398174,-16.77705,18.566602,0,132.3, -9, -3.9,0,0,1452,1024,1343,997,65,0,48,-4,0,0,0,99,4.217,4.16,4.18,4.214,4.147,4.22,0,32,9849.5411258808,29.855644,6,P-GPS,
12700,2023-10-09 18:34:00,38.4977961723518,-112.063998177604,29.855644,,,9849.5411258808,7.217848,25.0313586,171.140425424,173.219493732,20,5,25.138,9849.5411258808,29.855644,25.2997914,171.140425424,-16.553356,18.790296,0,132.1, -8.5, -2.1,0,0,1452,1024,1340,1024,65,0,48,0,0,0,0,99,4.217,4.16,4.18,4.214,4.147,4.22,0,32,9849.5411258808,29.855644,6,P-GPS,
12800,2023-10-09 18:34:00,38.4977911913918,-112.063990939647,29.855644,,,9849.5411258808,7.217848,25.0313586,173.86483496,175.971790408,20,5,25.138,9849.5411258808,29.855644,25.2997914,173.86483496,-16.553356,18.790296,0,131.9, -8.1, -0.6,0,0,1447,1024,1340,1024,64,0,48,0,0,0,0,99,4.217,4.16,4.18,4.214,4.147,4.22,0,32,9849.5411258808,29.855644,6,P-GPS,
12900,2023-10-09 18:34:00,38.4977846992679,-112.063981817679,29.855644,,,9849.5411258808,7.217848,25.0313586,177.358601476,179.492459812,20,5,25.138,9849.5411258808,29.855644,25.2997914,177.358601476,-16.553356,18.790296,0,131.8, -7.9, 0.7,0,0,1445,1024,1354,1024,64,0,50,0,0,0,0,99,4.217,4.16,4.18,4.214,4.147,4.22,0,32,9849.5411258808,29.855644,6,P-GPS,
13000,2023-10-09 18:34:00,38.4977763652426,-112.063970161084,29.855644,,,9849.5411258808,7.217848,25.0313586,181.835307656,184.000662056,20,5,25.138,9849.5411258808,29.855644,25.2997914,181.835307656,-16.553356,18.790296,0,131.7, -7.7, 1.2,0,0,1442,1024,1348,1024,63,0,49,0,0,0,0,99,4.217,4.16,4.18,4.214,4.147,4.22,0,32,9849.5411258808,29.855644,6,P-GPS,
13100,2023-10-09 18:34:00,38.4977697197382,-112.063960858672,29.855644,,,9849.5411258808,7.217848,25.0313586,185.407486248,187.597118864,20,5,25.331,9849.5411258808,29.855644,25.2997914,185.407486248,-16.553356,18.790296,0,131.6, -7.7, 1.3,0,0,1445,1024,1347,1024,64,0,49,0,0,0,0,99,4.222,4.227,4.224,4.223,4.215,4.22,0,32,9849.5411258808,29.855644,6,P-GPS,
13200,2023-10-09 18:34:00,38.497763179867,-112.063951548775,29.855644,,,9849.5411258808,7.217848,25.0313586,188.953090036,191.169297456,20,5,25.331,9849.5411258808,29.855644,25.2997914,188.953090036,-16.553356,18.790296,0,131.7, -7.5, 1.1,0,0,1443,1024,1347,1024,63,0,49,0,0,0,0,99,4.222,4.227,4.224,4.223,4.215,4.22,0,32,9849.5411258808,29.855644,6,P-GPS,
13300,2023-10-09 18:34:00,38.4977565454602,-112.063942272972,29.855644,,,9849.5411258808,7.217848,25.0313586,192.519035032,194.75722408,20,5,25.331,9849.5411258808,29.855644,25.2997914,192.519035032,-16.553356,18.790296,0,131.7, -7.4, 1.1,0,0,1436,1024,1343,1024,62,0,48,0,0,0,0,99,4.222,4.227,4.224,4.223,4.215,4.22,0,32,9849.5411258808,29.855644,6,P-GPS,
13400,2023-10-09 18:34:00,38.4977498733762,-112.063933251227,29.855644,,,9849.5411258808,7.217848,25.0313586,196.04823462,198.301515532,20,5,25.331,9849.5411258808,29.855644,25.2997914,196.04823462,-16.553356,18.790296,0,131.7, -7.2, 0.9,0,0,1435,1024,1343,1024,62,0,48,0,0,0,0,99,4.222,4.227,4.224,4.223,4.215,4.22,0,32,9849.5411258808,29.855644,6,P-GPS,
13500,2023-10-09 18:34:00,38.4977432279746,-112.063924030524,29.855644,,,9849.5411258808,7.217848,25.0313586,199.608274104,201.880911972,20,5,25.331,9849.5411258808,29.855644,25.2997914,199.608274104,-16.553356,18.566602,0,131.7, -6.9, 0.6,0,0,1437,1024,1345,1024,63,0,49,0,0,0,0,99,4.222,4.227,4.224,4.223,4.215,4.22,0,32,9849.5411258808,29.855644,6,P-GPS,
13600,2023-10-09 18:34:00,38.4977372287369,-112.063915646134,29.855644,,,9849.5411258808,7.217848,24.8747728,202.833995992,205.12467848,20,5,25.331,9849.5411258808,29.855644,25.2997914,202.833995992,-16.553356,18.566602,0,131.7, -6.7, 0.5,0,0,1442,1024,1355,1024,63,0,50,0,0,0,0,99,4.222,4.227,4.224,4.223,4.215,4.22,0,32,9849.5411258808,29.855644,6,P-GPS,
13700,2023-10-09 18:34:01,38.4977306451943,-112.063906527973,29.855644,,,9849.5411258808,7.217848,24.8747728,206.358930488,208.667001428,20,5,25.331,9849.5411258808,29.855644,25.2997914,206.358930488,-16.553356,18.566602,0,131.7, -6.4, 0.5,0,0,1453,1024,1364,1024,65,0,52,0,0,0,0,99,4.222,4.227,4.224,4.223,4.215,4.22,0,32,9849.5411258808,29.855644,6,P-GPS,
13800,2023-10-09 18:34:01,38.4977233596571,-112.063896492447,29.855644,,,9849.5411258808,7.217848,24.8747728,210.250006728,212.575794204,20,5,25.331,9849.5411258808,29.855644,25.2997914,210.250006728,-16.553356,18.566602,0,131.7, -6.4, 0.5,0,0,1448,1024,1376,1024,64,0,53,0,0,0,0,99,4.222,4.227,4.224,4.223,4.215,4.22,0,32,9849.5411258808,29.855644,6,P-GPS,
13900,2023-10-09 18:34:01,38.4977167233322,-112.063887328508,29.855644,,,9849.5411258808,7.217848,24.8747728,213.79921944,216.140754948,20,5,25.331,9849.5411258808,29.855644,25.2997914,213.79921944,-16.553356,18.566602,0,131.7, -6.4, 0.5,0,0,1449,1024,1384,1024,64,0,55,0,0,0,0,99,4.222,4.227,4.224,4.223,4.215,4.22,0,32,9849.5411258808,29.855644,6,P-GPS,
14000,2023-10-09 18:34:01,38.4977102272007,-112.063878386197,29.855644,,,9849.5411258808,7.217848,24.8747728,217.26870774,219.624678944,20,5,25.331,9849.5411258808,29.855644,25.2997914,217.26870774,-16.553356,18.566602,0,131.7, -6.5, 0.4,0,0,1446,1024,1393,1024,64,0,56,0,0,0,0,99,4.222,4.227,4.224,4.223,4.215,4.22,0,32,9849.5411258808,29.855644,6,P-GPS,
14100,2023-10-09 18:34:01,38.4977036037546,-112.063869258758,29.855644,,,9849.5411258808,7.217848,24.8747728,220.808406016,223.178812916,20,5,25.331,9849.5411258808,29.855644,25.2997914,220.808406016,-16.553356,18.566602,0,131.7, -6.4, 0.3,0,0,1443,1024,1399,1024,63,0,57,0,0,0,0,99,4.222,4.227,4.224,4.223,4.215,4.22,0,32,9849.5411258808,29.855644,6,P-GPS,
14200,2023-10-09 18:34:01,38.4976970795022,-112.06386020467,29.855644,,,9849.5411258808,7.217848,24.8747728,224.30774996,226.693248724,20,5,25.308,9849.5411258808,29.855644,25.2997914,224.30774996,-16.553356,18.566602,0,131.8, -6.1, 0.2,0,0,1447,1024,1398,1024,64,0,57,0,0,0,0,99,4.219,4.223,4.221,4.219,4.211,4.215,0,32,9849.5411258808,29.855644,6,P-GPS,
14300,2023-10-09 18:34:01,38.4976904734219,-112.063851095613,29.855644,,,9849.5411258808,7.217848,24.8747728,227.840230388,230.239180596,20,5,25.308,9849.5411258808,29.855644,25.2997914,227.840230388,-16.553356,18.566602,0,131.7, -6, 0.3,0,0,1444,1024,1408,1024,64,0,58,0,0,0,0,99,4.219,4.223,4.221,4.219,4.211,4.215,0,32,9849.5411258808,29.855644,6,P-GPS,
14400,2023-10-09 18:34:01,38.497684081759,-112.063842271993,29.855644,,,9849.5411258808,7.217848,24.8747728,231.260178004,233.672251572,20,5,25.308,9849.5411258808,29.855644,25.2997914,231.260178004,-16.553356,18.566602,0,131.8, -5.9, 0.3,0,0,1437,1024,1408,1024,63,0,58,0,0,0,0,99,4.219,4.223,4.221,4.219,4.211,4.215,0,32,9849.5411258808,29.855644,6,P-GPS,
14500,2023-10-09 18:34:01,38.4976775023952,-112.063833215805,29.855644,,,9849.5411258808,7.217848,24.718187,234.776254232,237.200466908,20,5,25.308,9849.5411258808,29.855644,25.2997914,234.776254232,-16.553356,18.342908,0,131.8, -5.8, 0.2,0,0,1435,1024,1413,1024,62,0,59,0,0,0,0,99,4.219,4.223,4.221,4.219,4.211,4.215,0,32,9849.5411258808,29.855644,6,P-GPS,
14600,2023-10-09 18:34:02,38.4976707092304,-112.063823447072,29.855644,,,9849.5411258808,7.217848,24.718187,238.487212356,240.932094324,20,5,25.308,9849.5411258808,29.855644,25.2997914,238.487212356,-16.553356,18.342908,0,131.9, -5.6, 0.1,0,0,1444,1024,1414,1024,64,0,59,0,0,0,0,99,4.219,4.223,4.221,4.219,4.211,4.215,0,32,9849.5411258808,29.855644,6,P-GPS,
14700,2023-10-09 18:34:02,38.497664119454,-112.063814358103,29.855644,,,9849.5411258808,7.217848,24.718187,242.013131104,244.469824096,20,5,25.308,9849.5411258808,29.855644,25.2997914,242.013131104,-16.553356,18.342908,0,131.9, -5.6, 0,0,0,1447,1024,1408,1038,64,0,58,2,0,0,0,99,4.219,4.223,4.221,4.219,4.211,4.215,0,32,9849.5411258808,29.855644,6,P-GPS,
14800,2023-10-09 18:34:02,38.4976580691124,-112.063806276657,29.855644,,,9849.5411258808,7.217848,24.718187,245.199482912,247.663393752,20,5,25.308,9849.5411258808,29.855644,25.2997914,245.199482912,-16.553356,18.342908,0,131.9, -5.5, 0,0,0,1445,1024,1412,1038,64,0,59,2,0,0,0,99,4.219,4.223,4.221,4.219,4.211,4.215,0,32,9849.5411258808,29.855644,6,P-GPS,
14900,2023-10-09 18:34:02,38.4976515403388,-112.063797301127,29.855644,,,9849.5411258808,7.217848,24.718187,248.687672,251.162081528,20,5,25.308,9849.5411258808,29.855644,25.2997914,248.687672,-16.553356,18.342908,0,131.9, -5.5, 0,0,0,1449,1024,1417,1031,64,0,60,1,0,0,0,99,4.219,4.223,4.221,4.219,4.211,4.215,0,32,9849.5411258808,29.855644,6,P-GPS,
15000,2023-10-09 18:34:02,38.4976450262935,-112.063788448535,29.855644,,,9849.5411258808,7.217848,24.718187,252.148302032,254.631897912,20,5,25.308,9849.5411258808,29.855644,25.2997914,252.148302032,-16.553356,18.342908,0,131.9, -5.5, 0,0,0,1451,1024,1427,1037,65,0,61,2,0,0,0,99,4.219,4.223,4.221,4.219,4.211,4.215,0,32,9849.5411258808,29.855644,6,P-GPS,
15100,2023-10-09 18:34:02,38.4976385180711,-112.063779509638,29.855644,,,9849.5411258808,7.217848,24.718187,255.624352012,258.118118496,20,5,25.308,9849.5411258808,29.855644,25.2997914,255.624352012,-16.553356,18.342908,0,131.9, -5.6, 0,0,0,1448,1024,1435,1084,64,0,62,9,0,0,0,99,4.219,4.223,4.221,4.219,4.211,4.215,0,32,9849.5411258808,29.855644,6,P-GPS,
15200,2023-10-09 18:34:02,38.4976326590269,-112.063771419131,29.855644,,,9849.5411258808,7.217848,24.718187,258.762475472,261.265428308,20,5,25.308,9849.5411258808,29.855644,25.2997914,258.762475472,-16.329662,18.342908,0,131.8, -5.7, 0.1,0,0,1448,1024,1435,1084,64,0,62,9,0,0,0,99,4.219,4.223,4.221,4.219,4.211,4.215,0,32,9849.5411258808,29.855644,6,P-GPS,
15300,2023-10-09 18:34:02,38.4976262175274,-112.063762576911,29.855644,,,9849.5411258808,7.217848,24.5392318,262.202436212,264.714903484,20,5,25.308,9849.5411258808,29.855644,25.2997914,262.202436212,-16.553356,18.119214,0,131.9, -5.7, 1.4,0,0,1462,1024,1421,1096,66,0,60,11,0,0,0,99,4.219,4.223,4.221,4.219,4.211,4.215,0,32,9849.5411258808,29.855644,6,P-GPS,
15400,2023-10-09 18:34:02,38.4976191713088,-112.063752879342,29.855644,,,9849.5411258808,7.217848,24.5392318,265.970480952,268.493446912,20,5,25.308,9849.5411258808,29.855644,25.2997914,265.970480952,-16.553356,18.119214,0,132.1, -5.8, 2.6,0,0,1462,1024,1425,1123,66,0,61,15,0,0,0,99,4.219,4.223,4.221,4.219,4.211,4.215,0,32,9849.5411258808,29.855644,6,P-GPS,
15500,2023-10-09 18:34:02,38.4976126420556,-112.063744022985,29.855644,,,9849.5411258808,7.217848,24.5392318,269.437016496,271.967528388,20,5,25.308,9849.5411258808,29.855644,25.2997914,269.437016496,-16.553356,18.119214,0,132.5, -5.9, 4,0,0,1462,1024,1428,1150,66,0,61,19,0,0,0,99,4.219,4.223,4.221,4.219,4.211,4.215,0,32,9849.5411258808,29.855644,6,P-GPS,
15600,2023-10-09 18:34:02,38.4976062204907,-112.063735312674,29.855644,,,9849.5411258808,7.217848,24.6958176,272.846793508,275.384523248,20,5,25.308,9849.5411258808,29.855644,25.2997914,272.846793508,-16.77705,18.119214,0,132.8, -6, 6.3,0,0,1472,1024,1424,1143,68,0,61,18,0,0,0,99,4.219,4.223,4.221,4.219,4.211,4.215,0,32,9849.5411258808,29.855644,6,P-GPS,
15700,2023-10-09 18:34:03,38.497599596154,-112.063726589715,29.855644,,,9849.5411258808,7.217848,24.5392318,276.313000968,278.8549958,20,5,25.308,9849.5411258808,29.855644,25.2997914,276.313000968,-16.77705,17.89552,0,133.4, -6, 9.6,0,0,1467,1024,1425,1140,67,0,61,18,0,0,0,98,4.219,4.223,4.221,4.219,4.211,4.215,0,32,9849.5411258808,29.855644,6,P-GPS,
15800,2023-10-09 18:34:03,38.4975934259302,-112.06371867125,29.855644,,,9849.5411258808,7.217848,24.6734482,279.501649364,282.0456127,20,5,25.308,9849.5411258808,29.855644,25.2997914,279.501649364,-17.224438,17.671826,0,134.2, -5.9, 10.9,0,0,1461,1024,1426,1139,66,0,61,17,0,0,0,98,4.219,4.223,4.221,4.219,4.211,4.215,0,32,9849.5411258808,29.855644,6,P-GPS,
15900,2023-10-09 18:34:03,38.4975866108783,-112.063710284234,29.855644,,,9849.5411258808,7.217848,24.5168624,282.953421128,285.498040632,20,5,25.308,9849.5411258808,29.855644,25.2997914,282.953421128,-17.448132,17.224438,0,135, -5.9, 10.8,0,0,1464,1024,1422,1145,67,0,60,18,0,0,0,98,4.219,4.223,4.221,4.219,4.211,4.215,0,32,9849.5411258808,29.855644,6,P-GPS,
16000,2023-10-09 18:34:03,38.4975788535539,-112.063701426171,29.855644,,,9849.5411258808,7.217848,24.6734482,286.748368756,289.293644428,20,5,25.308,9849.5411258808,29.855644,25.2997914,286.748368756,-17.89552,17.000744,0,135.8, -5.7, 9.6,0,0,1465,1024,1421,1090,67,0,60,10,0,0,0,98,4.219,4.223,4.221,4.219,4.211,4.215,0,32,9849.5411258808,29.855644,6,P-GPS,
16100,2023-10-09 18:34:03,38.4975717452706,-112.063693266559,29.855644,,,9849.5411258808,7.217848,24.6958176,290.233933172,292.780193096,20,5,25.308,9849.5411258808,29.855644,25.2997914,290.233933172,-18.119214,16.77705,0,136.8, -5.4, 9.1,0,0,1474,1024,1417,1076,68,0,60,8,0,0,0,98,4.219,4.223,4.221,4.219,4.211,4.215,0,32,9849.5411258808,29.855644,6,P-GPS,
16200,2023-10-09 18:34:03,38.4975647345713,-112.063685303673,29.855644,,,9849.5411258808,7.217848,24.718187,293.655193124,296.2024373,20,5,25.288,9849.5411258808,29.855644,25.2997914,293.655193124,-18.342908,16.553356,0,137.6, -5.3, 7,0,0,1468,1024,1420,1037,67,0,60,2,0,0,0,98,4.215,4.218,4.219,4.217,4.208,4.211,0,32,9849.5411258808,29.855644,6,P-GPS,
16300,2023-10-09 18:34:03,38.4975574793128,-112.063677419651,29.855644,,,9849.5411258808,7.217848,24.5616012,297.126649928,299.677503028,20,5,25.288,9849.5411258808,29.855644,25.2997914,297.126649928,-18.342908,16.329662,0,138, -5.7, 4.2,0,0,1473,1024,1442,1024,68,0,63,0,0,0,0,98,4.215,4.218,4.219,4.217,4.208,4.211,0,32,9849.5411258808,29.855644,6,P-GPS,
16400,2023-10-09 18:34:03,38.4975502322748,-112.063669840587,29.855644,,,9849.5411258808,7.217848,24.4050154,300.53642694,303.094169804,20,5,25.288,9849.5411258808,29.855644,25.2997914,300.53642694,-18.342908,16.105968,0,138.2, -6.5, 0.5,0,0,1473,1024,1445,1024,68,0,64,0,0,0,0,98,4.215,4.218,4.219,4.217,4.208,4.211,0,32,9849.5411258808,29.855644,6,P-GPS,
16500,2023-10-09 18:34:03,38.4975429354343,-112.063662060859,29.855644,,,9849.5411258808,7.217848,24.4050154,303.998697392,306.561361516,20,5,25.288,9849.5411258808,29.855644,25.2997914,303.998697392,-18.342908,16.105968,0,138.2, -6.9, -1.5,0,0,1475,1024,1445,1024,68,0,64,0,0,0,0,98,4.215,4.218,4.219,4.217,4.208,4.211,0,32,9849.5411258808,29.855644,6,P-GPS,
16600,2023-10-09 18:34:04,38.4975357269641,-112.063654313079,29.855644,,,9849.5411258808,7.217848,24.4050154,307.431440284,309.9983695,20,5,25.288,9849.5411258808,29.855644,25.2997914,307.431440284,-18.342908,16.105968,-0.223694,138.1, -7.2, -1.8,0,0,1472,1024,1449,1024,68,0,64,0,0,0,0,98,4.215,4.218,4.219,4.217,4.208,4.211,0,32,9849.5411258808,29.855644,6,P-GPS,
16700,2023-10-09 18:34:04,38.4975284475237,-112.063646458512,29.855644,,,9849.5411258808,7.217848,24.4050154,310.903553256,313.47441948,20,5,25.288,9849.5411258808,29.855644,25.2997914,310.903553256,-18.342908,16.105968,-0.223694,138.1, -7.1, -1.2,0,0,1472,1024,1456,1024,68,0,65,0,0,0,0,98,4.215,4.218,4.219,4.217,4.208,4.211,0,32,9849.5411258808,29.855644,6,P-GPS,
16800,2023-10-09 18:34:04,38.4975213568803,-112.063638643683,29.855644,,,9849.5411258808,7.217848,24.4050154,314.317923444,316.891086256,20,5,25.288,9849.5411258808,29.855644,25.2997914,314.317923444,-18.342908,16.105968,-0.447388,138, -6.8, -0.6,0,0,1490,1024,1454,1024,71,0,65,0,0,0,0,98,4.215,4.218,4.219,4.217,4.208,4.211,0,32,9849.5411258808,29.855644,6,P-GPS,
16900,2023-10-09 18:34:04,38.4975140751792,-112.063630727582,30.183728,,,9849.8692098808,7.217848,24.4050154,317.802831692,320.379275344,20,5,25.288,9849.8692098808,30.183728,25.2997914,317.802831692,-18.342908,16.105968,-0.671082,138, -6.3, -0.4,0,0,1487,1024,1454,1024,70,0,65,0,0,0,0,98,4.215,4.218,4.219,4.217,4.208,4.211,0,32,9849.8692098808,30.183728,6,P-GPS,
17000,2023-10-09 18:34:04,38.497506740319,-112.063623057004,30.183728,,,9849.8692098808,7.217848,24.4050154,321.254603456,323.837280704,20,5,25.288,9849.8692098808,30.183728,25.2997914,321.254603456,-18.342908,16.105968,-0.894776,137.9, -6.2, -0.4,0,0,1478,1024,1455,1024,69,0,65,0,0,0,0,98,4.215,4.218,4.219,4.217,4.208,4.211,0,32,9849.8692098808,30.183728,6,P-GPS,
