time(millisecond),datetime(utc),latitude,longitude,height_above_takeoff(feet),height_above_ground_at_drone_location(feet),ground_elevation_at_drone_location(feet),altitude_above_seaLevel(feet),height_sonar(feet),speed(mph),distance(feet),mileage(feet),satellites,gpslevel,voltage(v),max_altitude(feet),max_ascent(feet),max_speed(mph),max_distance(feet), xSpeed(mph), ySpeed(mph), zSpeed(mph), compass_heading(degrees), pitch(degrees), roll(degrees),isPhoto,isVideo,rc_elevator,rc_aileron,rc_throttle,rc_rudder,rc_elevator(percent),rc_aileron(percent),rc_throttle(percent),rc_rudder(percent),gimbal_heading(degrees),gimbal_pitch(degrees),gimbal_roll(degrees),battery_percent,voltageCell1,voltageCell2,voltageCell3,voltageCell4,voltageCell5,voltageCell6,current(A),battery_temperature(f),altitude(feet),ascent(feet),flycStateRaw,flycState,message
0,2023-10-10 21:09:06,38.4981851237795,-112.064447228008,0,Available with any HD 360 subscription,Available with any HD 360 subscription,9821.5237453911,0.656168,0,0,0,17,5,0,9821.5237453911,0,0,0,0,0,0,126.5, -5.3, -2,0,0,1024,1024,1024,1024,0,0,0,0,0,0,0,96,4.297,4.302,4.307,4.299,4.301,4.305,0,32,9821.5237453911,0,41,Motors_Started,
100,2023-10-10 21:09:06,38.4981851366888,-112.06444732935,0,,,9821.5237453911,0.656168,0,0.0293183408332,0.0293183408332,17,5,0,9821.5237453911,0,0,0.0293183408332,0,0,0,126.4, -5.3, -2,0,0,1024,1024,1024,1024,0,0,0,0,0,0,0,96,4.297,4.302,4.307,4.299,4.301,4.305,0,32,9821.5237453911,0,41,Motors_Started,
200,2023-10-10 21:09:06,38.4981851353732,-112.064447368403,0,,,9821.5237453911,0.656168,0,0.040311024912,0.040479660088,17,5,0,9821.5237453911,0,0,0.040311024912,0,0,0,126.4, -5.3, -2,0,0,1024,1024,1024,1024,0,0,0,0,0,0,0,96,4.297,4.302,4.307,4.299,4.301,4.305,0,32,9821.5237453911,0,41,Motors_Started,
300,2023-10-10 21:09:06,38.4981851412721,-112.064447455966,0,,,9821.5237453911,0.656168,0,0.065403873484,0.065575133332,17,5,0,9821.5237453911,0,0,0.065403873484,0,0,0,126.4, -5.3, -2,0,0,1024,1024,1024,1024,0,0,0,0,0,0,0,96,4.297,4.302,4.307,4.299,4.301,4.305,0,32,9821.5237453911,0,41,Motors_Started,
400,2023-10-10 21:09:06,38.4981851411954,-112.064447500726,0,,,9821.5237453911,0.656168,0,0.078131236096,0.078355973636,17,5,0,9821.5237453911,0,0,0.078131236096,0,0,0,126.4, -5.3, -2,0,0,365,364,414,1682,-100,-100,-92,100,0,0,0,96,4.297,4.302,4.307,4.299,4.301,4.305,0,32,9821.5237453911,0,41,Motors_Started,
500,2023-10-10 21:09:06,38.4981851472986,-112.064447416748,0,,,9821.5237453911,0.656168,0,0.05457185214,0.102438323488,17,5,0,9821.5237453911,0,0,0.078131236096,0,0,0,126.4, -5.3, -2,0,0,647,585,795,1125,-57,-67,-35,15,0,0,0,96,4.297,4.302,4.307,4.299,4.301,4.305,0,32,9821.5237453911,0,41,Motors_Started,
600,2023-10-10 21:09:06,38.4981851478831,-112.064447451639,0,,,9821.5237453911,0.656168,0,0.06445866348,0.112403546904,17,5,0,9821.5237453911,0,0,0.078131236096,0,0,0,126.4, -5.3, -2,0,0,1024,1024,1024,1024,0,0,0,0,0,0,0,96,4.297,4.302,4.307,4.299,4.301,4.305,0,32,9821.5237453911,0,41,Motors_Started,
700,2023-10-10 21:09:07,38.4981851507854,-112.064447381959,0,,,9821.5237453911,0.656168,0,0.045050198292,0.13232776014,17,5,0,9821.5237453911,0,0,0.078131236096,0,0,0,126.4, -5.3, -2,0,0,1024,1024,1024,1024,0,0,0,0,0,0,0,96,4.297,4.302,4.307,4.299,4.301,4.305,0,32,9821.5237453911,0,41,Motors_Started,"Setting new Return-To-Home altitude to 61m (200 ft). Data Recorder File Index is 45. Setting new Maximum Flight Altitude to 500m (1640 ft)"
800,2023-10-10 21:09:07,38.4981851518105,-112.064447406554,0,,,9821.5237453911,0.656168,0,0.05199803316,0.139360568764,17,5,0,9821.5237453911,0,0,0.078131236096,0,0,0,126.4, -5.3, -2,0,0,1024,1024,1024,1024,0,0,0,0,0,0,0,96,4.297,4.302,4.307,4.299,4.301,4.305,0,32,9821.5237453911,0,41,Motors_Started,
900,2023-10-10 21:09:07,38.4981851553501,-112.064447350986,0,,,9821.5237453911,0.656168,0,0.036956366012,0.155280188696,17,5,0,9821.5237453911,0,0,0.078131236096,0,0,0,126.4, -5.4, -2,0,0,1024,1024,1024,1024,0,0,0,0,0,0,0,96,4.297,4.302,4.307,4.299,4.301,4.305,0,32,9821.5237453911,0,41,Motors_Started,
1000,2023-10-10 21:09:07,38.4981851580037,-112.064447370586,0,,,9821.5237453911,0.656168,0,0.04258366278,0.16095965082,17,5,0,9821.5237453911,0,0,0.078131236096,0,0,0,126.4, -5.3, -2,0,0,1024,1024,1024,1024,0,0,0,0,0,0,0,96,4.297,4.302,4.307,4.299,4.301,4.305,0,32,9821.5237453911,0,41,Motors_Started,
1100,2023-10-10 21:09:07,38.4981851575657,-112.064447485532,0,,,9821.5237453911,0.656168,0,0.074560041756,0.193782158432,17,5,0,9821.5237453911,0,0,0.078131236096,0,0,0,126.4, -5.3, -2,0,0,1024,1024,1024,1024,0,0,0,0,0,0,0,96,4.297,4.302,4.307,4.299,4.301,4.305,0,32,9821.5237453911,0,41,Motors_Started,
1200,2023-10-10 21:09:07,38.498185163153,-112.064447511464,0,,,9821.5237453911,0.656168,0,0.082203414704,0.201462276788,17,5,0,9821.5237453911,0,0,0.082203414704,0,0,0,126.4, -5.3, -2,0,0,1024,1024,1024,1024,0,0,0,0,0,0,0,96,4.297,4.302,4.307,4.299,4.301,4.305,0,32,9821.5237453911,0,41,Motors_Started,
1300,2023-10-10 21:09:07,38.4981851549944,-112.064447445751,0,,,9821.5237453911,0.656168,0,0.063208991524,0.22046096506,17,5,0,9821.5237453911,0,0,0.082203414704,0,0,0,126.4, -5.3, -2,0,0,1024,1024,1024,1024,0,0,0,0,0,0,0,96,4.297,4.302,4.307,4.299,4.301,4.305,0,32,9821.5237453911,0,41,Motors_Started,
1400,2023-10-10 21:09:07,38.4981851590059,-112.064447466532,0,,,9821.5237453911,0.656168,0,0.069310697756,0.226572513812,17,5,0,9821.5237453911,0,0,0.082203414704,0,0,0,126.4, -5.3, -2,0,0,1024,1024,1024,1024,0,0,0,0,0,0,0,96,4.297,4.302,4.307,4.299,4.301,4.305,0,32,9821.5237453911,0,41,Motors_Started,
1500,2023-10-10 21:09:07,38.4981851468255,-112.064447579572,0,,,9821.5237453911,0.656168,0,0.100737536032,0.259154535852,17,5,0,9821.5237453911,0,0,0.100737536032,0,0,0,126.5, -5.3, -2,0,0,1024,1024,1024,1024,0,0,0,0,0,0,0,96,4.297,4.302,4.307,4.299,4.301,4.305,0,32,9821.5237453911,0,41,Motors_Started,
1600,2023-10-10 21:09:07,38.4981851498058,-112.064447607328,0,,,9821.5237453911,0.656168,0,0.1087270376,0.267154208024,17,5,0,9821.5237453911,0,0,0.1087270376,0,0,0,126.5, -5.3, -2,0,0,1024,1024,1024,1024,0,0,0,0,0,0,0,96,4.297,4.302,4.307,4.299,4.301,4.305,0,32,9821.5237453911,0,41,Motors_Started,
1700,2023-10-10 21:09:08,38.4981849941598,-112.064447548495,0,,,9821.5237453911,0.656168,0,0.103009845816,0.326374354276,17,5,0,9821.5237453911,0,0,0.1087270376,0,0,0,126.5, -5.3, -2,0,0,1024,1024,1024,1024,0,0,0,0,0,0,0,96,4.297,4.302,4.307,4.299,4.301,4.305,0,32,9821.5237453911,0,41,Motors_Started,
1800,2023-10-10 21:09:08,38.4981849843775,-112.064447566707,0,,,9821.5237453911,0.656168,0,0.109271000872,0.33268045684,17,5,25.811,9821.5237453911,0,0,0.109271000872,0,0,0,126.4, -5.3, -2,0,0,1024,1024,1024,1024,0,0,0,0,0,0,0,96,4.297,4.302,4.307,4.299,4.301,4.305,0,32,9821.5237453911,0,41,Motors_Started,
1900,2023-10-10 21:09:08,38.4981850052132,-112.064447518575,0,,,9821.5237453911,0.656168,0,0.093568900632,0.34838583792,17,5,25.811,9821.5237453911,0,0,0.109271000872,0,0,0,126.4, -5.3, -2,0,0,1024,1024,1024,1024,0,0,0,0,0,0,0,96,4.297,4.302,4.307,4.299,4.301,4.305,0,32,9821.5237453911,0,41,Motors_Started,
2000,2023-10-10 21:09:08,38.4981849969942,-112.0644475257,0,,,9821.5237453911,0.656168,0,0.096774609396,0.35201116612,17,5,25.811,9821.5237453911,0,0,0.109271000872,0,0,0,126.4, -5.3, -2,0,0,1024,1024,1024,1024,0,0,0,0,0,0,0,96,4.297,4.302,4.307,4.299,4.301,4.305,0,32,9821.5237453911,0,10,Assisted_Takeoff,
2100,2023-10-10 21:09:08,38.4981850155673,-112.064447648734,0,,,9821.5237453911,0.656168,0,0.126456040792,0.38778872632,17,5,25.811,9821.5237453911,0,0,0.126456040792,0,0,0,126.5, -5.3, -2,0,0,1024,1024,1024,1024,0,0,0,0,0,0,0,96,4.297,4.302,4.307,4.299,4.301,4.305,0,32,9821.5237453911,0,10,Assisted_Takeoff,
2200,2023-10-10 21:09:08,38.4981850101143,-112.06444766501,0,,,9821.5237453911,0.656168,0,0.13149278636,0.39284450076,17,5,25.811,9821.5237453911,0,0,0.13149278636,0,0,0,126.5, -5.3, -2,0,0,1024,1024,1024,1024,0,0,0,0,0,0,0,96,4.297,4.302,4.307,4.299,4.301,4.305,0,32,9821.5237453911,0,10,Assisted_Takeoff,
2300,2023-10-10 21:09:08,38.4981850247397,-112.064447610787,0,,,9821.5237453911,0.656168,0,0.115117457752,0.40922245404,17,5,25.811,9821.5237453911,0,0,0.13149278636,0,0,0,126.5, -5.3, -2,0,0,1024,1024,1024,1024,0,0,0,0,0,0,0,96,4.297,4.302,4.307,4.299,4.301,4.305,0,32,9821.5237453911,0,10,Assisted_Takeoff,
2400,2023-10-10 21:09:08,38.4981850215694,-112.064447620926,0,,,9821.5237453911,0.656168,0,0.118229334492,0.41233925204,17,5,25.811,9821.5237453911,0,0,0.13149278636,0,0,0,126.5, -5.3, -2,0,0,1024,1024,1024,1024,0,0,0,0,0,0,0,96,4.297,4.302,4.307,4.299,4.301,4.305,0,32,9821.5237453911,0,10,Assisted_Takeoff,
2500,2023-10-10 21:09:08,38.4981850315588,-112.064447752611,0,,,9821.5237453911,0.656168,0,0.153528220136,0.45011812464,17,5,25.811,9821.5237453911,0,0,0.153528220136,0,0,0,126.5, -5.3, -2,0,0,1024,1024,1024,1024,0,0,0,0,0,0,0,96,4.297,4.302,4.307,4.299,4.301,4.305,0,32,9821.5237453911,0,10,Assisted_Takeoff,
2600,2023-10-10 21:09:08,38.498185030617,-112.064447772426,0,,,9821.5237453911,0.656168,0,0.159126645512,0.45578413532,17,5,25.811,9821.5237453911,0,0,0.159126645512,0,0,0,126.5, -5.3, -2,0,0,1024,1024,1024,1024,0,0,0,0,0,0,0,96,4.297,4.302,4.307,4.299,4.301,4.305,0,32,9821.5237453911,0,10,Assisted_Takeoff,
2700,2023-10-10 21:09:09,38.4981848757717,-112.064447725732,0,,,9821.5237453911,0.656168,0,0.168481304604,0.51383203744,17,5,25.811,9821.5237453911,0,0,0.168481304604,0,0,0,126.5, -5.3, -2,0,0,1024,1024,1024,1024,0,0,0,0,0,0,0,96,4.297,4.302,4.307,4.299,4.301,4.305,0,32,9821.5237453911,0,10,Assisted_Takeoff,
2800,2023-10-10 21:09:09,38.4981848625301,-112.064447738084,0,,,9821.5237453911,0.656168,0,0.1740649662,0.51981300876,17,5,25.841,9821.5237453911,0,0,0.1740649662,0,0,0,126.5, -5.3, -2,0,0,1024,1024,1024,1024,0,0,0,0,0,0,0,96,4.306,4.305,4.308,4.306,4.308,4.308,0,32,9821.5237453911,0,10,Assisted_Takeoff,
2900,2023-10-10 21:09:09,38.4981848932656,-112.06444786125,0,,,9821.5237453911,0.656168,0,0.19941929772,0.55672902044,17,5,25.841,9821.5237453911,0,0,0.19941929772,0,0,0,126.5, -5.3, -2,0,0,1024,1024,1024,1024,0,0,0,0,0,0,0,96,4.306,4.305,4.308,4.306,4.308,4.308,0,32,9821.5237453911,0,10,Assisted_Takeoff,
3000,2023-10-10 21:09:09,38.4981848838331,-112.064447882343,0,,,9821.5237453911,0.656168,0,0.206332355684,0.5636647162,17,5,25.841,9821.5237453911,0,0,0.206332355684,0,0,0,126.5, -5.3, -2,0,0,1024,1024,1024,1024,0,0,0,0,0,0,0,96,4.306,4.305,4.308,4.306,4.308,4.308,0,32,9821.5237453911,0,10,Assisted_Takeoff,
3100,2023-10-10 21:09:09,38.4981849084352,-112.064447993238,0,,,9821.5237453911,0.656168,0,0.232201122916,0.59657810308,17,5,25.841,9821.5237453911,0,0,0.232201122916,0,0,0,126.5, -5.3, -2,0,0,1024,1024,1024,1024,0,0,0,0,0,0,0,96,4.306,4.305,4.308,4.306,4.308,4.308,0,32,9821.5237453911,0,10,Assisted_Takeoff,
3200,2023-10-10 21:09:09,38.4981849025631,-112.064448022665,0,,,9821.5237453911,0.656168,0,0.240834325292,0.6052493632,17,5,25.841,9821.5237453911,0,0,0.240834325292,0,0,0,126.5, -5.3, -2.1,0,0,1024,1024,1024,1024,0,0,0,0,0,0,0,96,4.306,4.305,4.308,4.306,4.308,4.308,0,32,9821.5237453911,0,10,Assisted_Takeoff,
3300,2023-10-10 21:09:09,38.4981849190106,-112.064447962708,0,,,9821.5237453911,0.656168,0,0.222693248596,0.62338912756,17,5,25.841,9821.5237453911,0,0,0.240834325292,0,0,0,126.5, -5.3, -2.1,0,0,1024,1024,1024,1024,0,0,0,0,0,0,0,96,4.306,4.305,4.308,4.306,4.308,4.308,0,32,9821.5237453911,0,10,Assisted_Takeoff,
3400,2023-10-10 21:09:09,38.4981849158831,-112.064447983739,0,,,9821.5237453911,0.656168,0,0.22873524354,0.62950133248,17,5,25.841,9821.5237453911,0,0,0.240834325292,0,0,0,126.5, -5.3, -2,0,0,1024,1024,1024,1024,0,0,0,0,0,0,0,96,4.306,4.305,4.308,4.306,4.308,4.308,0,32,9821.5237453911,0,10,Assisted_Takeoff,
3500,2023-10-10 21:09:09,38.4981849284229,-112.064448094431,0,,,9821.5237453911,0.656168,0,0.25746227858,0.66144030988,17,5,25.841,9821.5237453911,0,0,0.25746227858,0,0,0,126.5, -5.3, -2,0,0,1024,1024,1024,1024,0,0,0,0,0,0,0,96,4.306,4.305,4.308,4.306,4.308,4.308,0,32,9821.5237453911,0,10,Assisted_Takeoff,
3600,2023-10-10 21:09:09,38.4981849283539,-112.064448122445,0,,,9821.5237453911,0.656168,0,0.265165034732,0.6694389978,17,5,25.841,9821.5237453911,0,0,0.265165034732,0,0,0,126.5, -5.3, -2,0,0,1024,1024,1024,1024,0,0,0,0,0,0,0,96,4.306,4.305,4.308,4.306,4.308,4.308,0,32,9821.5237453911,0,10,Assisted_Takeoff,
3700,2023-10-10 21:09:10,38.4981847765073,-112.064448218708,0,,,9821.5237453911,0.656168,0,0.309964248764,0.7312828318,17,5,25.841,9821.5237453911,0,0,0.309964248764,0,0,0,126.5, -5.3, -2.1,0,0,1024,1024,1024,1024,0,0,0,0,0,0,0,96,4.306,4.305,4.308,4.306,4.308,4.308,0,32,9821.5237453911,0,10,Assisted_Takeoff,
3800,2023-10-10 21:09:10,38.4981847646419,-112.064448252456,0,,,9821.5237453911,0.656168,0,0.320528553564,0.7418471366,17,5,25.851,9821.5237453911,0,0,0.320528553564,0,0,0,126.5, -5.3, -2.1,0,0,1024,1024,1059,1024,0,0,5,0,0,0,0,96,4.308,4.307,4.309,4.308,4.31,4.309,0,32,9821.5237453911,0,10,Assisted_Takeoff,
3900,2023-10-10 21:09:10,38.4981847960143,-112.064448179791,0,,,9821.5237453911,0.656168,0,0.296919957008,0.76554464392,17,5,25.851,9821.5237453911,0,0,0.320528553564,0,0,0,126.5, -5.3, -2.1,0,0,1024,1024,1087,1024,0,0,10,0,0,0,0,96,4.308,4.307,4.309,4.308,4.31,4.309,0,32,9821.5237453911,0,10,Assisted_Takeoff,
4000,2023-10-10 21:09:10,38.4981847889759,-112.064448204278,0,,,9821.5237453911,0.656168,0,0.304354340448,0.77299215072,17,5,25.851,9821.5237453911,0,0,0.320528553564,0,0,0,126.5, -5.3, -2,0,0,1024,1024,1105,1024,0,0,12,0,0,0,0,96,4.308,4.307,4.309,4.308,4.31,4.309,0,32,9821.5237453911,0,10,Assisted_Takeoff,
4100,2023-10-10 21:09:10,38.4981848114395,-112.064448143065,0,,,9821.5237453911,0.656168,0,0.285056111484,0.79229989412,17,5,25.851,9821.5237453911,0,0,0.320528553564,0,0,0,126.5, -5.3, -2.1,0,0,1024,1024,1166,1024,0,0,22,0,0,0,0,96,4.308,4.307,4.309,4.308,4.31,4.309,0,32,9821.5237453911,0,10,Assisted_Takeoff,
4200,2023-10-10 21:09:10,38.4981848088639,-112.064448160888,0,,,9821.5237453911,0.656168,0,0.290098762564,0.7974737788,17,5,25.851,9821.5237453911,0,0,0.320528553564,0,0,0,126.5, -5.2, -2,0,0,1024,1024,1166,1024,0,0,22,0,0,0,0,96,4.308,4.307,4.309,4.308,4.31,4.309,0,32,9821.5237453911,0,10,Assisted_Takeoff,
4300,2023-10-10 21:09:10,38.4981848285864,-112.064448122844,0,,,9821.5237453911,0.656168,0,0.277283801524,0.81050527528,17,5,25.851,9821.5237453911,0,0,0.320528553564,0,0,0,126.5, -5.1, -2,0,0,1024,1024,1188,1024,0,0,25,0,0,0,0,96,4.308,4.307,4.309,4.308,4.31,4.309,0,32,9821.5237453911,0,10,Assisted_Takeoff,
4400,2023-10-10 21:09:10,38.4981848286892,-112.06444813485,0,,,9821.5237453911,0.656168,0,0.280431767504,0.81393375308,17,5,25.851,9821.5237453911,0,0,0.320528553564,0,0,0,126.5, -5.1, -2,0,0,1024,1024,1191,1024,0,0,25,0,0,0,0,96,4.308,4.307,4.309,4.308,4.31,4.309,0,32,9821.5237453911,0,10,Assisted_Takeoff,
4500,2023-10-10 21:09:10,38.4981848373146,-112.064448103813,0,,,9821.5237453911,0.656168,0,0.271040691088,0.82333664052,17,5,25.851,9821.5237453911,0,0,0.320528553564,0,0,0,126.5, -5.1, -2,0,0,1024,1024,1203,1024,0,0,27,0,0,0,0,96,4.308,4.307,4.309,4.308,4.31,4.309,0,32,9821.5237453911,0,10,Assisted_Takeoff,
4600,2023-10-10 21:09:10,38.4981848387154,-112.064448112672,0,,,9821.5237453911,0.656168,0,0.273181111104,0.8259186616,17,5,25.851,9821.5237453911,0,0,0.320528553564,0,0,0,126.4, -5.1, -1.9,0,0,1024,1024,1209,1024,0,0,28,0,0,0,0,96,4.308,4.307,4.309,4.308,4.31,4.309,0,32,9821.5237453911,0,10,Assisted_Takeoff,
4700,2023-10-10 21:09:11,38.4981848445755,-112.064448246029,0,,,9821.5237453911,0.656168,0,0.308019366812,0.86405514576,17,5,25.851,9821.5237453911,0,0,0.320528553564,0,0,0,126.4, -5, -1.9,0,0,1024,1024,1209,1024,0,0,28,0,0,0,0,96,4.308,4.307,4.309,4.308,4.31,4.309,0,32,9821.5237453911,0,10,Assisted_Takeoff,
4800,2023-10-10 21:09:11,38.4981848494896,-112.064448265541,0,,,9821.5237453911,0.656168,0,0.312704406332,0.86990816432,17,5,25.643,9821.5237453911,0,0,0.320528553564,0,0,0,126.4, -4.9, -1.8,0,0,1024,1024,1215,1024,0,0,29,0,0,0,0,96,4.278,4.274,4.273,4.266,4.276,4.276,0,32,9821.5237453911,0,10,Assisted_Takeoff,
4900,2023-10-10 21:09:11,38.4981848572502,-112.064448230869,0,,,9821.5237453911,0.656168,0,0.302419301016,0.88020672108,17,5,25.643,9821.5237453911,0,0,0.320528553564,0,0,0,126.2, -4.8, -1.7,0,0,1024,1024,1230,1024,0,0,31,0,0,0,0,96,4.278,4.274,4.273,4.266,4.276,4.276,0,32,9821.5237453911,0,10,Assisted_Takeoff,
5000,2023-10-10 21:09:11,38.4981848666684,-112.064448247473,0,,,9821.5237453911,0.656168,0,0.305840889052,0.88606302048,17,5,25.643,9821.5237453911,0,0,0.320528553564,0,0,0,126.2, -4.6, -1.6,0,0,1024,1024,1247,1024,0,0,34,0,0,0,0,96,4.278,4.274,4.273,4.266,4.276,4.276,0,32,9821.5237453911,0,10,Assisted_Takeoff,
5100,2023-10-10 21:09:11,38.498184880466,-112.064448214758,0,,,9821.5237453911,0.656168,0,0.29541175486,0.89667325704,17,5,25.643,9821.5237453911,0,0,0.320528553564,0,0,0,125.9, -4.3, -1.5,0,0,1024,1024,1266,1024,0,0,37,0,0,0,0,96,4.278,4.274,4.273,4.266,4.276,4.276,0,32,9821.5237453911,0,10,Assisted_Takeoff,
5200,2023-10-10 21:09:11,38.4981849081319,-112.064448234415,0,,,9821.5237453911,0.656168,0,0.297946859928,0.90822181384,17,5,25.643,9821.5237453911,0,0,0.320528553564,0,0,0,125.2, -3.1, -1.2,0,0,1024,1024,1269,1024,0,0,37,0,0,0,0,96,4.278,4.274,4.273,4.266,4.276,4.276,0,32,9821.5237453911,0,10,Assisted_Takeoff,
5300,2023-10-10 21:09:11,38.4981849424272,-112.064448369359,0,,,9821.5237453911,0.656168,0,0.33255250408,0.948736907,17,5,25.643,9821.5237453911,0,0,0.33255250408,0,0,-0.223694,123.8, 0.7, -0.3,0,0,1024,1024,1272,1024,0,0,38,0,0,0,0,96,4.278,4.274,4.273,4.266,4.276,4.276,0,32,9821.5237453911,0,10,Assisted_Takeoff,
5400,2023-10-10 21:09:11,38.4981849894755,-112.064448404434,0,,,9821.5237453911,0.656168,0,0.33947507648,0.96860895488,17,5,25.643,9821.5237453911,0,0,0.33947507648,0,0,-0.223694,121.9, 6.5, 0.7,0,0,1024,1024,1273,1024,0,0,38,0,0,0,0,96,4.278,4.274,4.273,4.266,4.276,4.276,0,32,9821.5237453911,0,10,Assisted_Takeoff,
5500,2023-10-10 21:09:11,38.4981850563211,-112.064448477268,0,,,9821.5237453911,0.984252,0.3131716,0.3575623474,1.00066276168,17,5,25.643,9821.5237453911,0,0.3131716,0.3575623474,0.223694,-0.223694,-0.671082,121, 9.8, 1.1,0,0,1024,1024,1275,1024,0,0,38,0,0,0,0,96,4.278,4.274,4.273,4.266,4.276,4.276,0,32,9821.5237453911,0,6,P-GPS,
5600,2023-10-10 21:09:11,38.4981851858865,-112.064448779573,0,,,9821.5237453911,0.984252,0.7158208,0.44361549976,1.09907811916,17,5,25.643,9821.5237453911,0,0.7158208,0.44361549976,0.223694,-0.671082,-0.894776,120.5, 9, 0.1,0,0,1024,1024,1274,1024,0,0,38,0,0,0,0,96,4.278,4.274,4.273,4.266,4.276,4.276,0,32,9821.5237453911,0,6,P-GPS,
5700,2023-10-10 21:09:12,38.4981854777705,-112.064449198543,0.328084,,,9821.8518293911,0.984252,1.006623,0.57730316808,1.25924544712,17,5,25.643,9821.8518293911,0.328084,1.006623,0.57730316808,0.447388,-0.894776,-1.342164,120.3, 4.2, -0.3,0,0,1024,1024,1274,1024,0,0,38,0,0,0,0,96,4.278,4.274,4.273,4.266,4.276,4.276,0,32,9821.8518293911,0.328084,6,P-GPS,
5800,2023-10-10 21:09:12,38.4981857390337,-112.064449708797,0.656168,,,9822.1799133911,1.312336,1.006623,0.74308401328,1.43335306424,17,5,25.643,9822.1799133911,0.656168,1.006623,0.74308401328,0.447388,-0.894776,-1.565858,120.3, -0.6, 0,0,0,1024,1024,1300,1024,0,0,42,0,0,0,0,96,4.278,4.274,4.273,4.266,4.276,4.276,0,32,9822.1799133911,0.656168,6,P-GPS,
5900,2023-10-10 21:09:12,38.4981857125635,-112.064450428205,0.656168,,,9822.1799133911,1.64042,1.006623,0.9386975366,1.63900267712,17,5,25.643,9822.1799133911,0.656168,1.006623,0.9386975366,0.447388,-0.894776,-1.789552,120.4, -3.5, 0.3,0,0,1024,1024,1313,1024,0,0,44,0,0,0,0,96,4.278,4.274,4.273,4.266,4.276,4.276,0,32,9822.1799133911,0.656168,6,P-GPS,
6000,2023-10-10 21:09:12,38.4981859149606,-112.064450894436,0.984252,,,9822.5079973911,1.968504,0.8052984,1.08598428672,1.7912402148,17,5,25.643,9822.5079973911,0.984252,1.006623,1.08598428672,0.447388,-0.671082,-2.013246,120.5, -4.1, 0.5,0,0,1024,1024,1327,1024,0,0,46,0,0,0,0,96,4.278,4.274,4.273,4.266,4.276,4.276,0,32,9822.5079973911,0.984252,6,P-GPS,
6100,2023-10-10 21:09:12,38.4981865417262,-112.064450972827,1.312336,,,9822.8360813911,2.296588,0.7158208,1.18787405376,2.02100728252,17,5,25.643,9822.8360813911,1.312336,1.006623,1.18787405376,0.223694,-0.671082,-2.23694,120.6, -3.4, 0.3,0,0,1024,1024,1353,1024,0,0,50,0,0,0,0,96,4.278,4.274,4.273,4.266,4.276,4.276,0,32,9822.8360813911,1.312336,6,P-GPS,
6200,2023-10-10 21:09:12,38.4981867207438,-112.064451298503,1.64042,,,9823.1641653911,2.624672,0.4921268,1.30015752192,2.1346457376,15,5,25.643,9823.1641653911,1.64042,1.006623,1.30015752192,0.223694,-0.447388,-2.460634,120.7, -2.3, -0.3,0,0,1047,1024,1361,1024,3,0,51,0,0,0,0,96,4.278,4.274,4.273,4.266,4.276,4.276,0,32,9823.1641653911,1.64042,6,P-GPS,
6300,2023-10-10 21:09:12,38.4981868073313,-112.064451196516,2.296588,,,9823.8203333911,2.624672,0.4921268,1.2889436108,2.17761161824,15,5,25.643,9823.8203333911,2.296588,1.006623,1.30015752192,0.223694,-0.447388,-2.908022,120.7, -1.5, -0.6,0,0,1067,1024,1363,1024,7,0,51,0,0,0,0,96,4.278,4.274,4.273,4.266,4.276,4.276,0,32,9823.8203333911,2.296588,6,P-GPS,
6400,2023-10-10 21:09:12,38.4981869845876,-112.064451432438,2.624672,,,9824.1484173911,3.28084,0.4921268,1.37920936172,2.270997448,16,5,25.643,9824.1484173911,2.624672,1.006623,1.37920936172,0.223694,-0.447388,-3.131716,120.7, -1.3, -0.4,0,0,1069,1024,1373,1024,7,0,53,0,0,0,0,96,4.278,4.274,4.273,4.266,4.276,4.276,0,32,9824.1484173911,2.624672,6,P-GPS,
6500,2023-10-10 21:09:12,38.4981867385314,-112.064452128454,2.952756,,,9824.4765013911,3.608924,0.4921268,1.51824479924,2.48907160196,16,5,25.643,9824.4765013911,2.952756,1.006623,1.51824479924,0.223694,-0.447388,-3.35541,120.7, -1.7, 0.1,0,0,1078,1024,1385,1024,8,0,55,0,0,0,0,96,4.278,4.274,4.273,4.266,4.276,4.276,0,32,9824.4765013911,2.952756,6,P-GPS,
6600,2023-10-10 21:09:13,38.4981868829551,-112.064452377733,3.608924,,,9825.1326693911,4.265092,0.4921268,1.60443246604,2.57763459692,17,5,25.643,9825.1326693911,3.608924,1.006623,1.60443246604,0.223694,-0.447388,-3.579104,120.8, -2.5, 0.7,0,0,1085,1024,1398,1024,9,0,57,0,0,0,0,96,4.278,4.274,4.273,4.266,4.276,4.276,0,32,9825.1326693911,3.608924,6,P-GPS,
6700,2023-10-10 21:09:13,38.4981870276825,-112.064452704514,4.265092,,,9825.7888373911,4.593176,0.4921268,1.71110897864,2.68484916728,17,5,25.643,9825.7888373911,4.265092,1.006623,1.71110897864,0.223694,-0.447388,-4.026492,121, -3.3, 1.1,0,0,1096,1024,1415,1024,11,0,59,0,0,0,0,96,4.278,4.274,4.273,4.266,4.276,4.276,0,32,9825.7888373911,4.265092,6,P-GPS,
6800,2023-10-10 21:09:13,38.4981871151307,-112.064452936391,4.92126,,,9826.4450053911,5.249344,0.4921268,1.78457354792,2.75834326412,17,5,25.643,9826.4450053911,4.92126,1.006623,1.78457354792,0.223694,-0.447388,-4.250186,121.2, -3.3, 1.1,0,0,1112,1024,1442,1024,13,0,63,0,0,0,0,96,4.278,4.274,4.273,4.266,4.276,4.276,0,32,9826.4450053911,4.92126,6,P-GPS,
6900,2023-10-10 21:09:13,38.498187175836,-112.064453232966,5.577428,,,9827.1011733911,5.905512,0.4921268,1.87099087352,2.84587607532,17,5,25.097,9827.1011733911,5.577428,1.006623,1.87099087352,0,-0.447388,-4.47388,121.4, -2.5, 1.1,0,0,1114,1024,1445,1024,14,0,64,0,0,0,0,96,4.166,4.202,4.192,4.193,4.191,4.153,0,32,9827.1011733911,5.577428,6,P-GPS,
7000,2023-10-10 21:09:13,38.4981871910716,-112.06445345672,6.233596,,,9827.7573413911,6.233596,0.447388,1.93187670224,2.91000993564,16,5,25.097,9827.7573413911,6.233596,1.006623,1.93187670224,0,-0.447388,-4.921268,121.5, -2.3, 0.7,0,0,1114,1024,1453,1024,14,0,65,0,0,0,0,96,4.166,4.202,4.192,4.193,4.191,4.153,0,32,9827.7573413911,6.233596,6,P-GPS,
7100,2023-10-10 21:09:13,38.4981874985461,-112.064453800316,6.889764,,,9828.4135093911,6.889764,0.447388,2.06702106352,3.05904209264,16,5,25.097,9828.4135093911,6.889764,1.006623,2.06702106352,0,-0.447388,-5.144962,121.6, -2.7, -0.2,0,0,1110,1024,1462,1024,13,0,66,0,0,0,0,96,4.166,4.202,4.192,4.193,4.191,4.153,0,32,9828.4135093911,6.889764,6,P-GPS,
7200,2023-10-10 21:09:13,38.4981874985714,-112.064454023853,7.545932,,,9829.0696773911,7.874016,0.223694,2.12514442496,3.12287083484,16,5,25.097,9829.0696773911,7.545932,1.006623,2.12514442496,0,-0.223694,-5.368656,121.7, -2.9, -0.8,0,0,1110,1024,1462,1024,13,0,66,0,0,0,0,96,4.166,4.202,4.192,4.193,4.191,4.153,0,32,9829.0696773911,7.545932,6,P-GPS,
7300,2023-10-10 21:09:13,38.4981872599034,-112.064454050788,8.530184,,,9830.0539293911,8.530184,0.223694,2.0982940304,3.21028881664,16,5,25.097,9830.0539293911,8.530184,1.006623,2.12514442496,0,-0.223694,-5.59235,121.8, -1.8, -0.6,0,0,1107,1024,1463,1061,13,0,67,6,0,0,0,96,4.166,4.202,4.192,4.193,4.191,4.153,0,32,9830.0539293911,8.530184,6,P-GPS,
7400,2023-10-10 21:09:13,38.4981872204998,-112.064454214067,9.186352,,,9830.7100973911,9.186352,0.223694,2.13646004212,3.25907818828,16,5,25.097,9830.7100973911,9.186352,1.006623,2.13646004212,0,-0.223694,-5.816044,121.9, -1.2, -0.5,0,0,1106,1024,1462,1072,12,0,66,7,0,0,0,96,4.166,4.202,4.192,4.193,4.191,4.153,0,32,9830.7100973911,9.186352,6,P-GPS,
7500,2023-10-10 21:09:13,38.4981874269301,-112.064454302395,10.170604,,,9831.6943493911,10.170604,0.223694,2.18783799652,3.3385171672,16,5,25.097,9831.6943493911,10.170604,1.006623,2.18783799652,0,-0.223694,-5.816044,121.9, -2, -0.9,0,0,1104,1024,1464,1081,12,0,67,9,0,0,0,96,4.166,4.202,4.192,4.193,4.191,4.153,0,32,9831.6943493911,10.170604,6,P-GPS,
7600,2023-10-10 21:09:14,38.4981874123136,-112.064454444232,11.154856,,,9832.6786013911,10.826772,0.223694,2.2232776302,3.3793636252,16,5,25.097,9832.6786013911,11.154856,1.006623,2.2232776302,0,-0.223694,-6.039738,121.7, -3.3, -1.1,0,0,1100,1024,1463,1089,12,0,67,10,0,0,0,96,4.166,4.202,4.192,4.193,4.191,4.153,0,32,9832.6786013911,11.154856,6,P-GPS,
7700,2023-10-10 21:09:14,38.4981873937105,-112.064454546234,12.139108,,,9833.6628533911,11.48294,0,2.24778878584,3.4092520776,16,5,25.097,9833.6628533911,12.139108,1.006623,2.24778878584,0,0,-6.039738,121.6, -4.4, -1.2,0,0,1100,1024,1463,1103,12,0,67,12,0,0,0,96,4.166,4.202,4.192,4.193,4.191,4.153,0,32,9833.6628533911,12.139108,6,P-GPS,
7800,2023-10-10 21:09:14,38.4981873645491,-112.064454562693,12.795276,,,9834.3190213911,11.811024,0,2.24826778848,3.4208990596,16,5,25.097,9834.3190213911,12.795276,1.006623,2.24826778848,0,0,-6.263432,121.5, -4.8, -1.5,0,0,1103,1024,1457,1135,12,0,66,17,0,0,0,96,4.166,4.202,4.192,4.193,4.191,4.153,0,32,9834.3190213911,12.795276,6,P-GPS,
7900,2023-10-10 21:09:14,38.4981872037757,-112.064454615446,13.779528,,,9835.3032733911,12.467192,0,2.24177500612,3.481463366,16,5,25.053,9835.3032733911,13.779528,1.006623,2.24826778848,0,0,-6.263432,121.5, -4.4, -1.4,0,0,1101,1024,1458,1140,12,0,66,18,0,0,0,96,4.183,4.186,4.179,4.179,4.153,4.173,0,32,9835.3032733911,13.779528,6,P-GPS,
8000,2023-10-10 21:09:14,38.4981871549645,-112.064454488209,14.76378,,,9836.2875253911,12.795276,0.223694,2.20156503108,3.5219161232,17,5,25.053,9836.2875253911,14.76378,1.006623,2.24826778848,0,0.223694,-6.263432,121.9, -3.6, -1.2,0,0,1100,1024,1453,1160,12,0,65,21,0,0,0,96,4.183,4.186,4.179,4.179,4.153,4.173,0,32,9836.2875253911,14.76378,6,P-GPS,
8100,2023-10-10 21:09:14,38.4981869048119,-112.064454208809,15.748032,,,9837.2717773911,13.451444,0.223694,2.09655190436,3.6431431612,17,5,25.053,9837.2717773911,15.748032,1.006623,2.24826778848,0,0.223694,-6.263432,122.5, -2.9, -0.5,0,0,1101,1024,1446,1162,12,0,64,21,0,0,0,96,4.183,4.186,4.179,4.179,4.153,4.173,0,32,9837.2717773911,15.748032,6,P-GPS,
8200,2023-10-10 21:09:14,38.4981868247922,-112.064453979079,16.732284,,,9838.2560293911,14.107612,0.223694,2.0251477026,3.7149279404,18,5,25.053,9838.2560293911,16.732284,1.006623,2.24826778848,0,0.223694,-6.263432,123.1, -2.8, 0.1,0,0,1103,1024,1450,1151,12,0,65,19,0,0,0,96,4.183,4.186,4.179,4.179,4.153,4.173,0,32,9838.2560293911,16.732284,6,P-GPS,
8300,2023-10-10 21:09:14,38.4981864359689,-112.064453877024,17.716536,,,9839.2402813911,14.76378,0.4921268,1.95800203116,3.8597770264,18,5,25.053,9839.2402813911,17.716536,1.006623,2.24826778848,-0.223694,0.447388,-6.263432,123.7, -3.1, 0.8,0,0,1122,1024,1465,1152,15,0,67,19,0,0,0,96,4.183,4.186,4.179,4.179,4.153,4.173,0,32,9839.2402813911,17.716536,6,P-GPS,
8400,2023-10-10 21:09:14,38.4981862816073,-112.064453591684,18.700788,,,9840.2245333911,15.419948,0.4921268,1.86554795996,3.9587927776,18,5,25.053,9840.2245333911,18.700788,1.006623,2.24826778848,-0.223694,0.447388,-6.039738,124.3, -3.7, 1.5,0,0,1131,1024,1465,1154,16,0,67,20,0,0,0,96,4.183,4.186,4.179,4.179,4.153,4.173,0,32,9840.2245333911,18.700788,6,P-GPS,
8500,2023-10-10 21:09:14,38.4981861106472,-112.064453182043,19.356956,,,9840.8807013911,16.076116,0.6263432,1.73783142044,4.091371522,18,5,25.053,9840.8807013911,19.356956,1.006623,2.24826778848,-0.447388,0.447388,-6.039738,124.8, -3.8, 1.3,0,0,1142,1024,1466,1153,18,0,67,20,0,0,0,96,4.183,4.186,4.179,4.179,4.153,4.173,0,32,9840.8807013911,19.356956,6,P-GPS,
8600,2023-10-10 21:09:14,38.4981858617033,-112.064452795564,20.341208,,,9841.8649533911,16.4042,0.8052984,1.61240490724,4.2342849124,18,5,25.053,9841.8649533911,20.341208,1.006623,2.24826778848,-0.447388,0.671082,-6.039738,125.3, -2.9, 0.3,0,0,1161,1024,1473,1149,21,0,68,19,0,0,0,96,4.183,4.186,4.179,4.179,4.153,4.173,0,32,9841.8649533911,20.341208,6,P-GPS,
8700,2023-10-10 21:09:15,38.4981856307107,-112.064452440211,21.32546,,,9842.8492053911,17.388452,0.8052984,1.49974742332,4.3662074888,18,5,25.053,9842.8492053911,21.32546,1.006623,2.24826778848,-0.447388,0.671082,-6.039738,126.1, -2, -0.3,0,0,1165,1024,1476,1159,21,0,68,20,0,0,0,96,4.183,4.186,4.179,4.179,4.153,4.173,0,32,9842.8492053911,21.32546,6,P-GPS,
8800,2023-10-10 21:09:15,38.4981853501366,-112.064451978375,22.309712,,,9843.8334573911,18.04462,1.006623,1.35893705136,4.533136628,18,5,25.08,9843.8334573911,22.309712,1.006623,2.24826778848,-0.447388,0.894776,-6.039738,127, -1.8, -0.3,0,0,1178,1024,1465,1193,23,0,67,26,0,0,0,96,4.188,4.186,4.179,4.179,4.176,4.172,0,32,9843.8334573911,22.309712,6,P-GPS,
8900,2023-10-10 21:09:15,38.4981849637197,-112.064451437546,23.293964,,,9844.8177093911,19.028872,1.11847,1.20341539284,4.7422573696,18,5,25.08,9844.8177093911,23.293964,1.11847,2.24826778848,-0.671082,0.894776,-6.039738,127.9, -2.2, 0.6,0,0,1199,1024,1465,1195,27,0,67,26,0,0,0,96,4.188,4.186,4.179,4.179,4.176,4.172,0,32,9844.8177093911,23.293964,6,P-GPS,
9000,2023-10-10 21:09:15,38.4981846275213,-112.064450918237,23.950132,,,9845.4738773911,19.68504,1.11847,1.06915685836,4.9346786356,18,5,25.08,9845.4738773911,23.950132,1.11847,2.24826778848,-0.671082,0.894776,-6.039738,128.6, -2.8, 1.6,0,0,1222,1024,1473,1174,30,0,68,23,0,0,0,96,4.188,4.186,4.179,4.179,4.176,4.172,0,32,9845.4738773911,23.950132,6,P-GPS,
9100,2023-10-10 21:09:15,38.4981846112841,-112.06445047049,24.934384,,,9846.4581293911,20.341208,1.2750558,0.944553836,5.062664204,18,5,25.08,9846.4581293911,24.934384,1.2750558,2.24826778848,-0.894776,0.894776,-6.039738,129.5, -3.5, 1,0,0,1243,1024,1473,1169,33,0,68,22,0,0,0,96,4.188,4.186,4.179,4.179,4.176,4.172,0,32,9846.4581293911,24.934384,6,P-GPS,
9200,2023-10-10 21:09:15,38.4981842189025,-112.064449937049,25.918636,,,9847.4423813911,21.32546,1.2750558,0.84104989568,5.2717193288,18,5,25.08,9847.4423813911,25.918636,1.2750558,2.24826778848,-0.894776,0.894776,-6.039738,130.5, -2.9, 0.7,0,0,1253,1024,1474,1167,35,0,68,22,0,0,0,96,4.188,4.186,4.179,4.179,4.176,4.172,0,32,9847.4423813911,25.918636,6,P-GPS,
9300,2023-10-10 21:09:15,38.4981833558552,-112.064449619407,26.902888,,,9848.4266333911,21.981628,1.2750558,0.93932745788,5.599409628,18,5,25.08,9848.4266333911,26.902888,1.2750558,2.24826778848,-0.894776,0.894776,-6.263432,131.5, -2.6, 0.8,0,0,1277,1024,1480,1168,38,0,69,22,0,0,0,96,4.188,4.186,4.179,4.179,4.176,4.172,0,32,9848.4266333911,26.902888,6,P-GPS,
9400,2023-10-10 21:09:15,38.498182899724,-112.064449150198,27.559056,,,9849.0828013911,22.637796,1.2750558,0.9796424198,5.8130579288,18,5,25.08,9849.0828013911,27.559056,1.2750558,2.24826778848,-0.894776,0.894776,-6.263432,132.4, -3.7, 0.8,0,0,1289,1024,1480,1173,40,0,69,23,0,0,0,96,4.188,4.186,4.179,4.179,4.176,4.172,0,32,9849.0828013911,27.559056,6,P-GPS,
9500,2023-10-10 21:09:15,38.4981822523113,-112.064448689902,28.543308,,,9850.0670533911,23.293964,1.2974252,1.12775266076,6.0833663364,18,5,25.08,9850.0670533911,28.543308,1.2974252,2.24826778848,-1.11847,0.671082,-6.487126,133.2, -6.1, 0.1,0,0,1332,1024,1480,1146,47,0,69,18,0,0,0,96,4.188,4.186,4.179,4.179,4.176,4.172,0,32,9850.0670533911,28.543308,6,P-GPS,
9600,2023-10-10 21:09:15,38.4981817426347,-112.064448266019,29.52756,,,9851.0513053911,23.293964,1.4316416,1.2687172322,6.3052167372,18,5,25.08,9851.0513053911,29.52756,1.4316416,2.24826778848,-1.11847,0.894776,-6.71082,134.1, -9.2, -0.8,0,0,1344,1024,1480,1139,48,0,69,17,0,0,0,96,4.188,4.186,4.179,4.179,4.176,4.172,0,32,9851.0513053911,29.52756,6,P-GPS,
9700,2023-10-10 21:09:16,38.4981812410058,-112.064447755614,30.511812,,,9852.0355573911,23.293964,1.4316416,1.42461618732,6.539206246,18,5,25.08,9852.0355573911,30.511812,1.4316416,2.24826778848,-1.11847,0.894776,-6.71082,134.9, -12.7, -1.1,0,0,1349,1024,1478,1139,49,0,69,17,0,0,0,96,4.188,4.186,4.179,4.179,4.176,4.172,0,32,9852.0355573911,30.511812,6,P-GPS,
9800,2023-10-10 21:09:16,38.4981806225815,-112.064447141332,31.496064,,,9853.0198093911,23.293964,1.901399,1.64244755912,6.82496741,18,5,25.048,9853.0198093911,31.496064,1.901399,2.24826778848,-1.342164,1.342164,-6.71082,135.6, -15.1, -0.5,0,0,1349,1024,1478,1145,49,0,69,18,0,0,0,96,4.179,4.179,4.179,4.173,4.168,4.17,0,32,9853.0198093911,31.496064,6,P-GPS,
9900,2023-10-10 21:09:16,38.4981797617521,-112.064446398113,32.480316,,,9854.0040613911,23.293964,2.3711564,1.97063326516,7.2040356636,18,5,25.048,9854.0040613911,32.480316,2.3711564,2.24826778848,-1.789552,1.565858,-6.71082,136.1, -16, 0.4,0,0,1354,1024,1479,1157,50,0,69,20,0,0,0,96,4.179,4.179,4.179,4.173,4.168,4.17,0,32,9854.0040613911,32.480316,6,P-GPS,
10000,2023-10-10 21:09:16,38.4981788853609,-112.064445480175,33.792652,,,9855.3163973911,23.293964,2.684328,2.33015755488,7.6174871204,18,5,25.048,9855.3163973911,33.792652,2.684328,2.33015755488,-2.013246,1.789552,-6.71082,136.6, -15.5, 0.1,0,0,1361,1024,1486,1158,51,0,70,20,0,0,0,96,4.179,4.179,4.179,4.173,4.168,4.17,0,32,9855.3163973911,33.792652,6,P-GPS,
10100,2023-10-10 21:09:16,38.4981778352175,-112.064444402599,34.776904,,,9856.3006493911,23.293964,3.1540854,2.77891413092,8.1088913356,18,5,25.048,9856.3006493911,34.776904,3.1540854,2.77891413092,-2.23694,2.23694,-6.487126,137.1, -14.5, -0.1,0,0,1407,1024,1497,1115,58,0,72,14,0,0,0,96,4.179,4.179,4.179,4.173,4.168,4.17,0,32,9856.3006493911,34.776904,6,P-GPS,
10200,2023-10-10 21:09:16,38.4981767514638,-112.064443136334,35.433072,,,9856.9568173911,23.293964,3.4896264,3.27044629888,8.644685316,18,5,25.048,9856.9568173911,35.433072,3.4896264,3.27044629888,-2.460634,2.460634,-6.487126,137.6, -14.1, 1.2,0,0,1410,1024,1500,1095,58,0,72,11,0,0,0,96,4.179,4.179,4.179,4.173,4.168,4.17,0,32,9856.9568173911,35.433072,6,P-GPS,
10300,2023-10-10 21:09:16,38.4981755385015,-112.064441630632,36.417324,,,9857.9410693911,23.293964,4.1159696,3.8451116716,9.2616800864,18,5,25.048,9857.9410693911,36.417324,4.1159696,3.8451116716,-2.908022,2.908022,-6.487126,138.1, -13.6, 2.6,0,0,1405,1024,1508,1086,58,0,73,9,0,0,0,96,4.179,4.179,4.179,4.173,4.168,4.17,0,32,9857.9410693911,36.417324,6,P-GPS,
10400,2023-10-10 21:09:16,38.4981742167395,-112.064440088006,37.401576,,,9858.9253213911,23.293964,4.1159696,4.471292794,9.9148297136,18,5,25.048,9858.9253213911,37.401576,4.1159696,4.471292794,-3.131716,3.131716,-6.263432,138.4, -13.5, 2.4,0,0,1406,1024,1511,1089,58,0,74,10,0,0,0,96,4.179,4.179,4.179,4.173,4.168,4.17,0,32,9858.9253213911,37.401576,6,P-GPS,
10500,2023-10-10 21:09:16,38.4981727729623,-112.06443839845,38.385828,,,9859.9095733911,23.293964,4.8988986,5.163550034,10.6291341984,18,5,25.048,9859.9095733911,38.385828,4.8988986,5.163550034,-3.579104,3.35541,-6.263432,138.7, -13.6, 1.9,0,0,1413,1024,1511,1072,59,0,74,7,0,0,0,96,4.179,4.179,4.179,4.173,4.168,4.17,0,32,9859.9095733911,38.385828,6,P-GPS,
10600,2023-10-10 21:09:16,38.4981711984999,-112.064436574561,39.37008,,,9860.8938253911,23.293964,5.2120702,5.9216865412,11.4044951156,18,5,25.048,9860.8938253911,39.37008,5.2120702,5.9216865412,-3.802798,3.579104,-6.487126,138.9, -13.6, 1.8,0,0,1417,1024,1512,1069,60,0,74,7,0,0,0,96,4.179,4.179,4.179,4.173,4.168,4.17,0,32,9860.8938253911,39.37008,6,P-GPS,
10700,2023-10-10 21:09:16,38.4981694430105,-112.06443469121,40.354332,,,9861.8780773911,23.293964,5.2120702,6.7487863052,12.24081404,18,5,25.048,9861.8780773911,40.354332,5.2120702,6.7487863052,-4.250186,4.026492,-6.71082,139.2, -13, 2.4,0,0,1421,1024,1519,1064,60,0,75,6,0,0,0,96,4.179,4.179,4.179,4.173,4.168,4.17,0,32,9861.8780773911,40.354332,6,P-GPS,
10800,2023-10-10 21:09:17,38.498167562798,-112.064432578836,41.338584,,,9862.8623293911,23.293964,6.3305402,7.6516734732,13.1542655128,18,5,25.055,9862.8623293911,41.338584,6.3305402,7.6516734732,-4.697574,4.250186,-6.934514,139.6, -12.7, 3.1,0,0,1429,1024,1524,1064,61,0,76,6,0,0,0,96,4.179,4.173,4.169,4.176,4.183,4.175,0,32,9862.8623293911,41.338584,6,P-GPS,
10900,2023-10-10 21:09:17,38.4981653624205,-112.064430307403,42.322836,,,9863.8465813911,23.293964,6.3305402,8.6791013276,14.18635216,18,5,25.055,9863.8465813911,42.322836,6.3305402,8.6791013276,-4.921268,4.47388,-6.934514,139.7, -13.3, 3.3,0,0,1441,1024,1525,1064,63,0,76,6,0,0,0,96,4.179,4.173,4.169,4.176,4.183,4.175,0,32,9863.8465813911,42.322836,6,P-GPS,
11000,2023-10-10 21:09:17,38.4981631367275,-112.064427984962,43.307088,,,9864.8308333911,23.293964,7.1358386,9.7233598912,15.2347773904,18,5,25.055,9864.8308333911,43.307088,7.1358386,9.7233598912,-5.368656,4.697574,-6.934514,139.8, -14, 2.6,0,0,1453,1024,1525,1048,65,0,76,4,0,0,0,96,4.179,4.173,4.169,4.176,4.183,4.175,0,32,9864.8308333911,43.307088,6,P-GPS,
11100,2023-10-10 21:09:17,38.4981607625952,-112.064425392477,44.619424,,,9866.1431693911,23.293964,7.6279654,10.8569885364,16.374180314,18,5,25.055,9866.1431693911,44.619424,7.6279654,10.8569885364,-5.816044,4.921268,-7.158208,139.9, -13.4, 1.6,0,0,1455,1024,1533,1024,65,0,77,0,0,0,0,96,4.179,4.173,4.169,4.176,4.183,4.175,0,32,9866.1431693911,44.619424,6,P-GPS,
11200,2023-10-10 21:09:17,38.4981582157515,-112.064422802982,45.603676,,,9867.1274213911,23.293964,8.0977228,12.0425200704,17.561680352,18,5,25.055,9867.1274213911,45.603676,8.0977228,12.0425200704,-6.263432,5.144962,-7.158208,140.2, -13, 0.8,0,0,1456,1024,1534,1024,65,0,77,0,0,0,0,96,4.179,4.173,4.169,4.176,4.183,4.175,0,32,9867.1274213911,45.603676,6,P-GPS,
11300,2023-10-10 21:09:17,38.4981553648039,-112.064420071973,46.587928,,,9868.1116733911,23.293964,8.4108944,13.3421592196,18.861713202,18,5,25.055,9868.1116733911,46.587928,8.4108944,13.3421592196,-6.487126,5.368656,-7.381902,140.5, -13.3, 0.2,0,0,1455,1024,1537,1024,65,0,78,0,0,0,0,96,4.179,4.173,4.169,4.176,4.183,4.175,0,32,9868.1116733911,46.587928,6,P-GPS,
11400,2023-10-10 21:09:17,38.4981525445482,-112.064417228571,47.900264,,,9869.4240093911,23.293964,8.9030212,14.6515096552,20.1724415904,18,5,25.055,9869.4240093911,47.900264,8.9030212,14.6515096552,-6.934514,5.59235,-7.381902,140.6, -14, 0.2,0,0,1452,1024,1540,1024,65,0,78,0,0,0,0,96,4.179,4.173,4.169,4.176,4.183,4.175,0,32,9869.4240093911,47.900264,6,P-GPS,
11500,2023-10-10 21:09:17,38.4981496960796,-112.064414162267,48.884516,,,9870.4082613911,23.293964,9.2161928,16.006890276,21.5313655184,18,5,25.055,9870.4082613911,48.884516,9.2161928,16.006890276,-7.158208,5.816044,-7.381902,140.7, -15, 0.4,0,0,1452,1024,1546,1024,65,0,79,0,0,0,0,96,4.179,4.173,4.169,4.176,4.183,4.175,0,32,9870.4082613911,48.884516,6,P-GPS,
11600,2023-10-10 21:09:17,38.4981466296272,-112.064411029598,49.868768,,,9871.3925133911,23.293964,9.6859502,17.4380583008,22.9637802624,18,5,25.055,9871.3925133911,49.868768,9.6859502,17.4380583008,-7.381902,6.263432,-7.381902,140.8, -15, 0.1,0,0,1453,1024,1543,1024,65,0,79,0,0,0,0,96,4.179,4.173,4.169,4.176,4.183,4.175,0,32,9871.3925133911,49.868768,6,P-GPS,
11700,2023-10-10 21:09:18,38.4981433465161,-112.06440785161,51.181104,,,9872.7048493911,23.293964,10.178077,18.9406830208,24.466536216,18,5,25.055,9872.7048493911,51.181104,10.178077,18.9406830208,-7.82929,6.487126,-7.381902,140.9, -14.2, -0.3,0,0,1452,1024,1544,1024,65,0,79,0,0,0,0,96,4.179,4.173,4.169,4.176,4.183,4.175,0,32,9872.7048493911,51.181104,6,P-GPS,
11800,2023-10-10 21:09:18,38.4981400411112,-112.064404484107,52.165356,,,9873.6891013911,23.293964,10.4912486,20.4820544612,26.0089247168,18,5,25.055,9873.6891013911,52.165356,10.4912486,20.4820544612,-8.052984,6.71082,-7.605596,140.6, -14, -1.1,0,0,1451,1024,1542,1024,65,0,78,0,0,0,0,96,4.179,4.173,4.169,4.176,4.183,4.175,0,32,9873.6891013911,52.165356,6,P-GPS,
11900,2023-10-10 21:09:18,38.4981366106781,-112.064400907869,53.477692,,,9875.0014373911,23.293964,10.8044202,22.095801232,27.6242462908,18,5,25.055,9875.0014373911,53.477692,10.8044202,22.095801232,-8.276678,6.934514,-7.82929,140.3, -14.2, -1.6,0,0,1451,1024,1533,1024,65,0,77,0,0,0,0,96,4.179,4.173,4.169,4.176,4.183,4.175,0,32,9875.0014373911,53.477692,6,P-GPS,
12000,2023-10-10 21:09:18,38.4981331064106,-112.064397228423,54.461944,,,9875.9856893911,23.293964,11.2518082,23.749016508,29.2790691784,18,5,24.837,9875.9856893911,54.461944,11.2518082,23.749016508,-8.500372,7.381902,-8.052984,139.9, -13.7, -0.6,0,0,1450,1024,1526,1024,65,0,76,0,0,0,0,96,4.143,4.149,4.144,4.136,4.133,4.132,0,32,9875.9856893911,54.461944,6,P-GPS,
12100,2023-10-10 21:09:18,38.4981293436606,-112.064393455445,55.77428,,,9877.2980253911,23.293964,11.5649798,25.49376722,31.0241807828,18,5,24.837,9877.2980253911,55.77428,11.5649798,25.49376722,-8.724066,7.605596,-8.276678,139.2, -14.5, -0.1,0,0,1450,1024,1519,1024,65,0,75,0,0,0,0,96,4.143,4.149,4.144,4.136,4.133,4.132,0,32,9877.2980253911,55.77428,6,P-GPS,
12200,2023-10-10 21:09:18,38.4981256431379,-112.064389503566,57.086616,,,9878.6103613911,23.293964,11.9005208,27.251313208,32.7837937,18,5,24.837,9878.6103613911,57.086616,11.9005208,27.251313208,-8.94776,7.82929,-8.500372,138.8, -16.1, -0.7,0,0,1451,1024,1523,1024,65,0,76,0,0,0,0,96,4.143,4.149,4.144,4.136,4.133,4.132,0,32,9878.6103613911,57.086616,6,P-GPS,
12300,2023-10-10 21:09:18,38.4981220789552,-112.064385243283,58.398952,,,9879.9226973911,23.293964,12.3479088,29.0232292752,34.564305568,18,5,24.837,9879.9226973911,58.398952,12.3479088,29.0232292752,-9.171454,8.276678,-8.500372,138.8, -16.9, -0.1,0,0,1450,1024,1526,1024,65,0,76,0,0,0,0,96,4.143,4.149,4.144,4.136,4.133,4.132,0,32,9879.9226973911,58.398952,6,P-GPS,
12400,2023-10-10 21:09:18,38.4981182256002,-112.064380909441,59.383204,,,9880.9069493911,23.293964,12.6610804,30.8923566316,36.437337124,18,5,24.837,9880.9069493911,59.383204,12.6610804,30.8923566316,-9.395148,8.500372,-8.276678,138.8, -17, 1.3,0,0,1453,1024,1526,1024,65,0,76,0,0,0,0,96,4.143,4.149,4.144,4.136,4.133,4.132,0,32,9880.9069493911,59.383204,6,P-GPS,
12500,2023-10-10 21:09:18,38.4981141039024,-112.064376591027,60.69554,,,9882.2192853911,23.293964,13.1308378,32.83628714,38.382219076,18,5,24.837,9882.2192853911,60.69554,13.1308378,32.83628714,-9.618842,8.94776,-8.276678,139, -16.2, 2.6,0,0,1457,1024,1528,1024,66,0,76,0,0,0,0,96,4.143,4.149,4.144,4.136,4.133,4.132,0,32,9882.2192853911,60.69554,6,P-GPS,
12600,2023-10-10 21:09:18,38.4981100070844,-112.064372006492,62.007876,,,9883.5316213911,23.293964,13.6229646,34.820211088,40.36909578,18,5,24.837,9883.5316213911,62.007876,13.6229646,34.820211088,-10.06623,9.171454,-8.276678,139.3, -15.7, 4,0,0,1468,1024,1533,1024,67,0,77,0,0,0,0,96,4.143,4.149,4.144,4.136,4.133,4.132,0,32,9883.5316213911,62.007876,6,P-GPS,
12700,2023-10-10 21:09:19,38.498106075241,-112.064367547695,63.320212,,,9884.8439573911,23.293964,13.7795504,36.734909312,42.287074844,18,5,24.837,9884.8439573911,63.320212,13.7795504,36.734909312,-10.289924,9.171454,-8.052984,139.4, -16.4, 4.5,0,0,1472,1024,1532,1024,68,0,77,0,0,0,0,96,4.143,4.149,4.144,4.136,4.133,4.132,0,32,9884.8439573911,63.320212,6,P-GPS,
12800,2023-10-10 21:09:19,38.4981017159845,-112.064362810824,64.304464,,,9885.8282093911,23.293964,14.2716772,38.821195468,44.37500142,18,5,24.837,9885.8282093911,64.304464,14.2716772,38.821195468,-10.737312,9.395148,-7.82929,139.4, -16.7, 3.3,0,0,1473,1024,1525,1024,68,0,76,0,0,0,0,96,4.143,4.149,4.144,4.136,4.133,4.132,0,32,9885.8282093911,64.304464,6,P-GPS,
12900,2023-10-10 21:09:19,38.4980970522878,-112.064358028179,65.6168,,,9887.1405453911,23.293964,14.8980204,41.002954068,46.55676002,18,5,25.008,9887.1405453911,65.6168,14.8980204,41.002954068,-11.1847,9.842536,-7.605596,139.5, -16.5, 1.6,0,0,1479,1024,1510,1024,69,0,74,0,0,0,0,96,4.182,4.186,4.189,4.172,4.137,4.142,0,32,9887.1405453911,65.6168,6,P-GPS,
13000,2023-10-10 21:09:19,38.4980924139034,-112.064352980591,66.601052,,,9888.1247973911,23.293964,15.211192,43.224738916,48.77952912,18,5,25.008,9888.1247973911,66.601052,15.211192,43.224738916,-11.408394,10.06623,-7.381902,139.5, -16, 1.3,0,0,1483,1024,1498,1024,70,0,72,0,0,0,0,96,4.182,4.186,4.189,4.172,4.137,4.142,0,32,9888.1247973911,66.601052,6,P-GPS,
13100,2023-10-10 21:09:19,38.4980872970276,-112.064347289761,67.585304,,,9889.1090493911,23.293964,15.6809494,45.697508024,51.254594816,18,5,25.008,9889.1090493911,67.585304,15.6809494,45.697508024,-11.632088,10.513618,-7.158208,139.4, -15.6, 1.7,0,0,1488,1024,1493,1024,70,0,71,0,0,0,0,96,4.182,4.186,4.189,4.172,4.137,4.142,0,32,9889.1090493911,67.585304,6,P-GPS,
13200,2023-10-10 21:09:19,38.4980824374011,-112.064341852387,68.89764,,,9890.4213853911,23.293964,15.994121,48.051838808,53.611222188,18,5,25.008,9890.4213853911,68.89764,15.994121,48.051838808,-11.855782,10.737312,-6.71082,139.4, -15, 3.1,0,0,1492,1024,1489,1024,71,0,70,0,0,0,0,96,4.182,4.186,4.189,4.172,4.137,4.142,0,32,9890.4213853911,68.89764,6,P-GPS,
13300,2023-10-10 21:09:19,38.4980774845151,-112.064336298116,69.881892,,,9891.4056373911,23.293964,16.3072926,50.454069856,56.015749824,18,5,25.008,9891.4056373911,69.881892,16.3072926,50.454069856,-12.079476,10.961006,-6.487126,139.3, -14.7, 4.2,0,0,1497,1024,1483,1024,72,0,70,0,0,0,0,96,4.182,4.186,4.189,4.172,4.137,4.142,0,32,9891.4056373911,69.881892,6,P-GPS,
13400,2023-10-10 21:09:19,38.4980724107711,-112.064330584637,70.866144,,,9892.3898893911,23.293964,16.77705,52.919293032,58.483269588,18,5,25.008,9892.3898893911,70.866144,16.77705,52.919293032,-12.30317,11.408394,-6.039738,139.3, -13, 4.7,0,0,1500,1024,1481,1024,72,0,69,0,0,0,0,96,4.182,4.186,4.189,4.172,4.137,4.142,0,32,9892.3898893911,70.866144,6,P-GPS,
13500,2023-10-10 21:09:19,38.4980675733228,-112.064325275026,71.522312,,,9893.0460573911,23.293964,17.112591,55.245080508,60.810041316,18,5,25.008,9893.0460573911,71.522312,17.112591,55.245080508,-12.750558,11.408394,-6.039738,139.5, -10.3, 4.6,0,0,1504,1024,1476,1024,73,0,68,0,0,0,0,96,4.182,4.186,4.189,4.172,4.137,4.142,0,32,9893.0460573911,71.522312,6,P-GPS,
13600,2023-10-10 21:09:19,38.49806233147,-112.064319489192,72.506564,,,9894.0303093911,23.293964,17.112591,57.771327308,63.337272368,18,5,25.008,9894.0303093911,72.506564,17.112591,57.771327308,-12.750558,11.408394,-6.039738,139.6, -9.6, 3.6,0,0,1505,1024,1463,1024,73,0,67,0,0,0,0,96,4.182,4.186,4.189,4.172,4.137,4.142,0,32,9894.0303093911,72.506564,6,P-GPS,
13700,2023-10-10 21:09:20,38.4980570527018,-112.064313583135,73.490816,,,9895.0145613911,23.293964,17.2691768,60.329398256,65.896983736,18,5,25.008,9895.0145613911,73.490816,17.2691768,60.329398256,-12.974252,11.408394,-6.263432,139.4, -9.7, 3,0,0,1508,1024,1461,1024,73,0,66,0,0,0,0,96,4.182,4.186,4.189,4.172,4.137,4.142,0,32,9895.0145613911,73.490816,6,P-GPS,
13800,2023-10-10 21:09:20,38.4980517700383,-112.064307699574,74.475068,,,9895.9988133911,23.293964,17.4257626,62.885172616,68.453742348,18,5,25.008,9895.9988133911,74.475068,17.4257626,62.885172616,-12.974252,11.632088,-6.263432,139, -12, 3,0,0,1516,1024,1459,1024,75,0,66,0,0,0,0,96,4.182,4.186,4.189,4.172,4.137,4.142,0,32,9895.9988133911,74.475068,6,P-GPS,
13900,2023-10-10 21:09:20,38.4980461931328,-112.064301839011,75.131236,,,9896.6549813911,23.293964,17.7389342,65.519687136,71.088256868,18,5,25.022,9896.6549813911,75.131236,17.7389342,65.519687136,-13.197946,11.855782,-6.263432,138.5, -15.2, 4,0,0,1528,1024,1458,1024,76,0,66,0,0,0,0,96,4.18,4.176,4.167,4.152,4.167,4.18,0,32,9896.6549813911,75.131236,6,P-GPS,
14000,2023-10-10 21:09:20,38.4980407996723,-112.06429569894,76.115488,,,9897.6392333911,23.293964,18.0521058,68.15288932,73.724083724,18,5,25.022,9897.6392333911,76.115488,18.0521058,68.15288932,-13.42164,12.079476,-6.039738,138.2, -17, 5,0,0,1527,1024,1458,1024,76,0,66,0,0,0,0,96,4.18,4.176,4.167,4.152,4.167,4.18,0,32,9897.6392333911,76.115488,6,P-GPS,
14100,2023-10-10 21:09:20,38.498034631655,-112.064289063315,77.09974,,,9898.6234853911,23.293964,18.3652774,71.094490464,76.665684868,18,5,25.022,9898.6234853911,77.09974,18.3652774,71.094490464,-13.645334,12.30317,-6.263432,138.5, -16.3, 6.2,0,0,1525,1024,1449,1024,76,0,64,0,0,0,0,96,4.18,4.176,4.167,4.152,4.167,4.18,0,32,9898.6234853911,77.09974,6,P-GPS,
14200,2023-10-10 21:09:20,38.4980289400225,-112.064282617117,78.083992,,,9899.6077373911,23.293964,18.8574042,73.867784516,79.44061934,18,5,25.022,9899.6077373911,78.083992,18.8574042,73.867784516,-14.092722,12.526864,-6.263432,139, -14.5, 6.8,0,0,1526,1024,1435,1024,76,0,62,0,0,0,0,96,4.18,4.176,4.167,4.152,4.167,4.18,0,32,9899.6077373911,78.083992,6,P-GPS,
14300,2023-10-10 21:09:20,38.4980237106375,-112.064276383794,78.74016,,,9900.2639053911,23.293964,19.1705758,76.472115308,82.049871392,18,5,25.022,9900.2639053911,78.74016,19.1705758,76.472115308,-14.316416,12.750558,-6.039738,139.2, -13.9, 6.4,0,0,1524,1024,1425,1024,76,0,61,0,0,0,0,96,4.18,4.176,4.167,4.152,4.167,4.18,0,32,9900.2639053911,78.74016,6,P-GPS,
14400,2023-10-10 21:09:20,38.4980178813807,-112.064269830108,79.724412,,,9901.2481573911,23.293964,19.349531,79.303808312,84.882876732,18,5,25.022,9901.2481573911,79.724412,19.349531,79.303808312,-14.54011,12.750558,-5.816044,139.3, -14.2, 5.8,0,0,1524,1024,1419,1024,76,0,60,0,0,0,0,96,4.18,4.176,4.167,4.152,4.167,4.18,0,32,9901.2481573911,79.724412,6,P-GPS,
14500,2023-10-10 21:09:20,38.4980114819313,-112.064262666979,80.708664,,,9902.2324093911,23.293964,19.6627026,82.406826784,87.986879456,18,5,25.022,9902.2324093911,80.708664,19.6627026,82.406826784,-14.763804,12.974252,-5.816044,139.2, -13.8, 5.2,0,0,1524,1024,1403,1024,76,0,57,0,0,0,0,96,4.18,4.176,4.167,4.152,4.167,4.18,0,32,9902.2324093911,80.708664,6,P-GPS,
14600,2023-10-10 21:09:20,38.4980054475565,-112.064255912958,81.364832,,,9902.8885773911,23.293964,19.9758742,85.332679896,90.91371682,18,5,25.022,9902.8885773911,81.364832,19.9758742,85.332679896,-14.987498,13.197946,-5.816044,139, -14.1, 4.7,0,0,1526,1024,1379,1024,76,0,54,0,0,0,0,96,4.18,4.176,4.167,4.152,4.167,4.18,0,32,9902.8885773911,81.364832,6,P-GPS,
14700,2023-10-10 21:09:21,38.4979998667634,-112.064249818261,82.349084,,,9903.8728293911,23.293964,19.9758742,88.011157672,93.592194596,18,5,25.022,9903.8728293911,82.349084,19.9758742,88.011157672,-14.987498,13.197946,-5.816044,138.8, -15.1, 3.9,0,0,1526,1024,1379,1024,76,0,54,0,0,0,0,96,4.18,4.176,4.167,4.152,4.167,4.18,0,32,9903.8728293911,82.349084,6,P-GPS,
14800,2023-10-10 21:09:21,38.497993782672,-112.06424292964,83.005252,,,9904.5289973911,23.293964,20.2890458,90.975724696,96.558073956,18,5,25.022,9904.5289973911,83.005252,20.2890458,90.975724696,-15.211192,13.42164,-5.59235,138.7, -16.1, 4,0,0,1530,1024,1362,1024,77,0,51,0,0,0,0,96,4.18,4.176,4.167,4.152,4.167,4.18,0,32,9904.5289973911,83.005252,6,P-GPS,
14900,2023-10-10 21:09:21,38.4979875420661,-112.064235957098,83.989504,,,9905.5132493911,23.293964,20.4456316,93.999674924,99.582680352,18,5,24.932,9905.5132493911,83.989504,20.4456316,93.999674924,-15.211192,13.645334,-5.368656,138.6, -17, 5.1,0,0,1531,1024,1337,1024,77,0,47,0,0,0,0,96,4.172,4.163,4.145,4.158,4.154,4.14,0,32,9905.5132493911,83.989504,6,P-GPS,
15000,2023-10-10 21:09:21,38.497981349002,-112.064228824834,84.645672,,,9906.1694173911,23.293964,20.7588032,97.039373184,102.6246752,18,5,24.932,9906.1694173911,84.645672,20.7588032,97.039373184,-15.434886,13.869028,-4.921268,138.5, -17.2, 6.7,0,0,1530,1024,1327,1024,77,0,46,0,0,0,0,96,4.172,4.163,4.145,4.158,4.154,4.14,0,32,9906.1694173911,84.645672,6,P-GPS,
15100,2023-10-10 21:09:21,38.4979745373815,-112.064220937859,85.30184,,,9906.8255853911,23.293964,21.0719748,100.391079328,105.978349848,18,5,24.932,9906.8255853911,85.30184,21.0719748,100.391079328,-15.65858,14.092722,-4.697574,138.7, -17, 8,0,0,1531,1024,1314,1024,77,0,44,0,0,0,0,96,4.172,4.163,4.145,4.158,4.154,4.14,0,32,9906.8255853911,85.30184,6,P-GPS,
15200,2023-10-10 21:09:21,38.4979681418198,-112.064213556265,85.958008,,,9907.4817533911,23.293964,21.3851464,103.53346788,109.122706904,18,5,24.932,9907.4817533911,85.958008,21.3851464,103.53346788,-15.882274,14.316416,-4.250186,138.8, -17.5, 8.3,0,0,1536,1024,1307,1024,78,0,43,0,0,0,0,96,4.172,4.163,4.145,4.158,4.154,4.14,0,32,9907.4817533911,85.958008,6,P-GPS,
15300,2023-10-10 21:09:21,38.4979617000178,-112.064205967069,86.614176,,,9908.1379213911,23.293964,21.3851464,106.72736562,112.3195574,18,5,24.932,9908.1379213911,86.614176,21.3851464,106.72736562,-15.882274,14.54011,-3.802798,138.8, -17.3, 8,0,0,1539,1024,1283,1024,78,0,39,0,0,0,0,96,4.172,4.163,4.145,4.158,4.154,4.14,0,32,9908.1379213911,86.614176,6,P-GPS,
15400,2023-10-10 21:09:21,38.4979551627385,-112.064198365225,87.270344,,,9908.7940893911,23.293964,21.8549038,109.950134752,115.54462312,18,5,24.932,9908.7940893911,87.270344,21.8549038,109.950134752,-16.105968,14.763804,-3.35541,138.7, -16.6, 7.6,0,0,1541,1024,1271,1024,78,0,37,0,0,0,0,96,4.172,4.163,4.145,4.158,4.154,4.14,0,32,9908.7940893911,87.270344,6,P-GPS,
15500,2023-10-10 21:09:21,38.4979486649518,-112.064190847433,87.598428,,,9909.1221733911,23.293964,22.1680754,113.146657164,118.742785952,18,5,24.932,9909.1221733911,87.598428,22.1680754,113.146657164,-16.329662,14.987498,-3.131716,138.6, -15.9, 7.5,0,0,1539,1024,1264,1024,78,0,36,0,0,0,0,96,4.172,4.163,4.145,4.158,4.154,4.14,0,32,9909.1221733911,87.598428,6,P-GPS,
15600,2023-10-10 21:09:21,38.4979420231355,-112.06418306149,87.926512,,,9909.4502573911,23.293964,22.481247,116.432746508,122.031499968,18,5,24.932,9909.4502573911,87.926512,22.481247,116.432746508,-16.553356,15.211192,-2.908022,138.6, -15.3, 7.6,0,0,1538,1024,1255,1024,78,0,35,0,0,0,0,96,4.172,4.163,4.145,4.158,4.154,4.14,0,32,9909.4502573911,87.926512,6,P-GPS,
15700,2023-10-10 21:09:22,38.4979354806156,-112.064175350758,88.58268,,,9910.1064253911,23.293964,22.481247,119.677497268,125.2788754,18,5,24.932,9910.1064253911,88.58268,22.481247,119.677497268,-16.553356,15.211192,-2.684328,138.6, -14.8, 7.9,0,0,1538,1024,1254,1024,78,0,35,0,0,0,0,96,4.172,4.163,4.145,4.158,4.154,4.14,0,32,9910.1064253911,88.58268,6,P-GPS,
15800,2023-10-10 21:09:22,38.4979287564233,-112.064167414854,88.910764,,,9910.4345093911,23.293964,22.7944186,123.014767716,128.618442436,18,5,24.932,9910.4345093911,88.910764,22.7944186,123.014767716,-16.77705,15.434886,-2.460634,138.5, -14.6, 8.1,0,0,1538,1024,1252,1024,78,0,35,0,0,0,0,96,4.172,4.163,4.145,4.158,4.154,4.14,0,32,9910.4345093911,88.910764,6,P-GPS,
15900,2023-10-10 21:09:22,38.4979224767188,-112.064160016606,89.238848,,,9910.7625933911,23.293964,23.1075902,126.128941044,131.734912352,18,5,24.995,9910.7625933911,89.238848,23.1075902,126.128941044,-17.000744,15.65858,-2.23694,138.5, -14.3, 8.2,0,0,1540,1024,1248,1024,78,0,34,0,0,0,0,96,4.172,4.168,4.166,4.167,4.161,4.161,0,32,9910.7625933911,89.238848,6,P-GPS,
16000,2023-10-10 21:09:22,38.4979156935618,-112.064152000502,89.566932,,,9911.0906773911,23.293964,23.1075902,129.497707556,135.105975452,18,5,24.995,9911.0906773911,89.566932,23.1075902,129.497707556,-17.000744,15.65858,-2.23694,138.4, -14.1, 8.4,0,0,1542,1024,1242,1024,78,0,33,0,0,0,0,96,4.172,4.168,4.166,4.167,4.161,4.161,0,32,9911.0906773911,89.566932,6,P-GPS,
16100,2023-10-10 21:09:22,38.4979083369926,-112.064143290476,89.895016,,,9911.4187613911,23.293964,23.1075902,133.154203736,138.765096304,18,5,24.995,9911.4187613911,89.895016,23.1075902,133.154203736,-17.224438,15.65858,-2.23694,138.5, -13.9, 8.4,0,0,1548,1024,1237,1024,79,0,32,0,0,0,0,96,4.172,4.168,4.166,4.167,4.161,4.161,0,32,9911.4187613911,89.895016,6,P-GPS,
16200,2023-10-10 21:09:22,38.4979013964991,-112.064135113533,89.895016,,,9911.4187613911,23.293964,23.599717,136.596461064,142.20965022,18,5,24.995,9911.4187613911,89.895016,23.599717,136.596461064,-17.448132,15.882274,-2.013246,138.5, -14, 8.3,0,0,1552,1024,1231,1024,80,0,31,0,0,0,0,96,4.172,4.168,4.166,4.167,4.161,4.161,0,32,9911.4187613911,89.895016,6,P-GPS,
16300,2023-10-10 21:09:22,38.4978943480092,-112.064126867967,90.2231,,,9911.7468453911,23.293964,23.599717,140.081697396,145.696198888,18,5,24.995,9911.7468453911,90.2231,23.599717,140.081697396,-17.448132,15.882274,-2.013246,138.4, -14.2, 8.3,0,0,1553,1024,1231,1024,80,0,31,0,0,0,0,96,4.172,4.168,4.166,4.167,4.161,4.161,0,32,9911.7468453911,90.2231,6,P-GPS,
16400,2023-10-10 21:09:22,38.4978873091954,-112.064118577716,90.551184,,,9912.0749293911,23.293964,23.9128886,143.572511156,149.188981152,18,5,24.995,9912.0749293911,90.551184,23.9128886,143.572511156,-17.671826,16.105968,-1.789552,138.4, -14.4, 8.4,0,0,1564,1024,1213,1024,82,0,29,0,0,0,0,96,4.172,4.168,4.166,4.167,4.161,4.161,0,32,9912.0749293911,90.551184,6,P-GPS,
16500,2023-10-10 21:09:22,38.4978801947534,-112.064110336198,90.879268,,,9912.4030133911,23.293964,23.9128886,147.07513594,152.692590188,18,5,24.995,9912.4030133911,90.879268,23.9128886,147.07513594,-17.89552,16.105968,-1.789552,138.4, -14.6, 8.5,0,0,1572,1024,1199,1024,83,0,27,0,0,0,0,96,4.172,4.168,4.166,4.167,4.161,4.161,0,32,9912.4030133911,90.879268,6,P-GPS,
16600,2023-10-10 21:09:22,38.4978730472581,-112.064101955834,91.207352,,,9912.7310973911,23.293964,24.2260602,150.612865712,156.23196038,18,5,24.995,9912.7310973911,91.207352,24.2260602,150.612865712,-17.89552,16.329662,-1.789552,138.4, -14.8, 8.4,0,0,1575,1024,1189,1024,83,0,25,0,0,0,0,96,4.172,4.168,4.166,4.167,4.161,4.161,0,32,9912.7310973911,91.207352,6,P-GPS,
16700,2023-10-10 21:09:23,38.4978664400534,-112.064094295498,91.535436,,,9913.0591813911,23.293964,24.382646,153.867130908,159.487209828,18,5,24.995,9913.0591813911,91.535436,24.382646,153.867130908,-18.119214,16.329662,-1.565858,138.4, -15.4, 8.4,0,0,1575,1024,1182,1024,83,0,24,0,0,0,0,95,4.172,4.168,4.166,4.167,4.161,4.161,0,32,9913.0591813911,91.535436,6,P-GPS,
16800,2023-10-10 21:09:23,38.4978592421051,-112.064085866008,91.535436,,,9913.0591813911,23.293964,24.5392318,157.428154644,163.0495459,18,5,24.995,9913.0591813911,91.535436,24.5392318,157.428154644,-18.119214,16.553356,-1.565858,138.4, -16, 8.5,0,0,1576,1024,1168,1024,84,0,22,0,0,0,0,95,4.172,4.168,4.166,4.167,4.161,4.161,0,32,9913.0591813911,91.535436,6,P-GPS,
16900,2023-10-10 21:09:23,38.4978514522827,-112.064076504272,91.86352,,,9913.3872653911,23.293964,24.5392318,161.326776816,166.951120828,18,5,24.911,9913.3872653911,91.86352,24.5392318,161.326776816,-18.342908,16.553356,-1.342164,138.4, -16.4, 8.8,0,0,1576,1024,1160,1024,84,0,21,0,0,0,0,95,4.157,4.156,4.154,4.148,4.147,4.149,0,32,9913.3872653911,91.86352,6,P-GPS,
17000,2023-10-10 21:09:23,38.4978440846158,-112.064067877816,91.86352,,,9913.3872653911,23.293964,25.0313586,164.971461972,170.59711832,18,5,24.911,9913.3872653911,91.86352,25.0313586,164.971461972,-18.566602,16.77705,-1.342164,138.4, -16.5, 8.8,0,0,1582,1024,1146,1024,85,0,18,0,0,0,0,95,4.157,4.156,4.154,4.148,4.147,4.149,0,32,9913.3872653911,91.86352,6,P-GPS,
17100,2023-10-10 21:09:23,38.4978366532745,-112.064059170438,92.191604,,,9913.7153493911,23.293964,25.0313586,168.648955528,174.275924212,18,5,24.911,9913.7153493911,92.191604,25.0313586,168.648955528,-18.566602,16.77705,-1.11847,138.4, -16.5, 8.8,0,0,1587,1024,1134,1024,85,0,17,0,0,0,0,95,4.157,4.156,4.154,4.148,4.147,4.149,0,32,9913.7153493911,92.191604,6,P-GPS,
