time(millisecond),datetime(utc),latitude,longitude,height_above_takeoff(feet),height_above_ground_at_drone_location(feet),ground_elevation_at_drone_location(feet),altitude_above_seaLevel(feet),height_sonar(feet),speed(mph),distance(feet),mileage(feet),satellites,gpslevel,voltage(v),max_altitude(feet),max_ascent(feet),max_speed(mph),max_distance(feet), xSpeed(mph), ySpeed(mph), zSpeed(mph), compass_heading(degrees), pitch(degrees), roll(degrees),isPhoto,isVideo,rc_elevator,rc_aileron,rc_throttle,rc_rudder,rc_elevator(percent),rc_aileron(percent),rc_throttle(percent),rc_rudder(percent),gimbal_heading(degrees),gimbal_pitch(degrees),gimbal_roll(degrees),battery_percent,voltageCell1,voltageCell2,voltageCell3,voltageCell4,voltageCell5,voltageCell6,current(A),battery_temperature(f),altitude(feet),ascent(feet),flycStateRaw,flycState,message
0,2024-04-10 14:53:24,39.0947088971344,-96.5547292776957,0,Available with any HD 360 subscription,Available with any HD 360 subscription,1433.523929731,0.328084,0,0,0,21,5,0,1433.523929731,0,0,0,0,0,0,209.5, 2.9, -0.3,0,0,1024,1024,1024,1024,0,0,0,0,0,0,0,99,,,,,,,0,69.44,1433.523929731,0,41,Motors_Started,"GEO: You are in a Warning Zone (Airport). Fly with caution."
100,2024-04-10 14:53:24,39.0947088835254,-96.5547292531882,0,,,1433.523929731,0.328084,0,0.0085329399056,0.0085329399056,21,5,0,1433.523929731,0,0,0.0085329399056,0,0,0,209.5, 2.9, -0.3,0,0,1024,1024,1024,1024,0,0,0,0,0,0,0,99,,,,,,,0,69.44,1433.523929731,0,41,Motors_Started,
200,2024-04-10 14:53:24,39.094708920802,-96.5547291420609,0,,,1433.523929731,0.328084,0,0.03936515874,0.04281332158,21,5,0,1433.523929731,0,0,0.03936515874,0,0,0,209.5, 2.9, -0.3,0,0,1024,1024,1024,1024,0,0,0,0,0,0,0,99,,,,,,,0,69.44,1433.523929731,0,41,Motors_Started,
300,2024-04-10 14:53:24,39.0947089126184,-96.5547291100616,0,,,1433.523929731,0.328084,0,0.047802494968,0.052353348132,21,5,0,1433.523929731,0,0,0.047802494968,0,0,0,209.5, 2.9, -0.3,0,0,1024,1024,1024,1024,0,0,0,0,0,0,0,99,,,,,,,0,69.44,1433.523929731,0,41,Motors_Started,
400,2024-04-10 14:53:25,39.0947087790722,-96.5547291768073,0,,,1433.523929731,0.328084,0,0.051687009528,0.104614832744,21,5,0,1433.523929731,0,0,0.051687009528,0,0,0,209.5, 2.9, -0.3,0,0,1024,1024,1024,1024,0,0,0,0,0,0,0,99,,,,,,,0,69.44,1433.523929731,0,41,Motors_Started,
500,2024-04-10 14:53:25,39.094708761452,-96.5547291531902,0,,,1433.523929731,0.656168,0,0.060774608244,0.11389107976,21,5,0,1433.523929731,0,0,0.060774608244,0,0,0,209.5, 2.9, -0.3,0,0,1024,1024,1024,1024,0,0,0,0,0,0,0,99,,,,,,,0,69.44,1433.523929731,0,41,Motors_Started,
600,2024-04-10 14:53:25,39.0947088057874,-96.554729205559,0,,,1433.523929731,0.328084,0,0.03908956818,0.135835306184,21,5,0,1433.523929731,0,0,0.060774608244,0,0,0,209.5, 2.9, -0.3,0,0,1024,1024,1024,1024,0,0,0,0,0,0,0,99,,,,,,,0,69.44,1433.523929731,0,41,Motors_Started,"Infrared sensors blocked"
700,2024-04-10 14:53:25,39.0947087941534,-96.5547291893195,0,,,1433.523929731,0.656168,0,0.045143374148,0.142093508484,21,5,0,1433.523929731,0,0,0.060774608244,0,0,0,209.5, 2.9, -0.3,0,0,1024,1024,1024,1024,0,0,0,0,0,0,0,99,,,,,,,0,69.44,1433.523929731,0,41,Motors_Started,
800,2024-04-10 14:53:25,39.0947088274154,-96.5547290693552,0,,,1433.523929731,0.328084,0,0.064244096544,0.178165360032,21,5,0,1433.523929731,0,0,0.064244096544,0,0,0,209.6, 2.9, -0.3,0,0,1024,1024,1024,1024,0,0,0,0,0,0,0,99,,,,,,,0,69.44,1433.523929731,0,41,Motors_Started,"Setting new Return-To-Home altitude to 61m (200 ft). Data Recorder File Index is 42. Setting new Maximum Flight Altitude to 122m (400 ft)"
900,2024-04-10 14:53:25,39.0947088203312,-96.5547290456026,0,,,1433.523929731,0.656168,0,0.071444228008,0.18537074084,21,5,0,1433.523929731,0,0,0.071444228008,0,0,0,209.5, 2.9, -0.3,0,0,1024,1024,1024,1024,0,0,0,0,0,0,0,99,,,,,,,0,69.44,1433.523929731,0,41,Motors_Started,
1000,2024-04-10 14:53:25,39.0947086850169,-96.5547291047901,0,,,1433.523929731,0.656168,0,0.091577758836,0.237507225448,21,5,0,1433.523929731,0,0,0.091577758836,0,0,0,209.5, 2.9, -0.3,0,0,1024,1024,1024,1024,0,0,0,0,0,0,0,99,,,,,,,0,69.44,1433.523929731,0,41,Motors_Started,
1100,2024-04-10 14:53:25,39.0947086687179,-96.554729088286,0,,,1433.523929731,0.656168,0,0.099104661964,0.2450705459,21,5,0,1433.523929731,0,0,0.099104661964,0,0,0,209.5, 2.9, -0.3,0,0,1024,1024,1024,1024,0,0,0,0,0,0,0,99,,,,,,,0,69.44,1433.523929731,0,41,Motors_Started,
1200,2024-04-10 14:53:25,39.0947087095739,-96.5547289769851,0,,,1433.523929731,0.656168,0,0.109239504808,0.279934064076,21,5,0,1433.523929731,0,0,0.109239504808,0,0,0,209.5, 2.9, -0.3,0,0,1024,1024,1024,1024,0,0,0,0,0,0,0,99,,,,,,,0,69.44,1433.523929731,0,41,Motors_Started,
1300,2024-04-10 14:53:25,39.0947086983513,-96.5547289511367,0,,,1433.523929731,0.656168,0,0.11751804838,0.288320547284,21,5,0,1433.523929731,0,0,0.11751804838,0,0,0,209.5, 2.9, -0.3,0,0,1024,1024,1024,1024,0,0,0,0,0,0,0,99,,,,,,,0,69.44,1433.523929731,0,41,Motors_Started,
1400,2024-04-10 14:53:26,39.0947087288316,-96.5547290077781,0,,,1433.523929731,0.656168,0,0.098041669804,0.307837608276,21,5,0,1433.523929731,0,0,0.11751804838,0,0,0,209.5, 2.8, -0.3,0,0,1024,1024,1024,1024,0,0,0,0,0,0,0,99,,,,,,,0,69.44,1433.523929731,0,41,Motors_Started,
1500,2024-04-10 14:53:26,39.0947087228321,-96.5547289919052,0,,,1433.523929731,0.656168,0,0.102922575472,0.312836952268,21,5,0,1433.523929731,0,0,0.11751804838,0,0,0,209.5, 2.8, -0.3,0,0,1024,1024,1024,1024,0,0,0,0,0,0,0,99,,,,,,,0,69.44,1433.523929731,0,41,Motors_Started,
1600,2024-04-10 14:53:26,39.0947087495872,-96.5547288733376,0,,,1433.523929731,0.656168,0,0.12652231376,0.3478018484,21,5,24.9,1433.523929731,0,0,0.12652231376,0,0,0,209.5, 2.8, -0.3,0,0,1024,1024,1024,1024,0,0,0,0,0,0,0,99,,,,,,,4.18,69.44,1433.523929731,0,41,Motors_Started,
1700,2024-04-10 14:53:26,39.0947087516455,-96.5547288493593,0,,,1433.523929731,0.656168,0,0.132395345444,0.35463255728,21,5,24.9,1433.523929731,0,0,0.132395345444,0,0,0,209.5, 2.9, -0.3,0,0,1024,1024,1024,1024,0,0,0,0,0,0,0,99,,,,,,,4.18,69.44,1433.523929731,0,41,Motors_Started,
1800,2024-04-10 14:53:26,39.0947086039459,-96.5547289053318,0,,,1433.523929731,0.656168,0,0.150199479872,0.41080381892,21,5,24.9,1433.523929731,0,0,0.150199479872,0,0,0,209.6, 2.9, -0.3,0,0,1024,1024,1024,1024,0,0,0,0,0,0,0,99,,,,,,,4.18,69.44,1433.523929731,0,41,Motors_Started,
1900,2024-04-10 14:53:26,39.0947085924912,-96.554728886885,0,,,1433.523929731,0.656168,0,0.156844821292,0.41749345168,21,5,24.9,1433.523929731,0,0,0.156844821292,0,0,0,209.6, 2.9, -0.3,0,0,1024,1024,1024,1024,0,0,0,0,0,0,0,99,,,,,,,4.18,69.44,1433.523929731,0,41,Motors_Started,
2000,2024-04-10 14:53:26,39.0947086248525,-96.5547289213903,0,,,1433.523929731,0.656168,0,0.141590883796,0.43281825532,21,5,24.9,1433.523929731,0,0,0.156844821292,0,0,0,209.6, 2.9, -0.3,0,0,1024,1024,1024,1024,0,0,0,0,0,0,0,99,,,,,,,4.18,69.44,1433.523929731,0,10,Assisted_Takeoff,
2100,2024-04-10 14:53:26,39.0947086178188,-96.5547289077238,0,,,1433.523929731,0.656168,0,0.14615157948,0.43746064392,21,5,24.9,1433.523929731,0,0,0.156844821292,0,0,0,209.6, 2.9, -0.3,0,0,1024,1024,1024,1024,0,0,0,0,0,0,0,99,,,,,,,4.18,69.44,1433.523929731,0,10,Assisted_Takeoff,
2200,2024-04-10 14:53:26,39.0947086361041,-96.5547287909231,0,,,1433.523929731,0.656168,0,0.167536750768,0.47120080248,21,5,24.9,1433.523929731,0,0,0.167536750768,0,0,0,209.6, 2.9, -0.3,0,0,1024,1024,1024,1024,0,0,0,0,0,0,0,99,,,,,,,4.18,69.44,1433.523929731,0,10,Assisted_Takeoff,
2300,2024-04-10 14:53:26,39.0947086322019,-96.5547287720014,0,,,1433.523929731,0.656168,0,0.172764441224,0.47674542208,21,5,24.9,1433.523929731,0,0,0.172764441224,0,0,0,209.6, 2.9, -0.3,0,0,1024,1024,1024,1024,0,0,0,0,0,0,0,99,,,,,,,4.18,69.44,1433.523929731,0,10,Assisted_Takeoff,
2400,2024-04-10 14:53:27,39.0947086478457,-96.5547288193856,0,,,1433.523929731,0.656168,0,0.15847441452,0.49132547504,21,5,24.9,1433.523929731,0,0,0.172764441224,0,0,0,209.6, 2.9, -0.3,0,0,1024,1024,1024,1024,0,0,0,0,0,0,0,99,,,,,,,4.18,69.44,1433.523929731,0,10,Assisted_Takeoff,
2500,2024-04-10 14:53:27,39.0947086459366,-96.5547288057614,0,,,1433.523929731,0.656168,0,0.162041671852,0.49524607884,21,5,24.9,1433.523929731,0,0,0.172764441224,0,0,0,209.6, 2.9, -0.3,0,0,1024,1024,1024,1024,0,0,0,0,0,0,0,99,,,,,,,4.18,69.44,1433.523929731,0,10,Assisted_Takeoff,
2600,2024-04-10 14:53:27,39.0947084982957,-96.5547286848028,0,,,1433.523929731,0.656168,0,0.222171266952,0.55907810188,21,5,24.468,1433.523929731,0,0,0.222171266952,0,0,0,209.6, 2.9, -0.3,0,0,1024,1024,1024,1024,0,0,0,0,0,0,0,99,,,,,,,6.062,69.44,1433.523929731,0,10,Assisted_Takeoff,
2700,2024-04-10 14:53:27,39.0947084857271,-96.5547286622298,0,,,1433.523929731,0.656168,0,0.230005912872,0.5669455562,21,5,24.468,1433.523929731,0,0,0.230005912872,0,0,0,209.6, 2.9, -0.3,0,0,1024,1024,1024,1024,0,0,0,0,0,0,0,99,,,,,,,6.062,69.44,1433.523929731,0,10,Assisted_Takeoff,
2800,2024-04-10 14:53:27,39.0947085165445,-96.554728717805,0,,,1433.523929731,0.656168,0,0.210751647164,0.586286108,21,5,24.468,1433.523929731,0,0,0.230005912872,0,0,0,209.6, 2.9, -0.3,0,0,1024,1024,1024,1024,0,0,0,0,0,0,0,99,,,,,,,6.062,69.44,1433.523929731,0,10,Assisted_Takeoff,
2900,2024-04-10 14:53:27,39.0947085057818,-96.5547287044586,0,,,1433.523929731,0.656168,0,0.216182421616,0.59173558324,21,5,24.468,1433.523929731,0,0,0.230005912872,0,0,0,209.6, 2.9, -0.3,0,0,1024,1024,1024,1024,0,0,0,0,0,0,0,99,,,,,,,6.062,69.44,1433.523929731,0,10,Assisted_Takeoff,
3000,2024-04-10 14:53:27,39.0947085315662,-96.5547285832893,0,,,1433.523929731,0.656168,0,0.237597448548,0.6273130122,21,5,24.468,1433.523929731,0,0,0.237597448548,0,0,0,209.6, 2.9, -0.3,0,0,1024,1024,1024,1024,0,0,0,0,0,0,0,99,,,,,,,6.062,69.44,1433.523929731,0,10,Assisted_Takeoff,
3100,2024-04-10 14:53:27,39.0947085238848,-96.5547285621727,0,,,1433.523929731,0.656168,0,0.244121070804,0.63391734312,21,5,24.468,1433.523929731,0,0,0.244121070804,0,0,0,209.6, 2.9, -0.3,0,0,1024,1024,1024,1024,0,0,0,0,0,0,0,99,,,,,,,6.062,69.44,1433.523929731,0,10,Assisted_Takeoff,
3200,2024-04-10 14:53:27,39.0947085411011,-96.5547286124248,0,,,1433.523929731,0.656168,0,0.22882382622,0.64947180556,21,5,24.468,1433.523929731,0,0,0.244121070804,0,0,0,209.6, 2.8, -0.3,0,0,1024,1024,1024,1024,0,0,0,0,0,0,0,99,,,,,,,6.062,69.44,1433.523929731,0,10,Assisted_Takeoff,
3300,2024-04-10 14:53:27,39.0947085378107,-96.5547286002255,0,,,1433.523929731,0.656168,0,0.232351057304,0.65312666132,21,5,24.468,1433.523929731,0,0,0.244121070804,0,0,0,209.6, 2.8, -0.3,0,0,1024,1024,1024,1024,0,0,0,0,0,0,0,99,,,,,,,6.062,69.44,1433.523929731,0,10,Assisted_Takeoff,
3400,2024-04-10 14:53:28,39.0947083913661,-96.5547286400621,0,,,1433.523929731,0.656168,0,0.25816765918,0.70773624312,21,5,24.468,1433.523929731,0,0,0.25816765918,0,0,0,209.6, 2.8, -0.3,0,0,1024,1024,1024,1024,0,0,0,0,0,0,0,99,,,,,,,6.062,69.44,1433.523929731,0,10,Assisted_Takeoff,
3500,2024-04-10 14:53:28,39.0947083757467,-96.554728633221,0,,,1433.523929731,0.656168,0,0.263608276152,0.71375658452,21,5,24.468,1433.523929731,0,0,0.263608276152,0,0,0,209.6, 2.8, -0.3,0,0,1024,1024,1024,1024,0,0,0,0,0,0,0,99,,,,,,,6.062,69.44,1433.523929731,0,10,Assisted_Takeoff,
3600,2024-04-10 14:53:28,39.0947084091305,-96.5547285022534,0,,,1433.523929731,0.656168,0,0.282691282012,0.752788738,21,5,24.558,1433.523929731,0,0,0.282691282012,0,0,0,209.6, 2.9, -0.3,0,0,1024,1024,1024,1024,0,0,0,0,0,0,0,99,,,,,,,4.286,69.44,1433.523929731,0,10,Assisted_Takeoff,
3700,2024-04-10 14:53:28,39.0947083967187,-96.5547284869409,0,,,1433.523929731,0.656168,0,0.28891241082,0.75905842324,21,5,24.558,1433.523929731,0,0,0.28891241082,0,0,0,209.6, 2.8, -0.2,0,0,1024,1024,1024,1024,0,0,0,0,0,0,0,99,,,,,,,4.286,69.44,1433.523929731,0,10,Assisted_Takeoff,
3800,2024-04-10 14:53:28,39.0947084235411,-96.5547285280232,0,,,1433.523929731,0.656168,0,0.273712607184,0.7742618358,21,5,24.558,1433.523929731,0,0,0.28891241082,0,0,0,209.6, 2.8, -0.3,0,0,1024,1024,1024,1024,0,0,0,0,0,0,0,99,,,,,,,4.286,69.44,1433.523929731,0,10,Assisted_Takeoff,
3900,2024-04-10 14:53:28,39.0947084159277,-96.554728519791,0,,,1433.523929731,0.656168,0,0.277274615172,0.777887164,21,5,24.558,1433.523929731,0,0,0.28891241082,0,0,0,209.6, 2.8, -0.3,0,0,1024,1024,1024,1024,0,0,0,0,0,0,0,99,,,,,,,4.286,69.44,1433.523929731,0,10,Assisted_Takeoff,
4000,2024-04-10 14:53:28,39.0947084362631,-96.5547283973296,0,,,1433.523929731,0.656168,0,0.300694563428,0.81334648272,21,5,24.558,1433.523929731,0,0,0.300694563428,0,0,0,209.6, 2.8, -0.2,0,0,1024,1024,1024,1024,0,0,0,0,0,0,0,99,,,,,,,4.286,69.44,1433.523929731,0,10,Assisted_Takeoff,
4100,2024-04-10 14:53:28,39.0947084310566,-96.5547283808088,0,,,1433.523929731,0.656168,0,0.305636820804,0.81839569548,21,5,24.558,1433.523929731,0,0,0.305636820804,0,0,0,209.6, 2.8, -0.2,0,0,1024,1024,1024,1024,0,0,0,0,0,0,0,99,,,,,,,4.286,69.44,1433.523929731,0,10,Assisted_Takeoff,
4200,2024-04-10 14:53:28,39.0947084467886,-96.55472843397,0,,,1433.523929731,0.656168,0,0.289957686444,0.83450790072,21,5,24.558,1433.523929731,0,0,0.305636820804,0,0,0,209.6, 2.8, -0.3,0,0,1024,1024,1024,1024,0,0,0,0,0,0,0,99,,,,,,,4.286,69.44,1433.523929731,0,10,Assisted_Takeoff,
4300,2024-04-10 14:53:28,39.0947084431059,-96.5547284271625,0,,,1433.523929731,0.328084,0,0.292307424052,0.83685698216,21,5,24.558,1433.523929731,0,0,0.305636820804,0,0,0,209.6, 2.8, -0.2,0,0,1024,1024,1024,1024,0,0,0,0,0,0,0,99,,,,,,,4.286,69.44,1433.523929731,0,10,Assisted_Takeoff,
4400,2024-04-10 14:53:29,39.0947082950065,-96.5547282941256,0,,,1433.523929731,0.656168,0,0.3547244208,0.90272640684,21,5,24.558,1433.523929731,0,0,0.3547244208,0,0,0,209.6, 2.8, -0.2,0,0,1024,1024,1024,1024,0,0,0,0,0,0,0,99,,,,,,,4.286,69.44,1433.523929731,0,10,Assisted_Takeoff,
4500,2024-04-10 14:53:29,39.0947082801153,-96.5547282790591,0,,,1433.523929731,0.656168,0,0.36144358112,0.90963257504,21,5,24.558,1433.523929731,0,0,0.36144358112,0,0,0,209.6, 2.8, -0.2,0,0,1024,1024,1024,1024,0,0,0,0,0,0,0,99,,,,,,,4.286,69.44,1433.523929731,0,10,Assisted_Takeoff,
4600,2024-04-10 14:53:29,39.0947083110797,-96.554728168131,0,,,1433.523929731,0.656168,0,0.38004266308,0.94301512204,21,5,24.744,1433.523929731,0,0,0.38004266308,0,0,0,209.6, 2.8, -0.2,0,0,1024,1024,1024,1024,0,0,0,0,0,0,0,99,,,,,,,3.378,69.62,1433.523929731,0,10,Assisted_Takeoff,
4700,2024-04-10 14:53:29,39.0947082995847,-96.5547281464669,0,,,1433.523929731,0.656168,0,0.38747376568,0.95044622464,21,5,24.744,1433.523929731,0,0,0.38747376568,0,0,0,209.6, 2.8, -0.2,0,0,1024,1024,1024,1024,0,0,0,0,0,0,0,99,,,,,,,3.378,69.62,1433.523929731,0,10,Assisted_Takeoff,
4800,2024-04-10 14:53:29,39.0947083242349,-96.554728208668,0,,,1433.523929731,0.656168,0,0.36786090416,0.97022312816,21,5,24.744,1433.523929731,0,0,0.38747376568,0,0,0,209.6, 2.8, -0.2,0,0,1024,1024,1024,1024,0,0,0,0,0,0,0,99,,,,,,,3.378,69.62,1433.523929731,0,10,Assisted_Takeoff,
4900,2024-04-10 14:53:29,39.0947083159182,-96.5547281989116,0,,,1433.523929731,0.656168,0,0.37186024812,0.97432417816,21,5,24.744,1433.523929731,0,0,0.38747376568,0,0,0,209.6, 2.8, -0.2,0,0,1024,1024,1024,1024,0,0,0,0,0,0,0,99,,,,,,,3.378,69.62,1433.523929731,0,10,Assisted_Takeoff,
5000,2024-04-10 14:53:29,39.0947083403148,-96.5547282418273,0,,,1433.523929731,0.656168,0,0.35680119252,0.98938979544,21,5,24.744,1433.523929731,0,0,0.38747376568,0,0,0,209.6, 2.8, -0.2,0,0,1024,1024,1024,1024,0,0,0,0,0,0,0,99,,,,,,,3.378,69.62,1433.523929731,0,10,Assisted_Takeoff,
5100,2024-04-10 14:53:29,39.0947083365691,-96.5547282391826,0,,,1433.523929731,0.328084,0,0.35819554952,0.99094819444,21,5,24.744,1433.523929731,0,0,0.38747376568,0,0,0,209.6, 2.8, -0.2,0,0,1024,1024,1024,1024,0,0,0,0,0,0,0,99,,,,,,,3.378,69.62,1433.523929731,0,10,Assisted_Takeoff,
5200,2024-04-10 14:53:29,39.0947083527277,-96.554728110212,0,,,1433.523929731,0.656168,0,0.38566930368,1.02793966544,21,5,24.744,1433.523929731,0,0,0.38747376568,0,0,0,209.6, 2.8, -0.2,0,0,1024,1024,1024,1024,0,0,0,0,0,0,0,99,,,,,,,3.378,69.62,1433.523929731,0,10,Assisted_Takeoff,
5300,2024-04-10 14:53:29,39.0947083513844,-96.5547280996701,0,,,1433.523929731,0.656168,0,0.38848098356,1.03096459992,21,5,24.744,1433.523929731,0,0,0.38848098356,0,0,0,209.6, 2.8, -0.2,0,0,1024,1024,1024,1024,0,0,0,0,0,0,0,99,,,,,,,3.378,69.62,1433.523929731,0,10,Assisted_Takeoff,
5400,2024-04-10 14:53:30,39.0947083610859,-96.5547281448204,0,,,1433.523929731,0.656168,0,0.3757053926,1.04422903604,21,5,24.744,1433.523929731,0,0,0.38848098356,0,0,0,209.6, 2.8, -0.2,0,0,1024,1024,1024,1024,0,0,0,0,0,0,0,99,,,,,,,3.378,69.62,1433.523929731,0,10,Assisted_Takeoff,
5500,2024-04-10 14:53:30,39.094708361277,-96.554728142309,0,,,1433.523929731,0.656168,0,0.37627625876,1.04494425916,21,5,24.744,1433.523929731,0,0,0.38848098356,0,0,0,209.6, 2.8, -0.2,0,0,1024,1024,1024,1024,0,0,0,0,0,0,0,99,,,,,,,3.378,69.62,1433.523929731,0,10,Assisted_Takeoff,
5600,2024-04-10 14:53:30,39.0947082070449,-96.5547280061566,0,,,1433.523929731,0.656168,0,0.43935040776,1.1131562036,21,5,24.792,1433.523929731,0,0,0.43935040776,0,0,0,209.6, 2.8, -0.2,0,0,1024,1024,1024,1024,0,0,0,0,0,0,0,99,,,,,,,3.064,69.62,1433.523929731,0,10,Assisted_Takeoff,
5700,2024-04-10 14:53:30,39.0947081955836,-96.5547279946163,0,,,1433.523929731,0.656168,0,0.44442914808,1.11846460272,21,5,24.792,1433.523929731,0,0,0.44442914808,0,0,0,209.6, 2.8, -0.2,0,0,1024,1024,1024,1024,0,0,0,0,0,0,0,99,,,,,,,3.064,69.62,1433.523929731,0,10,Assisted_Takeoff,
5800,2024-04-10 14:53:30,39.0947082239085,-96.5547280368436,0,,,1433.523929731,0.656168,0,0.42870408196,1.134268409,21,5,24.792,1433.523929731,0,0,0.44442914808,0,0,0,209.6, 2.8, -0.2,0,0,1024,1024,1024,1024,0,0,0,0,0,0,0,99,,,,,,,3.064,69.62,1433.523929731,0,10,Assisted_Takeoff,
5900,2024-04-10 14:53:30,39.0947082169898,-96.5547280327284,0,,,1433.523929731,0.328084,0,0.43110893768,1.13704728048,21,5,24.792,1433.523929731,0,0,0.44442914808,0,0,0,209.6, 2.8, -0.2,0,0,1024,1024,1024,1024,0,0,0,0,0,0,0,99,,,,,,,3.064,69.62,1433.523929731,0,10,Assisted_Takeoff,
6000,2024-04-10 14:53:30,39.0947082372094,-96.5547279011974,0,,,1433.523929731,0.656168,0,0.45813977844,1.1750164418,21,5,24.792,1433.523929731,0,0,0.45813977844,0,0,0,209.6, 2.8, -0.2,0,0,1024,1024,1024,1024,0,0,0,0,0,0,0,99,,,,,,,3.064,69.62,1433.523929731,0,10,Assisted_Takeoff,
6100,2024-04-10 14:53:30,39.094708232215,-96.5547278885107,0,,,1433.523929731,0.656168,0,0.4621555266,1.17904531332,21,5,24.792,1433.523929731,0,0,0.4621555266,0,0,0,209.6, 2.8, -0.2,0,0,1024,1024,1024,1024,0,0,0,0,0,0,0,99,,,,,,,3.064,69.62,1433.523929731,0,10,Assisted_Takeoff,
6200,2024-04-10 14:53:30,39.0947082483085,-96.5547279300554,0,,,1433.523929731,0.656168,0,0.44906169416,1.1921916392,21,5,24.792,1433.523929731,0,0,0.4621555266,0,0,0,209.6, 2.8, -0.2,0,0,1024,1024,1024,1024,0,0,0,0,0,0,0,99,,,,,,,3.064,69.62,1433.523929731,0,10,Assisted_Takeoff,
6300,2024-04-10 14:53:30,39.0947082447928,-96.5547279231546,0,,,1433.523929731,0.656168,0,0.45139765224,1.19452759728,21,5,24.792,1433.523929731,0,0,0.4621555266,0,0,0,209.6, 2.8, -0.2,0,0,1024,1024,1024,1024,0,0,0,0,0,0,0,99,,,,,,,3.064,69.62,1433.523929731,0,10,Assisted_Takeoff,
6400,2024-04-10 14:53:30,39.0947082557087,-96.5547277857874,0,,,1433.523929731,0.656168,0,0.482939648,1.2336286484,21,5,24.792,1433.523929731,0,0,0.482939648,0,0,0,209.6, 2.8, -0.2,0,0,1024,1024,1024,1024,0,0,0,0,0,0,0,99,,,,,,,3.064,69.62,1433.523929731,0,10,Assisted_Takeoff,
6500,2024-04-10 14:53:31,39.0947082537607,-96.5547277680731,0,,,1433.523929731,0.656168,0,0.48767718096,1.23869426536,21,5,24.792,1433.523929731,0,0,0.48767718096,0,0,0,209.6, 2.8, -0.2,0,0,1024,1024,1024,1024,0,0,0,0,0,0,0,99,,,,,,,3.064,69.62,1433.523929731,0,10,Assisted_Takeoff,
6600,2024-04-10 14:53:31,39.0947082593982,-96.5547278142297,0,,,1433.523929731,0.656168,0,0.47525263988,1.25192589308,21,5,24.786,1433.523929731,0,0,0.48767718096,0,0,0,209.6, 2.8, -0.2,0,0,1024,1024,1024,1024,0,0,0,0,0,0,0,99,,,,,,,3.092,69.62,1433.523929731,0,10,Assisted_Takeoff,
6700,2024-04-10 14:53:31,39.0947082597424,-96.5547278039006,0,,,1433.523929731,0.328084,0,0.47774279744,1.25485240236,21,5,24.786,1433.523929731,0,0,0.48767718096,0,0,0,209.6, 2.8, -0.2,0,0,1024,1024,1024,1024,0,0,0,0,0,0,0,99,,,,,,,3.092,69.62,1433.523929731,0,10,Assisted_Takeoff,
6800,2024-04-10 14:53:31,39.0947082639812,-96.554727840117,0,,,1433.523929731,0.656168,0,0.4680446344,1.26522641844,21,5,24.786,1433.523929731,0,0,0.48767718096,0,0,0,209.6, 2.8, -0.2,0,0,1024,1024,1024,1024,0,0,0,0,0,0,0,99,,,,,,,3.092,69.62,1433.523929731,0,10,Assisted_Takeoff,
6900,2024-04-10 14:53:31,39.0947082652207,-96.5547278368826,0,,,1433.523929731,0.656168,0,0.4686187814,1.26624675968,21,5,24.786,1433.523929731,0,0,0.48767718096,0,0,0,209.6, 2.8, -0.2,0,0,1024,1024,1024,1024,0,0,0,0,0,0,0,99,,,,,,,3.092,69.62,1433.523929731,0,10,Assisted_Takeoff,
7000,2024-04-10 14:53:31,39.0947082714914,-96.5547277007046,0,,,1433.523929731,0.656168,0,0.50150264072,1.30487536984,21,5,24.786,1433.523929731,0,0,0.50150264072,0,0,0,209.6, 2.8, -0.2,0,0,1024,1024,1024,1024,0,0,0,0,0,0,0,99,,,,,,,3.092,69.62,1433.523929731,0,10,Assisted_Takeoff,
7100,2024-04-10 14:53:31,39.0947082754542,-96.5547276898536,0,,,1433.523929731,0.656168,0,0.50358925496,1.30827103924,21,5,24.786,1433.523929731,0,0,0.50358925496,0,0,0,209.6, 2.8, -0.2,0,0,1024,1024,1024,1024,0,0,0,0,0,0,0,99,,,,,,,3.092,69.62,1433.523929731,0,10,Assisted_Takeoff,
7200,2024-04-10 14:53:31,39.0947082767797,-96.5547277321769,0,,,1433.523929731,0.656168,0,0.49269686616,1.32026250944,21,5,24.786,1433.523929731,0,0,0.50358925496,0,0,0,209.6, 2.8, -0.2,0,0,1024,1024,1024,1024,0,0,0,0,0,0,0,99,,,,,,,3.092,69.62,1433.523929731,0,10,Assisted_Takeoff,
7300,2024-04-10 14:53:31,39.0947082812813,-96.5547277252836,0,,,1433.523929731,0.656168,0,0.49368111816,1.32281500296,21,5,24.786,1433.523929731,0,0,0.50358925496,0,0,0,209.6, 2.8, -0.2,0,0,1024,1024,1033,1024,0,0,1,0,0,0,0,99,,,,,,,3.092,69.62,1433.523929731,0,10,Assisted_Takeoff,
7400,2024-04-10 14:53:32,39.0947081169061,-96.554727598163,0,,,1433.523929731,0.656168,0,0.5542651096,1.39275923092,21,5,24.786,1433.523929731,0,0,0.5542651096,0,0,0,209.6, 2.8, -0.2,0,0,1024,1024,1091,1024,0,0,10,0,0,0,0,99,,,,,,,3.092,69.62,1433.523929731,0,10,Assisted_Takeoff,
7500,2024-04-10 14:53:32,39.0947081062699,-96.5547275851449,0,,,1433.523929731,0.656168,0,0.55942259008,1.3981135618,21,5,24.786,1433.523929731,0,0,0.55942259008,0,0,0,209.6, 2.8, -0.2,0,0,1024,1024,1112,1024,0,0,13,0,0,0,0,99,,,,,,,3.092,69.62,1433.523929731,0,10,Assisted_Takeoff,
7600,2024-04-10 14:53:32,39.0947081289632,-96.5547276193988,0,,,1433.523929731,0.656168,0,0.54684713036,1.41086618688,21,5,24.792,1433.523929731,0,0,0.55942259008,0,0,0,209.6, 2.8, -0.2,0,0,1024,1024,1149,1024,0,0,19,0,0,0,0,99,,,,,,,3.088,69.8,1433.523929731,0,10,Assisted_Takeoff,
7700,2024-04-10 14:53:32,39.0947081230309,-96.5547276126406,0,,,1433.523929731,0.656168,0,0.54959975512,1.41375332608,21,5,24.792,1433.523929731,0,0,0.55942259008,0,0,0,209.6, 2.8, -0.2,0,0,1024,1024,1164,1024,0,0,21,0,0,0,0,99,,,,,,,3.088,69.8,1433.523929731,0,10,Assisted_Takeoff,
7800,2024-04-10 14:53:32,39.0947081418254,-96.5547274888208,0,,,1433.523929731,0.656168,0,0.57665028092,1.44947839284,21,5,24.792,1433.523929731,0,0,0.57665028092,0,0,0,209.6, 2.7, -0.2,0,0,1024,1024,1202,1024,0,0,27,0,0,0,0,99,,,,,,,3.088,69.8,1433.523929731,0,10,Assisted_Takeoff,
7900,2024-04-10 14:53:32,39.0947081391018,-96.5547274729792,0,,,1433.523929731,0.656168,0,0.58106629156,1.45407484968,21,5,24.792,1433.523929731,0,0,0.58106629156,0,0,0,209.6, 2.7, -0.2,0,0,1024,1024,1262,1024,0,0,36,0,0,0,0,99,,,,,,,3.088,69.8,1433.523929731,0,10,Assisted_Takeoff,
8000,2024-04-10 14:53:32,39.0947081522795,-96.5547273580275,0,,,1433.523929731,0.656168,0,0.60772311656,1.48697839404,21,5,24.792,1433.523929731,0,0,0.60772311656,0,0,0,209.6, 2.8, -0.2,0,0,1024,1024,1309,1024,0,0,43,0,0,0,0,99,,,,,,,3.088,69.8,1433.523929731,0,10,Assisted_Takeoff,
8100,2024-04-10 14:53:32,39.0947081531565,-96.5547273348315,0,,,1433.523929731,0.656168,0,0.61346458656,1.4935531974,21,5,24.792,1433.523929731,0,0,0.61346458656,0,0,0,209.6, 2.7, -0.2,0,0,1024,1024,1344,1024,0,0,48,0,0,0,0,99,,,,,,,3.088,69.8,1433.523929731,0,10,Assisted_Takeoff,
8200,2024-04-10 14:53:32,39.0947081680588,-96.5547273883146,0,,,1433.523929731,0.656168,0,0.59748033408,1.50964243676,21,5,24.792,1433.523929731,0,0,0.61346458656,0,0,0,209.6, 2.7, -0.2,0,0,1024,1024,1380,1024,0,0,54,0,0,0,0,99,,,,,,,3.088,69.8,1433.523929731,0,10,Assisted_Takeoff,
8300,2024-04-10 14:53:32,39.0947081725156,-96.5547273732944,0,,,1433.523929731,0.656168,0,0.6005741662,1.51419624268,21,5,24.792,1433.523929731,0,0,0.61346458656,0,0,0,209.6, 2.7, -0.1,0,0,1024,1024,1388,1024,0,0,55,0,0,0,0,99,,,,,,,3.088,69.8,1433.523929731,0,10,Assisted_Takeoff,
8400,2024-04-10 14:53:33,39.0947081877366,-96.5547272457944,0,,,1433.523929731,0.656168,0,0.63089240864,1.55072511524,21,5,24.792,1433.523929731,0,0,0.63089240864,0,0,0,209.5, 2.8, -0.1,0,0,1024,1024,1434,1024,0,0,62,0,0,0,0,99,,,,,,,3.088,69.8,1433.523929731,0,10,Assisted_Takeoff,
8500,2024-04-10 14:53:33,39.094708214959,-96.5547272000534,0,,,1433.523929731,0.656168,0,0.63878939052,1.56704729424,21,5,24.792,1433.523929731,0,0,0.63878939052,0,0,0,209, 2.6, 0.1,0,0,1024,1024,1441,1024,0,0,63,0,0,0,0,99,,,,,,,3.088,69.8,1433.523929731,0,10,Assisted_Takeoff,
8600,2024-04-10 14:53:33,39.094708252984,-96.5547272064,0,,,1433.523929731,0.656168,0,0.63184385224,1.581036796,21,5,24.792,1433.523929731,0,0,0.63878939052,0,0,0,208.3, 2.3, 0.8,0,0,1024,1024,1442,1024,0,0,63,0,0,0,0,99,,,,,,,2.906,69.8,1433.523929731,0,10,Assisted_Takeoff,
8700,2024-04-10 14:53:33,39.0947083194846,-96.5547271002452,0,,,1433.523929731,0.656168,0,0.65159450904,1.61966540616,21,5,24.792,1433.523929731,0,0,0.65159450904,0,0,-0.447388,207.6, 1.7, 1.4,0,0,1024,1024,1443,1024,0,0,63,0,0,0,0,99,,,,,,,2.906,69.8,1433.523929731,0,6,P-GPS,
8800,2024-04-10 14:53:33,39.0947083920244,-96.5547268745573,0,,,1433.523929731,0.656168,0.223694,0.70499018004,1.68883535588,21,5,24.792,1433.523929731,0,0.223694,0.70499018004,0.223694,0,-0.894776,207.2, 0.6, 1.1,0,0,1024,1024,1442,1024,0,0,63,0,0,0,0,99,,,,,,,2.906,69.8,1433.523929731,0,6,P-GPS,
8900,2024-04-10 14:53:33,39.0947084785783,-96.5547267267178,0.328084,,,1433.852013731,0.984252,0,0.7383038294,1.7412730216,21,5,24.792,1433.852013731,0.328084,0.223694,0.7383038294,0,0,-1.342164,206.9, -0.7, 0.6,0,0,1024,1024,1442,1024,0,0,63,0,0,0,0,99,,,,,,,2.906,69.8,1433.852013731,0.328084,6,P-GPS,
9000,2024-04-10 14:53:33,39.0947084715583,-96.5547266072823,0.656168,,,1434.180097731,1.312336,0.223694,0.77193572024,1.77519034552,21,5,24.792,1434.180097731,0.656168,0.223694,0.77193572024,0,0.223694,-2.013246,206.9, -1.4, 0.8,0,0,1024,1024,1440,1024,0,0,63,0,0,0,0,99,,,,,,,2.906,69.8,1434.180097731,0.656168,6,P-GPS,
9100,2024-04-10 14:53:33,39.0947084741203,-96.5547264343122,0.984252,,,1434.508181731,1.64042,0.223694,0.81979661416,1.82417656756,21,5,24.792,1434.508181731,0.984252,0.223694,0.81979661416,0,0.223694,-2.460634,206.8, -1.6, 1.9,0,0,1024,1024,1439,1024,0,0,63,0,0,0,0,99,,,,,,,2.906,69.8,1434.508181731,0.984252,6,P-GPS,
9200,2024-04-10 14:53:33,39.0947084303956,-96.5547261561646,1.312336,,,1434.836265731,1.968504,0,0.90015094744,1.90453746252,21,5,24.792,1434.836265731,1.312336,0.223694,0.90015094744,0,0,-3.131716,206.7, -1.1, 2.4,0,0,1024,1024,1439,1024,0,0,63,0,0,0,0,99,,,,,,,2.906,69.8,1434.836265731,1.312336,6,P-GPS,
9300,2024-04-10 14:53:33,39.0947083750613,-96.5547260280682,1.968504,,,1435.492433731,2.624672,0,0.93967522692,1.94604993104,21,5,24.792,1435.492433731,1.968504,0.223694,0.93967522692,0,0,-3.579104,206.6, -0.2, 2,0,0,1024,1024,1439,1024,0,0,63,0,0,0,0,99,,,,,,,2.906,69.8,1435.492433731,1.968504,6,P-GPS,
9400,2024-04-10 14:53:34,39.0947084017549,-96.5547258796218,2.296588,,,1435.820517731,3.28084,0,0.97903218356,1.98919625788,21,5,24.792,1435.820517731,2.296588,0.223694,0.97903218356,0,0,-4.026492,206.7, 0.5, 1.8,0,0,1024,1024,1438,1024,0,0,63,0,0,0,0,99,,,,,,,2.906,69.8,1435.820517731,2.296588,6,P-GPS,
9500,2024-04-10 14:53:34,39.0947083278786,-96.5547257473913,3.28084,,,1436.804769731,3.937008,0,1.02099412716,2.03533142996,21,5,24.792,1436.804769731,3.28084,0.223694,1.02099412716,0,0,-4.47388,206.8, 0.5, 1.7,0,0,1024,1024,1437,1024,0,0,63,0,0,0,0,99,,,,,,,2.906,69.8,1436.804769731,3.28084,6,P-GPS,
9600,2024-04-10 14:53:34,39.0947080869291,-96.5547256694287,3.937008,,,1437.460937731,4.593176,0,1.06362536212,2.12597119664,21,5,24.816,1437.460937731,3.937008,0.223694,1.06362536212,0,0,-4.921268,206.8, 0.4, 1.8,0,0,1024,1024,1437,1024,0,0,63,0,0,0,0,99,,,,,,,4.94,69.8,1437.460937731,3.937008,6,P-GPS,
9700,2024-04-10 14:53:34,39.0947079831655,-96.5547255175435,4.593176,,,1438.117105731,5.249344,0.223694,1.11572510132,2.1832677864,21,5,24.816,1438.117105731,4.593176,0.223694,1.11572510132,0,0.223694,-5.368656,206.8, 0.4, 2.2,0,0,1024,1024,1437,1024,0,0,63,0,0,0,0,99,,,,,,,4.94,69.8,1438.117105731,4.593176,6,P-GPS,
9800,2024-04-10 14:53:34,39.0947079267449,-96.554725435564,5.577428,,,1439.101357731,5.905512,0.223694,1.14410108648,2.21429469028,21,5,24.816,1439.101357731,5.577428,0.223694,1.14410108648,0,0.223694,-5.816044,206.8, 0.4, 2.9,0,0,1024,1024,1436,1024,0,0,62,0,0,0,0,99,,,,,,,4.94,69.8,1439.101357731,5.577428,6,P-GPS,
9900,2024-04-10 14:53:34,39.0947078161156,-96.5547252931341,6.56168,,,1440.085609731,6.889764,0.223694,1.19522313536,2.27135177872,21,5,24.816,1440.085609731,6.56168,0.223694,1.19522313536,0,0.223694,-6.039738,206.9, 0.2, 3.4,0,0,1024,1024,1436,1024,0,0,62,0,0,0,0,99,,,,,,,4.94,69.8,1440.085609731,6.56168,6,P-GPS,
10000,2024-04-10 14:53:34,39.0947074871307,-96.5547252630671,7.217848,,,1440.741777731,7.874016,0.223694,1.24777234964,2.3916831474,21,5,24.816,1440.741777731,7.217848,0.223694,1.24777234964,0,0.223694,-6.263432,207.1, 0.4, 4,0,0,1024,1024,1434,1024,0,0,62,0,0,0,0,99,,,,,,,4.94,69.8,1440.741777731,7.217848,6,P-GPS,
10100,2024-04-10 14:53:34,39.0947073759179,-96.5547251502498,8.530184,,,1442.054113731,8.530184,0.223694,1.29382221988,2.44332684984,21,5,24.816,1442.054113731,8.530184,0.223694,1.29382221988,0,0.223694,-6.263432,207.3, 0.6, 4.5,0,0,1024,1024,1434,1024,0,0,62,0,0,0,0,99,,,,,,,4.94,69.8,1442.054113731,8.530184,6,P-GPS,
10200,2024-04-10 14:53:34,39.0947071985937,-96.5547248551857,9.186352,,,1442.710281731,9.514436,0.223694,1.39723101584,2.5489994254,21,5,24.816,1442.710281731,9.186352,0.223694,1.39723101584,0,0.223694,-6.263432,207.5, 0.5, 4.6,0,0,1024,1024,1434,1024,0,0,62,0,0,0,0,99,,,,,,,4.94,69.8,1442.710281731,9.186352,6,P-GPS,
10300,2024-04-10 14:53:34,39.0947071363023,-96.5547247580364,10.170604,,,1443.694533731,10.170604,0,1.43199151564,2.58468184124,21,5,24.816,1443.694533731,10.170604,0.223694,1.43199151564,0,0,-6.263432,207.5, 0, 4.4,0,0,1024,1024,1434,1024,0,0,62,0,0,0,0,99,,,,,,,4.94,69.8,1443.694533731,10.170604,6,P-GPS,
10400,2024-04-10 14:53:35,39.0947071917468,-96.5547247123189,11.154856,,,1444.678785731,11.154856,0,1.43468508528,2.60869759004,21,5,24.816,1444.678785731,11.154856,0.223694,1.43468508528,0,0,-6.263432,207.6, -0.5, 4.1,0,0,1024,1024,1432,1024,0,0,62,0,0,0,0,99,,,,,,,4.94,69.8,1444.678785731,11.154856,6,P-GPS,
10500,2024-04-10 14:53:35,39.0947071687982,-96.5547246385058,12.139108,,,1445.663037731,11.811024,0,1.45714899676,2.63121399496,21,5,24.816,1445.663037731,12.139108,0.223694,1.45714899676,0,0,-6.039738,207.6, -1.1, 3.7,0,0,1024,1024,1430,1024,0,0,62,0,0,0,0,99,,,,,,,4.94,69.8,1445.663037731,12.139108,6,P-GPS,
10600,2024-04-10 14:53:35,39.0947071563622,-96.5547245278329,13.12336,,,1446.647289731,12.795276,0,1.48739506072,2.6628773818,21,5,24.252,1446.647289731,13.12336,0.223694,1.48739506072,0,0,-6.039738,207.6, -1.3, 3.7,0,0,1024,1024,1429,1024,0,0,61,0,0,0,0,99,,,,,,,22.984,69.8,1446.647289731,13.12336,6,P-GPS,
10700,2024-04-10 14:53:35,39.0947071329535,-96.5547244597009,14.107612,,,1447.631541731,13.451444,0,1.50848758108,2.68397646384,21,5,24.252,1447.631541731,14.107612,0.223694,1.50848758108,0,0,-5.816044,207.6, -1.3, 3.8,0,0,1024,1024,1428,1024,0,0,61,0,0,0,0,99,,,,,,,22.984,69.8,1447.631541731,14.107612,6,P-GPS,
10800,2024-04-10 14:53:35,39.0947070958913,-96.5547243951625,14.76378,,,1448.287709731,14.107612,0,1.5307907314,2.7067094042,21,5,24.252,1448.287709731,14.76378,0.223694,1.5307907314,0,0,-5.816044,207.6, -1.3, 3.9,0,0,1024,1024,1426,1024,0,0,61,0,0,0,0,99,,,,,,,22.984,69.8,1448.287709731,14.76378,6,P-GPS,
10900,2024-04-10 14:53:35,39.0947070631809,-96.5547243452557,15.748032,,,1449.271961731,15.091864,0,1.54868443276,2.72520678012,21,5,24.252,1449.271961731,15.748032,0.223694,1.54868443276,0,0,-5.59235,207.6, -1.1, 4,0,0,1024,1024,1422,1024,0,0,60,0,0,0,0,99,,,,,,,22.984,69.8,1449.271961731,15.748032,6,P-GPS,
11000,2024-04-10 14:53:35,39.0947069260425,-96.5547242344973,16.4042,,,1449.928129731,15.748032,0,1.59889768896,2.78425861928,21,5,24.252,1449.928129731,16.4042,0.223694,1.59889768896,0,0,-5.59235,207.5, -0.8, 4,0,0,1024,1024,1410,1024,0,0,58,0,0,0,0,99,,,,,,,22.984,69.8,1449.928129731,16.4042,6,P-GPS,
11100,2024-04-10 14:53:35,39.0947068744566,-96.5547241978655,17.388452,,,1450.912381731,16.4042,0,1.61667328008,2.80574812128,21,5,24.252,1450.912381731,17.388452,0.223694,1.61667328008,0,0,-5.368656,207.5, -0.6, 4.2,0,0,1024,1024,1408,1024,0,0,58,0,0,0,0,99,,,,,,,22.984,69.8,1450.912381731,17.388452,6,P-GPS,
11200,2024-04-10 14:53:35,39.0947067683542,-96.5547239246956,18.04462,,,1451.568549731,17.060368,0,1.703166065,2.89224418704,21,5,24.252,1451.568549731,18.04462,0.223694,1.703166065,0,0,-5.368656,207.5, -0.3, 4.1,0,0,1024,1024,1402,1024,0,0,57,0,0,0,0,99,,,,,,,22.984,69.8,1451.568549731,18.04462,6,P-GPS,
11300,2024-04-10 14:53:35,39.0947067175727,-96.5547238810985,19.028872,,,1452.552801731,17.716536,0,1.72263456956,2.91450796728,21,5,24.252,1452.552801731,19.028872,0.223694,1.72263456956,0,0,-5.368656,207.5, 0, 4,0,0,1024,1024,1403,1024,0,0,57,0,0,0,0,99,,,,,,,22.984,69.8,1452.552801731,19.028872,6,P-GPS,
11400,2024-04-10 14:53:36,39.0947069963985,-96.554723900498,19.68504,,,1453.208969731,18.700788,0,1.67310372808,3.0163878918,21,5,24.252,1453.208969731,19.68504,0.223694,1.72263456956,0,0,-5.144962,207.5, -0.1, 3.9,0,0,1024,1024,1411,1024,0,0,59,0,0,0,0,99,,,,,,,22.984,69.8,1453.208969731,19.68504,6,P-GPS,
11500,2024-04-10 14:53:36,39.0947069896895,-96.5547238604427,20.341208,,,1453.865137731,19.356956,0,1.68444231112,3.02798894204,21,5,24.252,1453.865137731,20.341208,0.223694,1.72263456956,0,0,-5.144962,207.5, -0.3, 3.9,0,0,1024,1024,1411,1024,0,0,59,0,0,0,0,99,,,,,,,22.984,69.8,1453.865137731,20.341208,6,P-GPS,
11600,2024-04-10 14:53:36,39.0947067788591,-96.5547239702556,21.32546,,,1454.849389731,20.013124,0,1.68993771812,3.1109581048,21,5,22.968,1454.849389731,21.32546,0.223694,1.72263456956,0,0,-5.144962,207.5, -0.4, 3.9,0,0,1024,1024,1402,1024,0,0,57,0,0,0,0,99,,,,,,,24.984,69.98,1454.849389731,21.32546,6,P-GPS,
11700,2024-04-10 14:53:36,39.0947067671937,-96.5547239501048,21.981628,,,1455.505557731,20.669292,0,1.69695871572,3.1180775276,21,5,22.968,1455.505557731,21.981628,0.223694,1.72263456956,0,0,-5.144962,207.5, -0.5, 4,0,0,1024,1024,1399,1024,0,0,57,0,0,0,0,99,,,,,,,24.984,69.98,1455.505557731,21.981628,6,P-GPS,
11800,2024-04-10 14:53:36,39.0947067248443,-96.5547238712297,22.637796,,,1456.161725731,21.653544,0,1.72389441212,3.14523632112,21,5,22.968,1456.161725731,22.637796,0.223694,1.72389441212,0,0,-5.144962,207.5, -0.6, 3.9,0,0,1024,1024,1398,1024,0,0,57,0,0,0,0,99,,,,,,,24.984,69.98,1456.161725731,22.637796,6,P-GPS,
11900,2024-04-10 14:53:36,39.0947067254248,-96.5547238581069,23.293964,,,1456.817893731,22.309712,0,1.72709651196,3.14895679368,21,5,22.968,1456.817893731,23.293964,0.223694,1.72709651196,0,0,-4.921268,207.6, -0.9, 3.7,0,0,1218,1024,1360,1024,29,0,51,0,0,0,0,99,,,,,,,24.984,69.98,1456.817893731,23.293964,6,P-GPS,
12000,2024-04-10 14:53:36,39.0947068083014,-96.5547237935695,24.278216,,,1457.802145731,23.293964,0,1.72982289,3.18428815964,21,5,22.968,1457.802145731,24.278216,0.223694,1.72982289,0,0,-4.921268,207.7, -1, 3.5,0,0,1265,1024,1373,1024,37,0,53,0,0,0,0,99,,,,,,,24.984,69.98,1457.802145731,24.278216,6,P-GPS,
12100,2024-04-10 14:53:36,39.0947068172138,-96.5547237859472,24.934384,,,1458.458313731,24.278216,0,1.7303314202,3.1881890784,21,5,22.968,1458.458313731,24.934384,0.223694,1.7303314202,0,0,-4.921268,207.8, -1.2, 3.4,0,0,1269,1024,1378,1024,37,0,54,0,0,0,0,99,,,,,,,24.984,69.98,1458.458313731,24.934384,6,P-GPS,
12200,2024-04-10 14:53:36,39.094706845575,-96.5547237135727,25.590552,,,1459.114481731,25.262468,0,1.7443077986,3.21114839672,21,5,22.968,1459.114481731,25.590552,0.223694,1.7443077986,0,0,-4.697574,207.8, -2.9, 3.4,0,0,1282,1024,1382,1024,39,0,54,0,0,0,0,99,,,,,,,24.984,69.98,1459.114481731,25.590552,6,P-GPS,
12300,2024-04-10 14:53:36,39.0947068288595,-96.5547237206455,26.24672,,,1459.770649731,25.918636,0,1.7451280086,3.21756571976,21,5,22.968,1459.770649731,26.24672,0.223694,1.7451280086,0,0,-4.47388,207.5, -5.8, 3.1,0,0,1303,1024,1384,1024,42,0,55,0,0,0,0,99,,,,,,,24.984,69.98,1459.770649731,26.24672,6,P-GPS,
12400,2024-04-10 14:53:37,39.0947067014798,-96.5547238655649,26.902888,,,1460.426817731,26.24672,0.223694,1.72925202384,3.27956703408,21,5,22.968,1460.426817731,26.902888,0.223694,1.7451280086,-0.223694,0,-4.47388,207.3, -8.6, 2.7,0,0,1307,1024,1387,1024,43,0,55,0,0,0,0,99,,,,,,,24.984,69.98,1460.426817731,26.902888,6,P-GPS,
12500,2024-04-10 14:53:37,39.0947064895425,-96.5547239792404,27.559056,,,1461.082985731,33.136484,0.223694,1.7385499244,3.3633203176,21,5,22.968,1461.082985731,27.559056,0.223694,1.7451280086,-0.447388,-0.223694,-4.47388,207.3, -10.4, 2.4,0,0,1306,1024,1389,1024,43,0,55,0,0,0,0,99,,,,,,,24.984,69.98,1461.082985731,27.559056,6,P-GPS,
12600,2024-04-10 14:53:37,39.0947059407698,-96.55472419752,28.215224,,,1461.739153731,33.792652,1.006623,1.79798562184,3.5728675684,21,5,23.208,1461.739153731,28.215224,1.006623,1.79798562184,-0.894776,-0.447388,-4.47388,207.1, -10.7, 2.7,0,0,1304,1024,1385,1024,42,0,55,0,0,0,0,99,,,,,,,20.908,69.98,1461.739153731,28.215224,6,P-GPS,
12700,2024-04-10 14:53:37,39.094705426726,-96.5547244497061,28.871392,,,1462.395321731,34.44882,1.2079476,1.86337604388,3.7735565512,21,5,23.208,1462.395321731,28.871392,1.2079476,1.86337604388,-1.11847,-0.447388,-4.47388,206.8, -10.4, 3.2,0,0,1302,1024,1384,1024,42,0,55,0,0,0,0,99,,,,,,,20.908,69.98,1462.395321731,28.871392,6,P-GPS,
12800,2024-04-10 14:53:37,39.0947048002838,-96.5547249428706,29.52756,,,1463.051489731,35.104988,1.2079476,1.93413392016,4.0414043288,21,5,23.208,1463.051489731,29.52756,1.2079476,1.93413392016,-1.565858,-0.671082,-4.47388,206.5, -10.1, 3.5,0,0,1300,1024,1384,1024,42,0,55,0,0,0,0,99,,,,,,,20.908,69.98,1463.051489731,29.52756,6,P-GPS,
12900,2024-04-10 14:53:37,39.0947039933529,-96.5547253634367,30.183728,,,1463.707657731,35.761156,2.125093,2.10463917496,4.3589568324,21,5,23.208,1463.707657731,30.183728,2.125093,2.10463917496,-2.013246,-0.671082,-4.47388,206.6, -9.9, 3.8,0,0,1291,1024,1381,1024,40,0,54,0,0,0,0,99,,,,,,,20.908,69.98,1463.707657731,30.183728,6,P-GPS,
13000,2024-04-10 14:53:37,39.094703086252,-96.5547256849755,30.839896,,,1464.363825731,36.417324,2.4158952,2.35154207,4.7022311216,21,5,23.208,1464.363825731,30.839896,2.4158952,2.35154207,-2.23694,-0.894776,-4.47388,206.9, -9.7, 4.3,0,0,1290,1024,1377,1024,40,0,53,0,0,0,0,99,,,,,,,20.908,69.98,1464.363825731,30.839896,6,P-GPS,
13100,2024-04-10 14:53:37,39.0947020059547,-96.5547262407753,31.824148,,,1465.348077731,36.417324,2.7066974,2.65723761784,5.126640584,21,5,23.208,1465.348077731,31.824148,2.7066974,2.65723761784,-2.460634,-1.11847,-4.47388,207.2, -9.4, 4.6,0,0,1286,1024,1378,1024,40,0,54,0,0,0,0,99,,,,,,,20.908,69.98,1465.348077731,31.824148,6,P-GPS,
13200,2024-04-10 14:53:37,39.0947009545006,-96.5547268966493,32.480316,,,1466.004245731,36.417324,2.7066974,2.9752625624,5.5528545084,21,5,23.208,1466.004245731,32.480316,2.7066974,2.9752625624,-2.908022,-1.11847,-4.47388,207.3, -9.1, 4.7,0,0,1286,1024,1378,1024,40,0,54,0,0,0,0,99,,,,,,,20.908,69.98,1466.004245731,32.480316,6,P-GPS,
13300,2024-04-10 14:53:37,39.0946996577333,-96.5547276094566,33.136484,,,1466.660413731,36.417324,3.4001488,3.4039371168,6.0672246036,21,5,23.208,1466.660413731,33.136484,3.4001488,3.4039371168,-3.131716,-1.342164,-4.47388,207.4, -8.9, 4.7,0,0,1286,1024,1378,1024,40,0,54,0,0,0,0,99,,,,,,,20.908,69.98,1466.660413731,33.136484,6,P-GPS,
13400,2024-04-10 14:53:38,39.0946980124936,-96.5547285111997,33.792652,,,1467.316581731,36.417324,3.7133204,3.9771654816,6.7195212124,21,5,23.208,1467.316581731,33.792652,3.7133204,3.9771654816,-3.35541,-1.565858,-4.47388,207.4, -8.8, 4.5,0,0,1285,1024,1378,1024,40,0,54,0,0,0,0,99,,,,,,,20.908,69.98,1467.316581731,33.792652,6,P-GPS,
13500,2024-04-10 14:53:38,39.0946964807021,-96.5547293767608,34.44882,,,1467.972749731,36.417324,4.1159696,4.5302166804,7.3297902608,21,5,23.208,1467.972749731,34.44882,4.1159696,4.5302166804,-3.802798,-1.565858,-4.47388,207.5, -8.8, 4.5,0,0,1284,1024,1377,1024,39,0,53,0,0,0,0,99,,,,,,,20.908,69.98,1467.972749731,34.44882,6,P-GPS,
13600,2024-04-10 14:53:38,39.0946948594307,-96.5547302776866,35.104988,,,1468.628917731,36.417324,4.4067718,5.1294621064,7.9739831948,21,5,23.208,1468.628917731,35.104988,4.4067718,5.1294621064,-4.026492,-1.789552,-4.47388,207.6, -8.8, 4.5,0,0,1281,1024,1368,1024,39,0,52,0,0,0,0,99,,,,,,,21.064,69.98,1468.628917731,35.104988,6,P-GPS,
13700,2024-04-10 14:53:38,39.0946931226933,-96.5547312786551,35.761156,,,1469.285085731,36.417324,4.6080964,5.7831038596,8.6681105136,21,5,23.208,1469.285085731,35.761156,4.6080964,5.7831038596,-4.250186,-1.789552,-4.47388,207.6, -8.6, 4.6,0,0,1281,1024,1366,1024,39,0,52,0,0,0,0,99,,,,,,,21.064,69.98,1469.285085731,35.761156,6,P-GPS,
13800,2024-04-10 14:53:38,39.0946912485532,-96.554732254947,36.417324,,,1469.941253731,36.417324,4.8988986,6.4940290792,9.405676154,21,5,23.208,1469.941253731,36.417324,4.8988986,6.4940290792,-4.47388,-2.013246,-4.47388,207.6, -8.4, 4.6,0,0,1279,1024,1366,1024,39,0,52,0,0,0,0,99,,,,,,,21.064,69.98,1469.941253731,36.417324,6,P-GPS,
13900,2024-04-10 14:53:38,39.0946893207721,-96.5547333781898,37.073492,,,1470.597421731,36.417324,5.1002232,7.2361878956,10.1775921892,21,5,23.208,1470.597421731,37.073492,5.1002232,7.2361878956,-4.697574,-2.013246,-4.250186,207.6, -8.3, 4.6,0,0,1277,1024,1367,1024,38,0,52,0,0,0,0,99,,,,,,,21.064,69.98,1470.597421731,37.073492,6,P-GPS,
14000,2024-04-10 14:53:38,39.0946871587725,-96.5547348282418,37.72966,,,1471.253589731,36.417324,5.4133948,8.085466138,11.0668638712,21,5,23.208,1471.253589731,37.72966,5.4133948,8.085466138,-4.921268,-2.23694,-4.250186,207.6, -8.2, 4.6,0,0,1278,1024,1367,1024,38,0,52,0,0,0,0,99,,,,,,,21.064,69.98,1471.253589731,37.72966,6,P-GPS,
14100,2024-04-10 14:53:38,39.0946850453158,-96.554736088642,38.385828,,,1471.909757731,36.417324,5.704197,8.9134517288,11.9165358144,21,5,23.208,1471.909757731,38.385828,5.704197,8.9134517288,-5.144962,-2.460634,-4.250186,207.5, -8, 4.5,0,0,1278,1024,1365,1024,38,0,52,0,0,0,0,99,,,,,,,21.064,69.98,1471.909757731,38.385828,6,P-GPS,
14200,2024-04-10 14:53:38,39.0946830784996,-96.5547373194046,38.713912,,,1472.237841731,36.417324,5.9055216,9.6912404676,12.7143048688,21,5,23.208,1472.237841731,38.713912,5.9055216,9.6912404676,-5.368656,-2.460634,-4.250186,207.5, -8, 4.5,0,0,1278,1024,1364,1024,38,0,52,0,0,0,0,99,,,,,,,21.064,69.98,1472.237841731,38.713912,6,P-GPS,
14300,2024-04-10 14:53:38,39.0946808201606,-96.5547386780787,39.37008,,,1472.894009731,36.417324,6.1068462,10.5840554568,13.6236552916,21,5,23.208,1472.894009731,39.37008,6.1068462,10.5840554568,-5.59235,-2.460634,-4.250186,207.5, -7.9, 4.6,0,0,1277,1024,1364,1024,38,0,52,0,0,0,0,99,,,,,,,21.064,69.98,1472.894009731,39.37008,6,P-GPS,
14400,2024-04-10 14:53:39,39.0946781392323,-96.5547400797471,40.026248,,,1473.550177731,36.417324,6.3976484,11.63139801,14.6792327532,21,5,23.208,1473.550177731,40.026248,6.3976484,11.63139801,-5.816044,-2.684328,-4.250186,207.5, -7.8, 4.6,0,0,1277,1024,1359,1024,38,0,51,0,0,0,0,99,,,,,,,21.064,69.98,1473.550177731,40.026248,6,P-GPS,
14500,2024-04-10 14:53:39,39.0946756998093,-96.554741538502,40.682416,,,1474.206345731,36.417324,6.598973,12.5997707444,15.660433572,21,5,23.208,1474.206345731,40.682416,6.598973,12.5997707444,-6.039738,-2.684328,-4.250186,207.5, -7.8, 4.6,0,0,1277,1024,1351,1024,38,0,50,0,0,0,0,99,,,,,,,21.064,69.98,1474.206345731,40.682416,6,P-GPS,
14600,2024-04-10 14:53:39,39.0946733203643,-96.5547431454263,41.338584,,,1474.862513731,36.417324,6.71082,13.5611224812,16.640584522,21,5,23.22,1474.862513731,41.338584,6.71082,13.5611224812,-6.039738,-2.908022,-4.250186,207.6, -7.7, 4.7,0,0,1277,1024,1326,1024,38,0,46,0,0,0,0,99,,,,,,,22.172,70.16,1474.862513731,41.338584,6,P-GPS,
14700,2024-04-10 14:53:39,39.0946707509026,-96.5547447112515,41.994752,,,1475.518681731,36.417324,6.9121446,14.5876317004,17.6776252376,21,5,23.22,1475.518681731,41.994752,6.9121446,14.5876317004,-6.263432,-2.908022,-4.026492,207.6, -7.6, 4.7,0,0,1277,1024,1325,1024,38,0,46,0,0,0,0,99,,,,,,,22.172,70.16,1475.518681731,41.994752,6,P-GPS,
14800,2024-04-10 14:53:39,39.0946680937568,-96.5547460859346,42.65092,,,1476.174849731,36.417324,7.2029468,15.6293968256,18.7223103104,21,5,23.22,1476.174849731,42.65092,7.2029468,15.6293968256,-6.487126,-3.131716,-4.026492,207.6, -7.5, 4.8,0,0,1275,1024,1324,1024,38,0,45,0,0,0,0,99,,,,,,,22.172,70.16,1476.174849731,42.65092,6,P-GPS,
14900,2024-04-10 14:53:39,39.0946653992999,-96.5547477244255,43.307088,,,1476.831017731,36.417324,7.2029468,16.7076448916,19.8093510276,21,5,23.22,1476.831017731,43.307088,7.2029468,16.7076448916,-6.487126,-3.131716,-3.802798,207.6, -7.5, 4.8,0,0,1273,1024,1322,1024,38,0,45,0,0,0,0,99,,,,,,,22.172,70.16,1476.831017731,43.307088,6,P-GPS,
15000,2024-04-10 14:53:39,39.0946629574333,-96.5547493801891,43.963256,,,1477.487185731,36.417324,7.4042714,17.701280094,20.81610959,21,5,23.22,1477.487185731,43.963256,7.4042714,17.701280094,-6.71082,-3.131716,-3.802798,207.7, -7.5, 4.7,0,0,1269,1024,1318,1024,37,0,45,0,0,0,0,99,,,,,,,22.172,70.16,1477.487185731,43.963256,6,P-GPS,
15100,2024-04-10 14:53:39,39.0946601746606,-96.554751103065,44.29134,,,1477.815269731,36.417324,7.6950736,18.8200137256,21.9425203872,21,5,23.22,1477.815269731,44.29134,7.6950736,18.8200137256,-6.934514,-3.35541,-3.579104,207.7, -7.5, 4.6,0,0,1265,1024,1315,1024,37,0,44,0,0,0,0,99,,,,,,,22.172,70.16,1477.815269731,44.29134,6,P-GPS,
15200,2024-04-10 14:53:39,39.0946576985796,-96.55475285683,44.947508,,,1478.471437731,36.417324,7.6950736,19.8371397424,22.973425932,21,5,23.22,1478.471437731,44.947508,7.6950736,19.8371397424,-6.934514,-3.35541,-3.579104,207.7, -7.4, 4.6,0,0,1264,1024,1311,1024,36,0,43,0,0,0,0,99,,,,,,,22.172,70.16,1478.471437731,44.947508,6,P-GPS,
15300,2024-04-10 14:53:39,39.0946548371026,-96.5547546555781,45.603676,,,1479.127605731,36.417324,7.8963982,20.9920610392,24.1350401424,21,5,23.22,1479.127605731,45.603676,7.8963982,20.9920610392,-7.158208,-3.35541,-3.579104,207.7, -7.3, 4.5,0,0,1263,1024,1312,1024,36,0,44,0,0,0,0,99,,,,,,,22.172,70.16,1479.127605731,45.603676,6,P-GPS,
15400,2024-04-10 14:53:40,39.0946512946913,-96.5547566791072,45.93176,,,1479.455689731,36.417324,8.2095698,22.4027566224,25.5488197152,21,5,23.22,1479.455689731,45.93176,8.2095698,22.4027566224,-7.381902,-3.579104,-3.35541,207.7, -7.1, 4.5,0,0,1263,1024,1312,1024,36,0,44,0,0,0,0,99,,,,,,,22.172,70.16,1479.455689731,45.93176,6,P-GPS,
15500,2024-04-10 14:53:40,39.0946482821364,-96.5547585603183,46.587928,,,1480.111857731,36.417324,8.2095698,23.6186687348,26.7702108304,21,5,23.22,1480.111857731,46.587928,8.2095698,23.6186687348,-7.381902,-3.579104,-3.35541,207.7, -6.9, 4.6,0,0,1262,1024,1313,1024,36,0,44,0,0,0,0,99,,,,,,,22.172,70.16,1480.111857731,46.587928,6,P-GPS,
15600,2024-04-10 14:53:40,39.0946455897997,-96.5547601589077,46.916012,,,1480.439941731,36.417324,8.4108944,24.6974745436,27.8518053532,21,5,23.106,1480.439941731,46.916012,8.4108944,24.6974745436,-7.605596,-3.579104,-3.35541,207.7, -6.7, 4.6,0,0,1263,1024,1313,1024,36,0,44,0,0,0,0,99,,,,,,,21.636,70.16,1480.439941731,46.916012,6,P-GPS,
15700,2024-04-10 14:53:40,39.0946425198667,-96.554762074896,47.57218,,,1481.096109731,36.417324,8.4108944,25.9373039796,29.0963263904,21,5,23.106,1481.096109731,47.57218,8.4108944,25.9373039796,-7.605596,-3.579104,-3.35541,207.7, -6.6, 4.7,0,0,1263,1024,1313,1024,36,0,44,0,0,0,0,99,,,,,,,21.636,70.16,1481.096109731,47.57218,6,P-GPS,
15800,2024-04-10 14:53:40,39.0946392375328,-96.5547643558779,47.900264,,,1481.424193731,36.417324,8.4108944,27.2872712144,30.4569891636,21,5,23.106,1481.424193731,47.900264,8.4108944,27.2872712144,-7.605596,-3.802798,-3.35541,207.6, -6.5, 4.7,0,0,1259,1024,1313,1024,36,0,44,0,0,0,0,99,,,,,,,21.636,70.16,1481.424193731,47.900264,6,P-GPS,
15900,2024-04-10 14:53:40,39.094636079481,-96.554766364713,48.556432,,,1482.080361731,36.417324,8.7016966,28.5677174496,31.7419301496,21,5,23.106,1482.080361731,48.556432,8.7016966,28.5677174496,-7.82929,-3.802798,-3.35541,207.7, -6.4, 4.6,0,0,1259,1024,1312,1024,36,0,44,0,0,0,0,99,,,,,,,21.636,70.16,1482.080361731,48.556432,6,P-GPS,
16000,2024-04-10 14:53:40,39.0946333877311,-96.5547682793878,48.884516,,,1482.408445731,36.417324,8.7016966,29.6806768028,32.863846196,21,5,23.106,1482.408445731,48.884516,8.7016966,29.6806768028,-7.82929,-3.802798,-3.35541,207.7, -6.3, 4.5,0,0,1259,1024,1313,1024,36,0,44,0,0,0,0,99,,,,,,,21.636,70.16,1482.408445731,48.884516,6,P-GPS,
16100,2024-04-10 14:53:40,39.0946302008661,-96.5547703314191,49.540684,,,1483.064613731,36.417324,8.9030212,30.9763133272,34.163715004,21,5,23.106,1483.064613731,49.540684,8.9030212,30.9763133272,-8.052984,-3.802798,-3.131716,207.7, -6.3, 4.5,0,0,1256,1024,1312,1024,35,0,44,0,0,0,0,99,,,,,,,21.636,70.16,1483.064613731,49.540684,6,P-GPS,
16200,2024-04-10 14:53:40,39.094627157352,-96.5547724333411,49.868768,,,1483.392697731,36.417324,8.9924988,32.2292333148,35.423557564,21,5,23.106,1483.392697731,49.868768,8.9924988,32.2292333148,-8.052984,-4.026492,-3.131716,207.8, -6.2, 4.5,0,0,1253,1024,1313,1024,35,0,44,0,0,0,0,99,,,,,,,21.636,70.16,1483.392697731,49.868768,6,P-GPS,
16300,2024-04-10 14:53:40,39.0946239255731,-96.5547745352769,50.524936,,,1484.048865731,36.417324,8.9924988,33.546260916,36.744423748,21,5,23.106,1484.048865731,50.524936,8.9924988,33.546260916,-8.052984,-4.026492,-3.131716,207.8, -6.1, 4.5,0,0,1254,1024,1312,1024,35,0,44,0,0,0,0,99,,,,,,,21.636,70.16,1484.048865731,50.524936,6,P-GPS,
16400,2024-04-10 14:53:40,39.0946207044594,-96.5547768071637,50.85302,,,1484.376949731,36.417324,9.1938234,34.878281956,38.08399072,21,5,23.106,1484.376949731,50.85302,9.1938234,34.878281956,-8.276678,-4.026492,-3.131716,207.9, -6, 4.6,0,0,1253,1024,1309,1024,35,0,43,0,0,0,0,99,,,,,,,21.636,70.16,1484.376949731,50.85302,6,P-GPS,
16500,2024-04-10 14:53:41,39.0946174277922,-96.554778974592,51.509188,,,1485.033117731,36.417324,9.1938234,36.218177012,39.427822784,21,5,23.106,1485.033117731,51.509188,9.1938234,36.218177012,-8.276678,-4.026492,-3.131716,207.9, -5.9, 4.5,0,0,1253,1024,1311,1024,35,0,43,0,0,0,0,99,,,,,,,21.636,70.16,1485.033117731,51.509188,6,P-GPS,
16600,2024-04-10 14:53:41,39.0946135640063,-96.5547811095803,51.837272,,,1485.361201731,36.417324,9.1938234,37.751969712,40.961615484,21,5,23.106,1485.361201731,51.837272,9.1938234,37.751969712,-8.276678,-4.026492,-3.131716,207.8, -5.9, 4.4,0,0,1253,1024,1310,1024,35,0,43,0,0,0,0,99,,,,,,,20.514,70.34,1485.361201731,51.837272,6,P-GPS,
16700,2024-04-10 14:53:41,39.0946101917461,-96.5547833138029,52.49344,,,1486.017369731,36.417324,9.506995,39.128282092,42.341208704,21,5,23.106,1486.017369731,52.49344,9.506995,39.128282092,-8.500372,-4.250186,-3.131716,207.8, -5.8, 4.3,0,0,1252,1024,1309,1024,35,0,43,0,0,0,0,99,,,,,,,20.514,70.34,1486.017369731,52.49344,6,P-GPS,
16800,2024-04-10 14:53:41,39.0946068781919,-96.5547854981576,52.821524,,,1486.345453731,36.417324,9.506995,40.482940928,43.699476464,21,5,23.106,1486.345453731,52.821524,9.506995,40.482940928,-8.500372,-4.250186,-3.131716,207.9, -5.7, 4.4,0,0,1251,1024,1308,1024,34,0,43,0,0,0,0,99,,,,,,,20.514,70.34,1486.345453731,52.821524,6,P-GPS,
16900,2024-04-10 14:53:41,39.0946034686591,-96.5547877319062,53.477692,,,1487.001621731,36.417324,9.506995,41.875657508,45.094817716,21,5,23.106,1487.001621731,53.477692,9.506995,41.875657508,-8.500372,-4.250186,-3.131716,207.8, -5.7, 4.4,0,0,1250,1024,1299,1024,34,0,42,0,0,0,0,99,,,,,,,20.514,70.34,1487.001621731,53.477692,6,P-GPS,
17000,2024-04-10 14:53:41,39.0945997869702,-96.5547900930746,53.805776,,,1487.329705731,36.417324,9.506995,43.373689052,46.595473932,21,5,23.106,1487.329705731,53.805776,9.506995,43.373689052,-8.500372,-4.250186,-3.131716,207.8, -5.7, 4.5,0,0,1249,1024,1292,1024,34,0,41,0,0,0,0,99,,,,,,,20.514,70.34,1487.329705731,53.805776,6,P-GPS,
17100,2024-04-10 14:53:41,39.0945963132661,-96.5547923642909,54.461944,,,1487.985873731,36.417324,9.7083196,44.792324268,48.016405736,21,5,23.106,1487.985873731,54.461944,9.7083196,44.792324268,-8.724066,-4.250186,-3.131716,207.8, -5.6, 4.6,0,0,1247,1024,1289,1024,34,0,40,0,0,0,0,99,,,,,,,20.514,70.34,1487.985873731,54.461944,6,P-GPS,
17200,2024-04-10 14:53:41,39.0945927846768,-96.5547944469492,54.790028,,,1488.313957731,36.417324,9.7083196,46.208334812,49.432744364,21,5,23.106,1488.313957731,54.790028,9.7083196,46.208334812,-8.724066,-4.250186,-3.131716,207.9, -5.6, 4.7,0,0,1242,1024,1280,1024,33,0,39,0,0,0,0,99,,,,,,,20.514,70.34,1488.313957731,54.790028,6,P-GPS,
17300,2024-04-10 14:53:41,39.0945892652279,-96.5547967270233,55.446196,,,1488.970125731,36.417324,9.7083196,47.643374228,50.869752284,21,5,23.106,1488.970125731,55.446196,9.7083196,47.643374228,-8.724066,-4.250186,-3.131716,207.9, -5.6, 4.7,0,0,1241,1024,1270,1024,33,0,37,0,0,0,0,99,,,,,,,20.514,70.34,1488.970125731,55.446196,6,P-GPS,
17400,2024-04-10 14:53:42,39.0945855287566,-96.5547990757688,55.77428,,,1489.298209731,36.417324,9.7083196,49.158794224,52.3868127,21,5,23.106,1489.298209731,55.77428,9.7083196,49.158794224,-8.724066,-4.250186,-2.908022,207.9, -5.6, 4.7,0,0,1237,1024,1272,1024,32,0,38,0,0,0,0,99,,,,,,,20.514,70.34,1489.298209731,55.77428,6,P-GPS,
17500,2024-04-10 14:53:42,39.0945819613527,-96.5548013906007,56.102364,,,1489.626293731,36.417324,9.7083196,50.614174848,53.843833744,21,5,23.106,1489.626293731,56.102364,9.7083196,50.614174848,-8.724066,-4.250186,-2.908022,207.9, -5.4, 4.8,0,0,1237,1024,1269,1024,32,0,37,0,0,0,0,99,,,,,,,20.514,70.34,1489.626293731,56.102364,6,P-GPS,
17600,2024-04-10 14:53:42,39.0945782037222,-96.5548036933353,56.758532,,,1490.282461731,36.417324,9.9096442,52.131891432,55.362206496,21,5,23.178,1490.282461731,56.758532,9.9096442,52.131891432,-8.94776,-4.250186,-2.684328,207.9, -5.3, 4.9,0,0,1236,1024,1269,1024,32,0,37,0,0,0,0,99,,,,,,,20.604,70.34,1490.282461731,56.758532,6,P-GPS,
17700,2024-04-10 14:53:42,39.0945745946939,-96.5548060358665,57.086616,,,1490.610545731,36.417324,9.9096442,53.604332424,56.836615992,21,5,23.178,1490.610545731,57.086616,9.9096442,53.604332424,-8.94776,-4.250186,-2.684328,207.9, -5.1, 5,0,0,1232,1024,1270,1024,32,0,37,0,0,0,0,99,,,,,,,20.604,70.34,1490.610545731,57.086616,6,P-GPS,
17800,2024-04-10 14:53:42,39.0945708246164,-96.5548084415115,57.4147,,,1490.938629731,36.417324,9.9096442,55.13779704,58.371392944,21,5,23.178,1490.938629731,57.4147,9.9096442,55.13779704,-8.94776,-4.250186,-2.684328,207.8, -5, 5,0,0,1231,1024,1272,1024,31,0,38,0,0,0,0,99,,,,,,,20.604,70.34,1490.938629731,57.4147,6,P-GPS,
17900,2024-04-10 14:53:42,39.0945671907026,-96.5548108200368,57.742784,,,1491.266713731,36.417324,9.9991218,56.623033308,59.858597716,21,5,23.178,1491.266713731,57.742784,9.9991218,56.623033308,-8.94776,-4.47388,-2.460634,207.8, -4.9, 4.9,0,0,1234,1024,1260,1024,32,0,36,0,0,0,0,99,,,,,,,20.604,70.34,1491.266713731,57.742784,6,P-GPS,
18000,2024-04-10 14:53:42,39.0945637030267,-96.5548131543228,58.398952,,,1491.922881731,36.417324,9.9991218,58.0544638,61.292324796,21,5,23.178,1491.922881731,58.398952,9.9991218,58.0544638,-8.94776,-4.47388,-2.460634,207.9, -4.7, 4.6,0,0,1233,1024,1265,1024,32,0,37,0,0,0,0,99,,,,,,,20.604,70.34,1491.922881731,58.398952,6,P-GPS,
18100,2024-04-10 14:53:42,39.0945600688644,-96.5548155561985,58.727036,,,1492.250965731,36.417324,9.9991218,59.542652824,62.782482324,21,5,23.178,1492.250965731,58.727036,9.9991218,59.542652824,-8.94776,-4.47388,-2.460634,208, -4.6, 4.5,0,0,1234,1024,1261,1024,32,0,36,0,0,0,0,99,,,,,,,20.604,70.34,1492.250965731,58.727036,6,P-GPS,
18200,2024-04-10 14:53:42,39.0945566350715,-96.5548179712863,59.05512,,,1492.579049731,36.417324,9.9991218,60.965881216,64.209975808,21,5,23.178,1492.579049731,59.05512,9.9991218,60.965881216,-8.94776,-4.47388,-2.460634,208, -4.5, 4.5,0,0,1232,1024,1258,1024,32,0,35,0,0,0,0,99,,,,,,,20.604,70.34,1492.579049731,59.05512,6,P-GPS,
18300,2024-04-10 14:53:42,39.0945530146156,-96.5548203902981,59.383204,,,1492.907133731,36.417324,9.9991218,62.451773652,65.697836748,21,5,23.178,1492.907133731,59.383204,9.9991218,62.451773652,-8.94776,-4.47388,-2.460634,208.1, -4.3, 4.5,0,0,1227,1024,1246,1024,31,0,34,0,0,0,0,99,,,,,,,20.604,70.34,1492.907133731,59.383204,6,P-GPS,
18400,2024-04-10 14:53:43,39.0945495843177,-96.5548225673513,59.711288,,,1493.235217731,36.417324,9.9991218,63.846130652,67.092849916,21,5,23.178,1493.235217731,59.711288,9.9991218,63.846130652,-8.94776,-4.47388,-2.460634,208.1, -4.2, 4.6,0,0,1222,1024,1137,1024,30,0,17,0,0,0,0,99,,,,,,,20.604,70.34,1493.235217731,59.711288,6,P-GPS,
18500,2024-04-10 14:53:43,39.0945459890985,-96.5548249805462,60.039372,,,1493.563301731,36.417324,9.9991218,65.32316482,68.572180672,21,5,23.178,1493.563301731,60.039372,9.9991218,65.32316482,-8.94776,-4.47388,-2.23694,208.2, -4.2, 4.6,0,0,1212,1024,1079,1024,28,0,8,0,0,0,0,99,,,,,,,20.604,70.34,1493.563301731,60.039372,6,P-GPS,
18600,2024-04-10 14:53:43,39.0945425694745,-96.5548274666785,60.367456,,,1493.891385731,36.417324,9.9991218,66.750658304,70.004595416,21,5,23.166,1493.891385731,60.367456,9.9991218,66.750658304,-8.94776,-4.47388,-2.013246,208.3, -4, 4.5,0,0,1221,1024,1024,1024,30,0,0,0,0,0,0,99,,,,,,,20.582,70.34,1493.891385731,60.367456,6,P-GPS,
18700,2024-04-10 14:53:43,39.0945390014624,-96.5548298884718,60.69554,,,1494.219469731,36.417324,9.9991218,68.219818456,71.476052156,21,5,23.166,1494.219469731,60.69554,9.9991218,68.219818456,-8.94776,-4.47388,-1.565858,208.4, -3.8, 4.5,0,0,1229,1024,1024,1024,31,0,0,0,0,0,0,99,,,,,,,20.582,70.34,1494.219469731,60.69554,6,P-GPS,
18800,2024-04-10 14:53:43,39.0945355676523,-96.554832135692,61.023624,,,1494.547553731,36.417324,9.9991218,69.624017976,72.881235928,21,5,23.166,1494.547553731,61.023624,9.9991218,69.624017976,-8.94776,-4.47388,-1.11847,208.4, -3.7, 4.8,0,0,1229,1024,983,1024,31,0,-6,0,0,0,0,99,,,,,,,20.582,70.34,1494.547553731,61.023624,6,P-GPS,
18900,2024-04-10 14:53:43,39.0945320227867,-96.5548345419442,61.023624,,,1494.547553731,36.417324,9.9991218,71.083663692,74.342850148,21,5,23.166,1494.547553731,61.023624,9.9991218,71.083663692,-8.94776,-4.47388,-0.894776,208.4, -3.6, 4.9,0,0,1230,1024,898,1024,31,0,-19,0,0,0,0,99,,,,,,,20.582,70.34,1494.547553731,61.023624,6,P-GPS,
19000,2024-04-10 14:53:43,39.0945282193857,-96.5548369579978,61.351708,,,1494.875637731,36.417324,9.9991218,72.630251668,75.890094292,21,5,23.166,1494.875637731,61.351708,9.9991218,72.630251668,-8.94776,-4.47388,-0.447388,208.4, -3.6, 4.8,0,0,1231,1024,876,1024,31,0,-22,0,0,0,0,99,,,,,,,20.582,70.34,1494.875637731,61.351708,6,P-GPS,
19100,2024-04-10 14:53:43,39.094524656976,-96.5548393668107,61.351708,,,1494.875637731,36.417324,9.9991218,74.096459064,77.357942108,21,5,23.166,1494.875637731,61.351708,9.9991218,74.096459064,-8.94776,-4.47388,-0.223694,208.4, -3.6, 4.6,0,0,1227,1024,880,1024,31,0,-22,0,0,0,0,99,,,,,,,20.582,70.34,1494.875637731,61.351708,6,P-GPS,
