time(millisecond),datetime(utc),latitude,longitude,height_above_takeoff(feet),height_above_ground_at_drone_location(feet),ground_elevation_at_drone_location(feet),altitude_above_seaLevel(feet),height_sonar(feet),speed(mph),distance(feet),mileage(feet),satellites,gpslevel,voltage(v),max_altitude(feet),max_ascent(feet),max_speed(mph),max_distance(feet), xSpeed(mph), ySpeed(mph), zSpeed(mph), compass_heading(degrees), pitch(degrees), roll(degrees),isPhoto,isVideo,rc_elevator,rc_aileron,rc_throttle,rc_rudder,rc_elevator(percent),rc_aileron(percent),rc_throttle(percent),rc_rudder(percent),gimbal_heading(degrees),gimbal_pitch(degrees),gimbal_roll(degrees),battery_percent,voltageCell1,voltageCell2,voltageCell3,voltageCell4,voltageCell5,voltageCell6,current(A),battery_temperature(f),altitude(feet),ascent(feet),flycStateRaw,flycState,message
0,2024-04-10 20:52:25,39.0995060694823,-96.6140573736682,0,Available with any HD 360 subscription,Available with any HD 360 subscription,1180.8802264365,0.656168,0,0,0,25,5,0,1180.8802264365,0,0,0,0,0,0,4.8, -2, 4,0,0,364,364,364,1684,-100,-100,-100,100,0,0,0,92,,,,,,,0,102.2,1180.8802264365,0,41,Motors_Started,"GEO: You are in a Warning Zone (Airport). Fly with caution."
100,2024-04-10 20:52:26,39.0995060493921,-96.6140573748386,0,,,1180.8802264365,0.656168,0,0.0073373690012,0.0073373690012,25,5,0,1180.8802264365,0,0,0.0073373690012,0,0,0,4.8, -2, 4,0,0,364,364,364,1684,-100,-100,-100,100,0,0,0,92,,,,,,,0,102.2,1180.8802264365,0,41,Motors_Started,
200,2024-04-10 20:52:26,39.099506084039,-96.6140573749732,0,,,1180.8802264365,0.656168,0,0.0053238518764,0.019978347096,25,5,0,1180.8802264365,0,0,0.0073373690012,0,0,0,4.7, -2, 4,0,0,364,364,364,1684,-100,-100,-100,100,0,0,0,92,,,,,,,0,102.2,1180.8802264365,0,41,Motors_Started,
300,2024-04-10 20:52:26,39.0995060684109,-96.6140573766253,0,,,1180.8802264365,0.656168,0,0.00092403874348,0.0256993774628,25,5,0,1180.8802264365,0,0,0.0073373690012,0,0,0,4.7, -2, 4,0,0,364,364,364,1684,-100,-100,-100,100,0,0,0,92,,,,,,,0,102.2,1180.8802264365,0,41,Motors_Started,
400,2024-04-10 20:52:26,39.0995060983184,-96.6140573761271,0,,,1180.8802264365,0.656168,0,0.0105438323584,0.036611877812,25,5,0,1180.8802264365,0,0,0.0105438323584,0,0,0,4.7, -2, 4,0,0,364,364,364,1684,-100,-100,-100,100,0,0,0,92,,,,,,,0,102.2,1180.8802264365,0,41,Motors_Started,
500,2024-04-10 20:52:26,39.0995060866207,-96.6140573783957,0,,,1180.8802264365,0.656168,0,0.0063946196272,0.040927822832,25,5,0,1180.8802264365,0,0,0.0105438323584,0,0,0,4.7, -2, 4,0,0,871,1024,1024,1024,-23,0,0,0,0,0,0,92,,,,,,,0,102.2,1180.8802264365,0,41,Motors_Started,
600,2024-04-10 20:52:26,39.0995061109042,-96.6140573800287,0,,,1180.8802264365,0.656168,0,0.0152197183348,0.04979987036,25,5,0,1180.8802264365,0,0,0.0152197183348,0,0,0,4.7, -2, 4,0,0,1024,1024,1024,1024,0,0,0,0,0,0,0,92,,,,,,,0,102.2,1180.8802264365,0,41,Motors_Started,"Setting new Return-To-Home altitude to 120m (394 ft). Data Recorder File Index is 49. Setting new Maximum Flight Altitude to 122m (400 ft)"
700,2024-04-10 20:52:26,39.0995061027109,-96.6140573837925,0,,,1180.8802264365,0.656168,0,0.0124577431808,0.052973426892,25,5,0,1180.8802264365,0,0,0.0152197183348,0,0,0,4.7, -2, 4,0,0,1024,1024,1024,1024,0,0,0,0,0,0,0,92,,,,,,,0,102.2,1180.8802264365,0,41,Motors_Started,
800,2024-04-10 20:52:26,39.0995061221896,-96.6140572317399,0,,,1180.8802264365,0.656168,0,0.044549870192,0.096608598892,25,5,0,1180.8802264365,0,0,0.044549870192,0,0,0,4.7, -2, 3.9,0,0,1024,1024,1024,1024,0,0,0,0,0,0,0,92,,,,,,,0,102.2,1180.8802264365,0,41,Motors_Started,
900,2024-04-10 20:52:26,39.0995061175524,-96.614057221493,0,,,1180.8802264365,0.656168,0,0.046520014612,0.0999671948,25,5,0,1180.8802264365,0,0,0.046520014612,0,0,0,4.7, -2, 3.9,0,0,1024,1024,1024,1024,0,0,0,0,0,0,0,92,,,,,,,0,102.2,1180.8802264365,0,41,Motors_Started,
1000,2024-04-10 20:52:26,39.0995059811006,-96.6140572405876,0,,,1180.8802264365,0.656168,0,0.04959481786,0.15004429614,25,5,0,1180.8802264365,0,0,0.04959481786,0,0,0,4.5, -2, 3.9,0,0,1024,1024,1024,1024,0,0,0,0,0,0,0,92,,,,,,,0,102.2,1180.8802264365,0,41,Motors_Started,
1100,2024-04-10 20:52:27,39.0995059654527,-96.6140572326682,0,,,1180.8802264365,0.656168,0,0.055085631684,0.15617782652,25,5,0,1180.8802264365,0,0,0.055085631684,0,0,0,4.5, -2, 4,0,0,1024,1024,1024,1024,0,0,0,0,0,0,0,92,,,,,,,0,102.2,1180.8802264365,0,41,Motors_Started,
1200,2024-04-10 20:52:27,39.0995059937668,-96.614057251041,0,,,1180.8802264365,0.656168,0,0.044369752076,0.167744099856,25,5,0,1180.8802264365,0,0,0.055085631684,0,0,0,4.7, -2, 3.9,0,0,1024,1024,1024,1024,0,0,0,0,0,0,0,92,,,,,,,0,102.2,1180.8802264365,0,41,Motors_Started,
1300,2024-04-10 20:52:27,39.0995059822282,-96.6140572423876,0,,,1180.8802264365,0.656168,0,0.048939962196,0.172615163004,25,5,24.78,1180.8802264365,0,0,0.055085631684,0,0,0,4.8, -2, 4,0,0,1024,1024,1024,1024,0,0,0,0,0,0,0,92,,,,,,,1.704,102.2,1180.8802264365,0,41,Motors_Started,
1400,2024-04-10 20:52:27,39.0995060061717,-96.6140572529921,0,,,1180.8802264365,0.656168,0,0.041243767724,0.181852368024,25,5,24.78,1180.8802264365,0,0,0.055085631684,0,0,0,4.7, -2, 4,0,0,1024,1024,1024,1024,0,0,0,0,0,0,0,92,,,,,,,1.704,102.2,1180.8802264365,0,41,Motors_Started,
1500,2024-04-10 20:52:27,39.0995060007523,-96.6140572448625,0,,,1180.8802264365,0.656168,0,0.044259515852,0.184887145024,25,5,24.78,1180.8802264365,0,0,0.055085631684,0,0,0,4.7, -2, 4,0,0,1024,1024,1024,1024,0,0,0,0,0,0,0,92,,,,,,,1.704,102.2,1180.8802264365,0,41,Motors_Started,
1600,2024-04-10 20:52:27,39.0995060308953,-96.6140572424359,0,,,1180.8802264365,0.656168,0,0.039734909408,0.195906174248,25,5,24.78,1180.8802264365,0,0,0.055085631684,0,0,0,4.7, -2, 4,0,0,1024,1024,1024,1024,0,0,0,0,0,0,0,92,,,,,,,1.704,102.2,1180.8802264365,0,41,Motors_Started,
1700,2024-04-10 20:52:27,39.0995060289748,-96.6140572376886,0,,,1180.8802264365,0.656168,0,0.041240814968,0.197421922328,25,5,24.78,1180.8802264365,0,0,0.055085631684,0,0,0,4.7, -2, 4,0,0,1024,1024,1024,1024,0,0,0,0,0,0,0,92,,,,,,,1.704,102.2,1180.8802264365,0,41,Motors_Started,
1800,2024-04-10 20:52:27,39.0995058908091,-96.6140572632985,0,,,1180.8802264365,0.656168,0,0.072292325148,0.248350401648,25,5,24.78,1180.8802264365,0,0,0.072292325148,0,0,0,4.7, -1.9, 3.9,0,0,1024,1024,1024,1024,0,0,0,0,0,0,0,92,,,,,,,1.704,102.2,1180.8802264365,0,41,Motors_Started,
1900,2024-04-10 20:52:27,39.0995058766079,-96.6140572635507,0,,,1180.8802264365,0.656168,0,0.076967850232,0.253532160344,25,5,24.78,1180.8802264365,0,0,0.076967850232,0,0,0,4.7, -2, 3.9,0,0,1024,1024,1024,1024,0,0,0,0,0,0,0,92,,,,,,,1.704,102.2,1180.8802264365,0,41,Motors_Started,
2000,2024-04-10 20:52:27,39.0995059048625,-96.6140572734096,0,,,1180.8802264365,0.656168,0,0.06643208874,0.264212278796,25,5,24.78,1180.8802264365,0,0,0.076967850232,0,0,0,4.7, -2, 3.9,0,0,1024,1024,1024,1024,0,0,0,0,0,0,0,92,,,,,,,1.704,102.2,1180.8802264365,0,10,Assisted_Takeoff,
2100,2024-04-10 20:52:28,39.099505895132,-96.6140572729291,0,,,1180.8802264365,0.656168,0,0.069713912992,0.267765100432,25,5,24.78,1180.8802264365,0,0,0.076967850232,0,0,0,4.7, -2, 3.9,0,0,1024,1024,1024,1024,0,0,0,0,0,0,0,92,,,,,,,1.704,102.2,1180.8802264365,0,10,Assisted_Takeoff,
2200,2024-04-10 20:52:28,39.0995059185717,-96.6140572726659,0,,,1180.8802264365,0.656168,0,0.062043637156,0.27631726606,25,5,24.78,1180.8802264365,0,0,0.076967850232,0,0,0,4.7, -2, 3.9,0,0,1024,1024,1024,1024,0,0,0,0,0,0,0,92,,,,,,,1.704,102.2,1180.8802264365,0,10,Assisted_Takeoff,
2300,2024-04-10 20:52:28,39.099505911923,-96.6140572746176,0,,,1180.8802264365,0.656168,0,0.063961944304,0.278805127032,25,5,24.774,1180.8802264365,0,0,0.076967850232,0,0,0,4.7, -2, 3.9,0,0,1024,1024,1024,1024,0,0,0,0,0,0,0,92,,,,,,,3.036,102.2,1180.8802264365,0,10,Assisted_Takeoff,
2400,2024-04-10 20:52:28,39.0995059250625,-96.6140572821293,0,,,1180.8802264365,0.656168,0,0.058721130488,0.284049877856,25,5,24.774,1180.8802264365,0,0,0.076967850232,0,0,0,4.7, -2, 3.9,0,0,1024,1024,1024,1024,0,0,0,0,0,0,0,92,,,,,,,3.036,102.2,1180.8802264365,0,10,Assisted_Takeoff,
2500,2024-04-10 20:52:28,39.0995059212734,-96.6140572864405,0,,,1180.8802264365,0.656168,0,0.05944718038,0.28589403802,25,5,24.774,1180.8802264365,0,0,0.076967850232,0,0,0,4.7, -2, 3.9,0,0,1024,1024,1024,1024,0,0,0,0,0,0,0,92,,,,,,,3.036,102.2,1180.8802264365,0,10,Assisted_Takeoff,
2600,2024-04-10 20:52:28,39.0995059313412,-96.6140572934528,0,,,1180.8802264365,0.656168,0,0.055281825916,0.290069563088,25,5,24.774,1180.8802264365,0,0,0.076967850232,0,0,0,4.7, -2, 3.9,0,0,1024,1024,1024,1024,0,0,0,0,0,0,0,92,,,,,,,3.036,102.2,1180.8802264365,0,10,Assisted_Takeoff,
2700,2024-04-10 20:52:28,39.0995059305766,-96.6140573011866,0,,,1180.8802264365,0.656168,0,0.054677167104,0.29227691224,25,5,24.774,1180.8802264365,0,0,0.076967850232,0,0,0,4.7, -2, 3.9,0,0,1024,1024,1024,1024,0,0,0,0,0,0,0,92,,,,,,,3.036,102.2,1180.8802264365,0,10,Assisted_Takeoff,
2800,2024-04-10 20:52:28,39.0995059393911,-96.6140572993735,0,,,1180.8802264365,0.656168,0,0.051916340244,0.295533802108,25,5,24.774,1180.8802264365,0,0,0.076967850232,0,0,0,4.7, -2, 3.9,0,0,1024,1024,1024,1024,0,0,0,0,0,0,0,92,,,,,,,3.036,102.2,1180.8802264365,0,10,Assisted_Takeoff,
2900,2024-04-10 20:52:28,39.0995059406606,-96.6140573077501,0,,,1180.8802264365,0.656168,0,0.05057086776,0.297950140768,25,5,24.774,1180.8802264365,0,0,0.076967850232,0,0,0,4.7, -2, 3.9,0,0,1024,1024,1024,1024,0,0,0,0,0,0,0,92,,,,,,,3.036,102.2,1180.8802264365,0,10,Assisted_Takeoff,
3000,2024-04-10 20:52:28,39.0995059489112,-96.6140573001766,0,,,1180.8802264365,0.656168,0,0.048663387384,0.301646007028,25,5,24.774,1180.8802264365,0,0,0.076967850232,0,0,0,4.7, -2, 3.9,0,0,1024,1024,1024,1024,0,0,0,0,0,0,0,92,,,,,,,3.036,102.2,1180.8802264365,0,10,Assisted_Takeoff,
3100,2024-04-10 20:52:28,39.0995059527892,-96.6140573105955,0,,,1180.8802264365,0.656168,0,0.046169292816,0.30491798876,25,5,24.774,1180.8802264365,0,0,0.076967850232,0,0,0,4.7, -2, 3.9,0,0,1024,1024,1024,1024,0,0,0,0,0,0,0,92,,,,,,,3.036,102.2,1180.8802264365,0,10,Assisted_Takeoff,
3200,2024-04-10 20:52:29,39.0995058038832,-96.614057303094,0,,,1180.8802264365,0.656168,0,0.098942588468,0.35928806924,25,5,24.774,1180.8802264365,0,0,0.098942588468,0,0,0,4.7, -2, 3.9,0,0,1024,1024,1024,1024,0,0,0,0,0,0,0,92,,,,,,,3.036,102.2,1180.8802264365,0,10,Assisted_Takeoff,
3300,2024-04-10 20:52:29,39.0995057949349,-96.614057312296,0,,,1180.8802264365,0.656168,0,0.101664701416,0.36346457856,25,5,24.732,1180.8802264365,0,0,0.101664701416,0,0,0,4.7, -2, 3.9,0,0,1024,1024,1024,1024,0,0,0,0,0,0,0,92,,,,,,,3.876,102.2,1180.8802264365,0,10,Assisted_Takeoff,
3400,2024-04-10 20:52:29,39.099505816347,-96.6140571525781,0,,,1180.8802264365,0.656168,0,0.111572510132,0.40935696848,25,5,24.732,1180.8802264365,0,0,0.111572510132,0,0,0,4.7, -2, 3.9,0,0,1024,1024,1024,1024,0,0,0,0,0,0,0,92,,,,,,,3.876,102.2,1180.8802264365,0,10,Assisted_Takeoff,
3500,2024-04-10 20:52:29,39.0995058107338,-96.6140571505706,0,,,1180.8802264365,0.656168,0,0.113588586312,0.4114829528,25,5,24.732,1180.8802264365,0,0,0.113588586312,0,0,0,4.7, -2, 3.9,0,0,1024,1024,1024,1024,0,0,0,0,0,0,0,92,,,,,,,3.876,102.2,1180.8802264365,0,10,Assisted_Takeoff,
3600,2024-04-10 20:52:29,39.0995058287224,-96.6140571662896,0,,,1180.8802264365,0.656168,0,0.105658796032,0.41941274308,25,5,24.732,1180.8802264365,0,0,0.113588586312,0,0,0,4.7, -2, 3.9,0,0,1024,1024,1024,1024,0,0,0,0,0,0,0,92,,,,,,,3.876,102.2,1180.8802264365,0,10,Assisted_Takeoff,
3700,2024-04-10 20:52:29,39.0995058273042,-96.6140571703198,0,,,1180.8802264365,0.656168,0,0.105462273716,0.42066602396,25,5,24.732,1180.8802264365,0,0,0.113588586312,0,0,0,4.8, -2, 3.9,0,0,1024,1024,1033,1024,0,0,1,0,0,0,0,92,,,,,,,3.876,102.2,1180.8802264365,0,10,Assisted_Takeoff,
3800,2024-04-10 20:52:29,39.099505835883,-96.6140571841548,0,,,1180.8802264365,0.656168,0,0.1007135859,0.42567914748,25,5,24.732,1180.8802264365,0,0,0.113588586312,0,0,0,4.7, -2, 3.9,0,0,1024,1024,1028,1024,0,0,1,0,0,0,0,92,,,,,,,3.876,102.2,1180.8802264365,0,10,Assisted_Takeoff,
3900,2024-04-10 20:52:29,39.099505836783,-96.6140571903559,0,,,1180.8802264365,0.656168,0,0.099508861452,0.42746720528,25,5,24.732,1180.8802264365,0,0,0.113588586312,0,0,0,4.7, -2, 3.9,0,0,1024,1024,1084,1024,0,0,9,0,0,0,0,92,,,,,,,3.876,102.2,1180.8802264365,0,10,Assisted_Takeoff,
4000,2024-04-10 20:52:29,39.099505846656,-96.6140571939614,0,,,1180.8802264365,0.656168,0,0.095908467636,0.43121064372,25,5,24.732,1180.8802264365,0,0,0.113588586312,0,0,0,4.8, -2, 3.9,0,0,1024,1024,1488,1024,0,0,70,0,0,0,0,92,,,,,,,3.876,102.2,1180.8802264365,0,10,Assisted_Takeoff,
4100,2024-04-10 20:52:30,39.099505850928,-96.6140572049445,0,,,1180.8802264365,0.656168,0,0.092954727384,0.43468833412,25,5,24.732,1180.8802264365,0,0,0.113588586312,0,0,0,4.7, -2, 3.9,0,0,1024,1024,1488,1024,0,0,70,0,0,0,0,92,,,,,,,3.876,102.2,1180.8802264365,0,10,Assisted_Takeoff,
4200,2024-04-10 20:52:30,39.0995058520979,-96.6140572075603,0,,,1180.8802264365,0.656168,0,0.092208992452,0.43554463336,25,5,24.732,1180.8802264365,0,0,0.113588586312,0,0,0,4.7, -1.9, 3.8,0,0,1024,1024,1684,1024,0,0,100,0,0,0,0,92,,,,,,,3.876,102.2,1180.8802264365,0,10,Assisted_Takeoff,
4300,2024-04-10 20:52:30,39.0995058585271,-96.6140572203612,0,,,1180.8802264365,0.656168,0,0.088363519888,0.4398622188,25,5,24.732,1180.8802264365,0,0,0.113588586312,0,0,0,4.7, -1.9, 3.9,0,0,1024,1024,1684,1024,0,0,100,0,0,0,0,92,,,,,,,2.094,102.2,1180.8802264365,0,10,Assisted_Takeoff,
4400,2024-04-10 20:52:30,39.0995058537282,-96.6140572129396,0,,,1180.8802264365,0.656168,0,0.090926184012,0.44259515852,25,5,24.732,1180.8802264365,0,0,0.113588586312,0,0,0,4.7, -1.9, 3.9,0,0,1024,1024,1684,1024,0,0,100,0,0,0,0,92,,,,,,,2.094,102.2,1180.8802264365,0,10,Assisted_Takeoff,
4500,2024-04-10 20:52:30,39.0995058619489,-96.6140572250643,0,,,1180.8802264365,0.656168,0,0.086623690436,0.44715552612,25,5,24.732,1180.8802264365,0,0,0.113588586312,0,0,0,4.7, -1.9, 3.8,0,0,1024,1024,1684,1024,0,0,100,0,0,0,0,92,,,,,,,2.094,102.2,1180.8802264365,0,10,Assisted_Takeoff,
4600,2024-04-10 20:52:30,39.0995058597344,-96.6140572091616,0,,,1180.8802264365,0.656168,0,0.089587273208,0.45172901708,25,5,24.732,1180.8802264365,0,0,0.113588586312,0,0,0,4.8, -1.9, 3.8,0,0,1024,1024,1684,1024,0,0,100,0,0,0,0,92,,,,,,,2.094,102.2,1180.8802264365,0,10,Assisted_Takeoff,
4700,2024-04-10 20:52:30,39.099505869661,-96.6140572141678,0,,,1180.8802264365,0.656168,0,0.085759189096,0.45561681248,25,5,24.732,1180.8802264365,0,0,0.113588586312,0,0,0,4.8, -1.5, 3.6,0,0,1024,1024,1684,1027,0,0,100,0,0,0,0,92,,,,,,,2.094,102.2,1180.8802264365,0,10,Assisted_Takeoff,
4800,2024-04-10 20:52:30,39.0995058670016,-96.6140571683972,0,,,1180.8802264365,0.656168,0,0.09399770642,0.46861550056,25,5,24.732,1180.8802264365,0,0,0.113588586312,0,0,-0.223694,4.8, -0.3, 3,0,0,1024,1024,1684,1026,0,0,100,0,0,0,0,92,,,,,,,2.094,102.2,1180.8802264365,0,10,Assisted_Takeoff,
4900,2024-04-10 20:52:30,39.0995058661963,-96.6140571175322,0,,,1180.8802264365,0.656168,0,0.103733271036,0.48301838816,25,5,24.732,1180.8802264365,0,0,0.113588586312,0,0,-0.671082,4.5, 0.8, 2,0,0,1024,1024,1684,1024,0,0,100,0,0,0,0,92,,,,,,,2.094,102.2,1180.8802264365,0,6,P-GPS,
5000,2024-04-10 20:52:30,39.0995058212219,-96.6140570324503,0.328084,,,1181.2083104365,0.984252,0,0.13243274702,0.51216865156,25,5,24.732,1181.2083104365,0.328084,0,0.13243274702,0,0,-1.342164,4.3, 1.6, 0.9,0,0,1024,1024,1684,1024,0,0,100,0,0,0,0,92,,,,,,,2.094,102.2,1181.2083104365,0.328084,6,P-GPS,
5100,2024-04-10 20:52:31,39.0995057545399,-96.6140569765756,0.328084,,,1181.2083104365,1.312336,0,0.160763128504,0.54118768136,25,5,24.732,1181.2083104365,0.328084,0,0.160763128504,0,0,-1.789552,4.1, 1.6, 0,0,0,1024,1024,1684,1024,0,0,100,0,0,0,0,92,,,,,,,2.094,102.2,1181.2083104365,0.328084,6,P-GPS,
5200,2024-04-10 20:52:31,39.0995056108675,-96.6140568798421,0.656168,,,1181.5363944365,1.64042,0.223694,0.218055453172,0.60033138404,25,5,24.732,1181.5363944365,0.656168,0.223694,0.218055453172,-0.223694,0,-2.460634,4, 1.1, -0.6,0,0,1024,1024,1684,1024,0,0,100,0,0,0,0,92,,,,,,,2.094,102.2,1181.5363944365,0.656168,6,P-GPS,
5300,2024-04-10 20:52:31,39.0995054736717,-96.6140569036714,1.312336,,,1182.1925624365,1.968504,0.223694,0.254879929416,0.65083991584,25,5,24.732,1182.1925624365,1.312336,0.223694,0.254879929416,-0.223694,0,-3.131716,3.9, -0.3, -0.8,0,0,1024,1024,1684,1024,0,0,100,0,0,0,0,92,,,,,,,2.46,102.2,1182.1925624365,1.312336,6,P-GPS,
5400,2024-04-10 20:52:31,39.0995053817662,-96.614056941663,1.64042,,,1182.5206464365,2.296588,0.223694,0.279140100796,0.68605317156,25,5,24.732,1182.5206464365,1.64042,0.223694,0.279140100796,-0.223694,0,-3.802798,3.8, -2.3, -0.3,0,0,1024,1024,1679,1024,0,0,99,0,0,0,0,92,,,,,,,2.46,102.2,1182.5206464365,1.64042,6,P-GPS,
5500,2024-04-10 20:52:31,39.0995052590447,-96.6140570643538,2.296588,,,1183.1768144365,2.952756,0.3131716,0.308385180472,0.74272312088,25,5,24.732,1183.1768144365,2.296588,0.3131716,0.308385180472,-0.223694,-0.223694,-4.47388,3.6, -3.5, 1,0,0,1024,1024,1667,1031,0,0,97,1,0,0,0,92,,,,,,,2.46,102.2,1183.1768144365,2.296588,6,P-GPS,
5600,2024-04-10 20:52:31,39.0995050094404,-96.6140570214689,2.952756,,,1183.8329824365,3.608924,0.223694,0.39940618076,0.83459976424,25,5,24.732,1183.8329824365,2.952756,0.3131716,0.39940618076,0,-0.223694,-5.144962,3.4, -3.2, 2.2,0,0,1024,1024,1659,1079,0,0,96,8,0,0,0,92,,,,,,,2.46,102.2,1183.8329824365,2.952756,6,P-GPS,
5700,2024-04-10 20:52:31,39.099504955122,-96.6140571045303,3.937008,,,1184.8172344365,4.593176,0,0.41365486888,0.8653543584,25,5,24.732,1184.8172344365,3.937008,0.3131716,0.41365486888,0,0,-5.816044,3.3, -2.1, 2.4,0,0,1024,1024,1616,1277,0,0,90,38,0,0,0,92,,,,,,,2.46,102.2,1184.8172344365,3.937008,6,P-GPS,
5800,2024-04-10 20:52:31,39.0995050602074,-96.6140573134529,4.92126,,,1185.8014864365,5.577428,0,0.36862862072,0.93584648664,25,5,24.732,1185.8014864365,4.92126,0.3131716,0.41365486888,0,0,-6.71082,3.1, -1.4, 2.2,0,0,1024,1024,1603,1376,0,0,88,53,0,0,0,92,,,,,,,2.46,102.2,1185.8014864365,4.92126,6,P-GPS,
5900,2024-04-10 20:52:31,39.0995050314439,-96.6140573664449,5.905512,,,1186.7857384365,6.56168,0,0.37873360792,0.95415685468,25,5,24.732,1186.7857384365,5.905512,0.3131716,0.41365486888,0,0,-7.381902,3.5, -1, 1.9,0,0,1024,1024,1592,1415,0,0,86,59,0,0,0,92,,,,,,,2.46,102.2,1186.7857384365,5.905512,6,P-GPS,
6000,2024-04-10 20:52:31,39.0995049379804,-96.6140573714251,7.217848,,,1188.0980744365,7.545932,0,0.4128280972,0.9882874332,25,5,24.732,1188.0980744365,7.217848,0.3131716,0.41365486888,0,0,-8.052984,4.9, -1.1, 1.7,0,0,1024,1024,1556,1394,0,0,81,56,0,0,0,92,,,,,,,2.46,102.2,1188.0980744365,7.217848,6,P-GPS,
6100,2024-04-10 20:52:32,39.0995048959692,-96.6140574241159,8.2021,,,1189.0823264365,8.858268,0.223694,0.42839240216,1.00967522916,25,5,24.732,1189.0823264365,8.2021,0.3131716,0.42839240216,0,-0.223694,-8.724066,7.7, -1.3, 1.7,0,0,1024,1024,1484,1405,0,0,70,58,0,0,0,92,,,,,,,2.46,102.2,1189.0823264365,8.2021,6,P-GPS,
6200,2024-04-10 20:52:32,39.0995046404995,-96.614057453118,9.84252,,,1190.7227464365,10.170604,0.223694,0.52184712956,1.10324478596,24,5,24.732,1190.7227464365,9.84252,0.3131716,0.52184712956,0,-0.223694,-8.94776,11.2, -1.5, 2.3,0,0,1024,1024,1370,1384,0,0,52,55,0,0,0,92,,,,,,,2.46,102.2,1190.7227464365,9.84252,6,P-GPS,
6300,2024-04-10 20:52:32,39.099504581549,-96.6140574948284,11.154856,,,1192.0350824365,11.154856,0.223694,0.54395342948,1.12778218832,24,5,24.744,1192.0350824365,11.154856,0.3131716,0.54395342948,0,-0.223694,-8.94776,14.9, -1.9, 3.2,0,0,1024,1024,1166,1405,0,0,22,58,0,0,0,92,,,,,,,14.084,102.2,1192.0350824365,11.154856,6,P-GPS,
6400,2024-04-10 20:52:32,39.0995045214688,-96.6140575052459,12.467192,,,1193.3474184365,12.467192,0.223694,0.56602035932,1.14989833076,25,5,24.744,1193.3474184365,12.467192,0.3131716,0.56602035932,0,0,-8.724066,18.7, -2.6, 3.6,0,0,1024,1024,1146,1400,0,0,18,57,0,0,0,92,,,,,,,14.084,102.2,1193.3474184365,12.467192,6,P-GPS,
6500,2024-04-10 20:52:32,39.0995046007558,-96.6140572698762,13.779528,,,1194.6597544365,13.451444,0,0.53666996468,1.22254925172,25,5,24.744,1194.6597544365,13.779528,0.3131716,0.56602035932,0,0,-8.500372,22.8, -2.9, 3.3,0,0,1024,1024,1141,1411,0,0,18,59,0,0,0,92,,,,,,,14.084,102.2,1194.6597544365,13.779528,6,P-GPS,
6600,2024-04-10 20:52:32,39.0995044259924,-96.6140573738579,15.091864,,,1195.9720904365,14.435696,0,0.59962600344,1.2927821936,25,5,24.744,1195.9720904365,15.091864,0.3131716,0.59962600344,0,0,-7.82929,26.9, -2.9, 2.7,0,0,1024,1024,1138,1398,0,0,17,57,0,0,0,92,,,,,,,14.084,102.2,1195.9720904365,15.091864,6,P-GPS,
6700,2024-04-10 20:52:32,39.0995043482941,-96.6140572802713,16.076116,,,1196.9563424365,15.419948,0,0.62853020384,1.33158468828,25,5,24.744,1196.9563424365,16.076116,0.3131716,0.62853020384,0,0,-7.381902,31.2, -2.9, 1.9,0,0,1069,1024,1139,1337,7,0,17,47,0,0,0,92,,,,,,,14.084,102.2,1196.9563424365,16.076116,6,P-GPS,
6800,2024-04-10 20:52:32,39.0995042842036,-96.6140570990254,17.388452,,,1198.2686784365,16.4042,0,0.65598427296,1.38797904704,25,5,24.744,1198.2686784365,17.388452,0.3131716,0.65598427296,0,0,-6.487126,35.4, -3, 1.2,0,0,1299,1024,1142,1305,42,0,18,43,0,0,0,92,,,,,,,14.084,102.2,1198.2686784365,17.388452,6,P-GPS,
6900,2024-04-10 20:52:32,39.0995041999047,-96.6140569859432,18.04462,,,1198.9248464365,17.060368,0,0.69089241056,1.43237865476,25,5,24.744,1198.9248464365,18.04462,0.3131716,0.69089241056,0,0,-5.816044,39.1, -3.2, 0.9,0,0,1346,1024,1143,1306,49,0,18,43,0,0,0,92,,,,,,,14.084,102.2,1198.9248464365,18.04462,6,P-GPS,
7000,2024-04-10 20:52:32,39.0995040605526,-96.6140569287928,19.028872,,,1199.9090984365,17.716536,0,0.7437008112,1.48573495568,25,5,24.744,1199.9090984365,19.028872,0.3131716,0.7437008112,0,0,-4.921268,42.3, -4.8, 0.8,0,0,1387,1024,1141,1286,55,0,18,40,0,0,0,92,,,,,,,14.084,102.2,1199.9090984365,19.028872,6,P-GPS,
7100,2024-04-10 20:52:32,39.0995039771628,-96.6140568000439,19.68504,,,1200.5652664365,18.04462,0,0.78046918508,1.53321527216,25,5,24.744,1200.5652664365,19.68504,0.3131716,0.78046918508,0,0,-4.026492,45.2, -7.9, 0.8,0,0,1400,1024,1150,1207,57,0,19,28,0,0,0,92,,,,,,,14.084,102.2,1200.5652664365,19.68504,6,P-GPS,
7200,2024-04-10 20:52:33,39.0995039445336,-96.6140567336777,20.341208,,,1201.2214344365,18.372704,0,0.79618112784,1.55545936736,25,5,24.744,1201.2214344365,20.341208,0.3131716,0.79618112784,0,0,-3.35541,47.5, -10.9, 0.8,0,0,1405,1024,1159,1169,58,0,20,22,0,0,0,92,,,,,,,14.084,102.2,1201.2214344365,20.341208,6,P-GPS,
7300,2024-04-10 20:52:33,39.0995039380615,-96.614056497265,20.669292,,,1201.5495184365,18.700788,0.223694,0.81627955368,1.6224409968,25,5,24.486,1201.5495184365,20.669292,0.3131716,0.81627955368,0,0.223694,-2.460634,49.4, -13.9, 0.9,0,0,1416,1024,1159,1178,59,0,20,23,0,0,0,92,,,,,,,28.942,102.2,1201.5495184365,20.669292,6,P-GPS,
7400,2024-04-10 20:52:33,39.099504040355,-96.6140563074145,20.997376,,,1201.8776024365,19.028872,0.4921268,0.79951774212,1.68788063144,25,5,24.486,1201.8776024365,20.997376,0.4921268,0.81627955368,0.223694,0.447388,-1.789552,50.6, -16.9, 0.9,0,0,1422,1024,1165,1144,60,0,21,18,0,0,0,92,,,,,,,28.942,102.2,1201.8776024365,20.997376,6,P-GPS,
7500,2024-04-10 20:52:33,39.0995042019609,-96.6140558076072,21.32546,,,1202.2056864365,19.028872,1.006623,0.8129429394,1.84118772296,25,5,24.486,1202.2056864365,21.32546,1.006623,0.81627955368,0.447388,0.894776,-1.342164,51.7, -18.8, 1,0,0,1414,1024,1192,1043,59,0,25,3,0,0,0,92,,,,,,,28.942,102.2,1202.2056864365,21.32546,6,P-GPS,
7600,2024-04-10 20:52:33,39.0995044288102,-96.6140550442582,21.653544,,,1202.5337704365,19.028872,1.4987498,0.89069228572,2.07263129992,25,5,24.486,1202.5337704365,21.653544,1.4987498,0.89069228572,0.671082,1.342164,-1.11847,52.5, -19.3, 0.9,0,0,1412,1024,1222,1024,59,0,30,0,0,0,0,92,,,,,,,28.942,102.2,1202.5337704365,21.653544,6,P-GPS,
7700,2024-04-10 20:52:33,39.0995047966561,-96.6140540821517,21.653544,,,1202.5337704365,19.028872,2.1922012,1.04125987584,2.37630913116,25,5,24.486,1202.5337704365,21.653544,2.1922012,1.04125987584,0.894776,2.013246,-0.894776,52.8, -19.1, 0.2,0,0,1402,1024,1238,1024,57,0,32,0,0,0,0,92,,,,,,,28.942,102.2,1202.5337704365,21.653544,6,P-GPS,
7800,2024-04-10 20:52:33,39.0995053722614,-96.6140528386215,21.981628,,,1202.8618544365,19.028872,2.796175,1.30901578992,2.78627961672,25,5,24.486,1202.8618544365,21.981628,2.796175,1.30901578992,1.342164,2.460634,-1.11847,52.9, -18.1, -0.5,0,0,1401,1024,1164,1024,57,0,21,0,0,0,0,92,,,,,,,28.942,102.2,1202.8618544365,21.981628,6,P-GPS,
7900,2024-04-10 20:52:33,39.0995060386451,-96.61405138794,22.309712,,,1203.1899384365,19.028872,3.3106712,1.6948491356,3.26358934328,25,5,24.486,1203.1899384365,22.309712,3.3106712,1.6948491356,1.565858,2.908022,-1.11847,52.7, -16.9, -1,0,0,1405,1024,1037,1026,58,0,2,0,0,0,0,92,,,,,,,28.942,102.2,1203.1899384365,22.309712,6,P-GPS,
8000,2024-04-10 20:52:33,39.0995069704598,-96.6140496707816,22.309712,,,1203.1899384365,19.028872,3.914645,2.2056431152,3.8568570788,25,5,24.486,1203.1899384365,22.309712,3.914645,2.2056431152,2.013246,3.35541,-1.11847,52.7, -16.1, -1.3,0,0,1390,1024,1024,1024,55,0,0,0,0,0,0,92,,,,,,,28.942,102.2,1203.1899384365,22.309712,6,P-GPS,
8100,2024-04-10 20:52:34,39.0995079170303,-96.6140478200415,22.637796,,,1203.5180224365,19.028872,4.2278166,2.78775599472,4.4844489624,25,5,24.486,1203.5180224365,22.637796,4.2278166,2.78775599472,2.23694,3.579104,-0.894776,52.7, -16.3, -1.2,0,0,1367,1024,1024,1024,52,0,0,0,0,0,0,92,,,,,,,28.942,102.2,1203.5180224365,22.637796,6,P-GPS,
8200,2024-04-10 20:52:34,39.0995090730082,-96.614046057567,22.637796,,,1203.5180224365,19.028872,4.6528352,3.3862861976,5.1378282484,25,5,24.486,1203.5180224365,22.637796,4.6528352,3.3862861976,2.684328,3.802798,-0.671082,52.7, -17, -1,0,0,1367,1024,1024,1024,52,0,0,0,0,0,0,92,,,,,,,28.942,102.2,1203.5180224365,22.637796,6,P-GPS,
8300,2024-04-10 20:52:34,39.0995102653923,-96.614043907881,22.637796,,,1203.5180224365,19.028872,4.6528352,4.108595932,5.885991002,25,5,23.898,1203.5180224365,22.637796,4.6528352,4.108595932,2.908022,4.250186,-0.447388,52.7, -17.3, -0.8,0,0,1350,1024,1024,1024,49,0,0,0,0,0,0,92,,,,,,,20.498,102.2,1203.5180224365,22.637796,6,P-GPS,
8400,2024-04-10 20:52:34,39.0995115329126,-96.6140416974459,22.637796,,,1203.5180224365,19.028872,5.59235,4.865649762,6.6641734416,25,5,23.898,1203.5180224365,22.637796,5.59235,4.865649762,3.35541,4.47388,-0.223694,52.8, -17, -0.5,0,0,1334,1024,1024,1024,47,0,0,0,0,0,0,92,,,,,,,20.498,102.2,1203.5180224365,22.637796,6,P-GPS,
8500,2024-04-10 20:52:34,39.099512951623,-96.614039221415,22.637796,,,1203.5180224365,19.028872,6.0844768,5.7202429652,7.5356301624,25,5,23.898,1203.5180224365,22.637796,6.0844768,5.7202429652,3.579104,4.921268,0,52.7, -16.2, -0.2,0,0,1304,1024,1024,1024,42,0,0,0,0,0,0,92,,,,,,,20.498,102.2,1203.5180224365,22.637796,6,P-GPS,
8600,2024-04-10 20:52:34,39.0995147428136,-96.6140363275097,22.637796,,,1203.5180224365,19.028872,6.3976484,6.7471458852,8.5836945004,25,5,23.898,1203.5180224365,22.637796,6.3976484,6.7471458852,3.802798,5.144962,0,52.6, -15.3, 0,0,0,1297,1024,1024,1024,41,0,0,0,0,0,0,92,,,,,,,20.498,102.2,1203.5180224365,22.637796,6,P-GPS,
8700,2024-04-10 20:52:34,39.0995163818611,-96.6140335308285,22.637796,,,1203.5180224365,19.028872,6.71082,7.7285763628,9.5760173668,25,5,23.898,1203.5180224365,22.637796,6.71082,7.7285763628,4.026492,5.368656,0,52.6, -14.2, 0.2,0,0,1267,1024,1024,1024,37,0,0,0,0,0,0,92,,,,,,,20.498,102.2,1203.5180224365,22.637796,6,P-GPS,
8800,2024-04-10 20:52:34,39.0995180819218,-96.6140307618612,22.637796,,,1203.5180224365,23.293964,7.2029468,8.7168309876,10.5756893148,25,5,23.898,1203.5180224365,22.637796,7.2029468,8.7168309876,4.250186,5.816044,0,52.6, -12.9, 0.2,0,0,1255,1024,1024,1024,35,0,0,0,0,0,0,92,,,,,,,20.498,102.2,1203.5180224365,22.637796,6,P-GPS,
8900,2024-04-10 20:52:34,39.099519872699,-96.6140277380808,22.637796,,,1203.5180224365,23.293964,7.2029468,9.7863520192,11.6526906616,25,5,23.898,1203.5180224365,22.637796,7.2029468,9.7863520192,4.47388,5.816044,0,52.6, -11.6, 0.2,0,0,1212,1024,1024,1024,28,0,0,0,0,0,0,92,,,,,,,20.498,102.2,1203.5180224365,22.637796,6,P-GPS,
9000,2024-04-10 20:52:34,39.0995218011998,-96.6140245197664,22.637796,,,1203.5180224365,23.293964,7.6503348,10.9305777776,12.803970226,24,5,23.898,1203.5180224365,22.637796,7.6503348,10.9305777776,4.697574,6.039738,0,52.7, -10.4, 0.2,0,0,1146,1024,1024,1024,18,0,0,0,0,0,0,92,,,,,,,20.498,102.2,1203.5180224365,22.637796,6,P-GPS,
9100,2024-04-10 20:52:35,39.0995236913951,-96.61402134163,22.637796,,,1203.5180224365,23.293964,7.82929,12.059055504,13.9376972964,24,5,23.898,1203.5180224365,22.637796,7.82929,12.059055504,4.697574,6.263432,0,52.7, -9.4, 0.3,0,0,1128,1024,1024,1024,16,0,0,0,0,0,0,92,,,,,,,20.498,102.2,1203.5180224365,22.637796,6,P-GPS,
9200,2024-04-10 20:52:35,39.0995257139395,-96.6140178753023,22.637796,,,1203.5180224365,23.293964,7.82929,13.2832025248,15.1656172832,24,5,23.898,1203.5180224365,22.637796,7.82929,13.2832025248,4.697574,6.263432,0,52.7, -8.2, 0.3,0,0,1114,1024,1024,1024,14,0,0,0,0,0,0,92,,,,,,,20.498,102.2,1203.5180224365,22.637796,6,P-GPS,
9300,2024-04-10 20:52:35,39.0995276568941,-96.6140146038949,22.637796,,,1203.5180224365,23.293964,7.9635064,14.4458994124,16.33202152,24,5,24.33,1203.5180224365,22.637796,7.9635064,14.4458994124,4.921268,6.263432,0,52.6, -6.6, 0.3,0,0,1088,1024,1024,1024,10,0,0,0,0,0,0,92,,,,,,,18.982,102.2,1203.5180224365,22.637796,6,P-GPS,
9400,2024-04-10 20:52:35,39.0995294737641,-96.6140115995313,22.637796,,,1203.5180224365,23.293964,7.9635064,15.5207025964,17.4104664364,25,5,24.33,1203.5180224365,22.637796,7.9635064,15.5207025964,4.921268,6.263432,0,52.6, -5.1, 0.3,0,0,1200,1024,1024,1024,27,0,0,0,0,0,0,92,,,,,,,18.982,102.2,1203.5180224365,22.637796,6,P-GPS,
9500,2024-04-10 20:52:35,39.0995313964246,-96.6140083800745,22.637796,,,1203.5180224365,23.293964,7.9635064,16.6680451528,18.560696132,25,5,24.33,1203.5180224365,22.637796,7.9635064,16.6680451528,4.921268,6.263432,0,52.7, -4.1, 0.4,0,0,1175,1024,1024,1024,23,0,0,0,0,0,0,92,,,,,,,18.982,102.2,1203.5180224365,22.637796,6,P-GPS,
9600,2024-04-10 20:52:35,39.0995334216332,-96.6140052238386,22.309712,,,1203.1899384365,23.293964,7.6503348,17.821850964,19.7202762216,25,5,24.33,1203.5180224365,22.637796,7.9635064,17.821850964,4.697574,6.039738,0,52.7, -3.9, 0.5,0,0,1125,1024,1024,1024,15,0,0,0,0,0,0,92,,,,,,,18.982,102.2,1203.1899384365,22.309712,6,P-GPS,
9700,2024-04-10 20:52:35,39.0995353050974,-96.6140020851515,22.309712,,,1203.1899384365,23.293964,7.6503348,18.943078034,20.8436358376,25,5,24.33,1203.5180224365,22.637796,7.9635064,18.943078034,4.697574,6.039738,0,52.7, -4.6, 0.6,0,0,1131,1024,1024,1024,16,0,0,0,0,0,0,92,,,,,,,18.982,102.2,1203.1899384365,22.309712,6,P-GPS,
9800,2024-04-10 20:52:35,39.0995370524691,-96.6139989352656,22.309712,,,1203.1899384365,23.293964,7.6503348,20.0391082528,21.939961332,25,5,24.33,1203.5180224365,22.637796,7.9635064,20.0391082528,4.697574,6.039738,0,52.7, -5.2, 0.4,0,0,1157,1024,1024,1024,20,0,0,0,0,0,0,92,,,,,,,18.982,102.2,1203.1899384365,22.309712,6,P-GPS,
9900,2024-04-10 20:52:35,39.0995388801907,-96.6139958438073,22.309712,,,1203.1899384365,23.293964,7.5161184,21.1380912276,23.040355068,25,5,24.33,1203.5180224365,22.637796,7.9635064,21.1380912276,4.47388,6.039738,0,52.7, -5.3, 0.3,0,0,1141,1024,1024,1024,18,0,0,0,0,0,0,92,,,,,,,18.982,102.2,1203.1899384365,22.309712,6,P-GPS,
10000,2024-04-10 20:52:35,39.0995406817373,-96.6139928705727,22.309712,,,1203.1899384365,23.293964,7.3371632,22.2042658024,24.1083997216,25,5,24.33,1203.5180224365,22.637796,7.9635064,22.2042658024,4.47388,5.816044,0,52.7, -5, 0.4,0,0,1157,1024,1024,1024,20,0,0,0,0,0,0,92,,,,,,,18.982,102.2,1203.1899384365,22.309712,6,P-GPS,
10100,2024-04-10 20:52:36,39.0995424629211,-96.61398984544,22.309712,,,1203.1899384365,23.293964,7.3371632,23.2784456268,25.183563798,25,5,24.33,1203.5180224365,22.637796,7.9635064,23.2784456268,4.47388,5.816044,0,52.7, -5, 0.3,0,0,1115,1024,1024,1024,14,0,0,0,0,0,0,92,,,,,,,18.982,102.2,1203.1899384365,22.309712,6,P-GPS,
10200,2024-04-10 20:52:36,39.0995440776568,-96.6139869660117,22.309712,,,1203.1899384365,23.293964,7.3371632,24.2841543204,26.1894365336,25,5,24.33,1203.5180224365,22.637796,7.9635064,24.2841543204,4.47388,5.816044,0,52.8, -5, 0.2,0,0,1085,1024,1024,1024,9,0,0,0,0,0,0,92,,,,,,,18.982,102.2,1203.1899384365,22.309712,6,P-GPS,
10300,2024-04-10 20:52:36,39.099545795431,-96.6139840132704,22.309712,,,1203.1899384365,23.293964,7.0239916,25.3283800756,27.2343184568,25,5,24.186,1203.5180224365,22.637796,7.9635064,25.3283800756,4.250186,5.59235,0,52.7, -4.9, 0.2,0,0,1039,1024,1024,1024,2,0,0,0,0,0,0,92,,,,,,,19.008,102.2,1203.1899384365,22.309712,6,P-GPS,
10400,2024-04-10 20:52:36,39.0995476419776,-96.6139808569214,22.309712,,,1203.1899384365,23.293964,7.0239916,26.44685124,28.3534785976,25,5,24.186,1203.5180224365,22.637796,7.9635064,26.44685124,4.250186,5.59235,0,52.7, -4.4, 0.2,0,0,1056,1024,1024,1024,5,0,0,0,0,0,0,92,,,,,,,19.008,102.2,1203.1899384365,22.309712,6,P-GPS,
10500,2024-04-10 20:52:36,39.0995493213822,-96.6139779616583,22.309712,,,1203.1899384365,23.293964,7.0239916,27.469817152,29.3769366356,25,5,24.186,1203.5180224365,22.637796,7.9635064,27.469817152,4.250186,5.59235,0,52.6, -1.8, 0.1,0,0,1052,1024,1024,1024,4,0,0,0,0,0,0,92,,,,,,,19.008,102.2,1203.1899384365,22.309712,6,P-GPS,
10600,2024-04-10 20:52:36,39.0995507833163,-96.613975163226,22.309712,,,1203.1899384365,23.293964,6.71082,28.4248040592,30.3321203932,25,5,24.186,1203.5180224365,22.637796,7.9635064,28.4248040592,4.026492,5.368656,0,52.6, 4.9, 0,0,0,1045,1024,1024,1024,3,0,0,0,0,0,0,92,,,,,,,19.008,102.2,1203.1899384365,22.309712,6,P-GPS,
10700,2024-04-10 20:52:36,39.0995522961185,-96.6139725481344,22.309712,,,1203.1899384365,23.293964,6.0844768,29.3479668184,31.2556440448,25,5,24.186,1203.5180224365,22.637796,7.9635064,29.3479668184,3.579104,4.921268,0,52.7, 5.1, 0.1,0,0,1026,1024,1024,1024,0,0,0,0,0,0,0,92,,,,,,,19.008,102.2,1203.1899384365,22.309712,6,P-GPS,
10800,2024-04-10 20:52:36,39.0995537085079,-96.6139701013323,22.309712,,,1203.1899384365,23.293964,5.59235,30.2110573972,32.1190627076,25,5,24.186,1203.5180224365,22.637796,7.9635064,30.2110573972,3.35541,4.47388,0,52.8, 2.4, 0,0,0,1024,1024,1024,1024,0,0,0,0,0,0,0,92,,,,,,,19.008,102.2,1203.1899384365,22.309712,6,P-GPS,
10900,2024-04-10 20:52:36,39.0995550283357,-96.613967818443,22.309712,,,1203.1899384365,23.293964,5.2791784,31.0167988928,32.925197904,25,5,24.186,1203.5180224365,22.637796,7.9635064,31.0167988928,3.131716,4.250186,0,52.7, 5, -0.4,0,0,1024,1024,1024,1024,0,0,0,0,0,0,0,92,,,,,,,19.008,102.2,1203.1899384365,22.309712,6,P-GPS,
11000,2024-04-10 20:52:36,39.0995558991774,-96.6139657555923,22.309712,,,1203.1899384365,23.293964,5.2791784,31.6773632184,33.589896088,25,5,24.186,1203.5180224365,22.637796,7.9635064,31.6773632184,2.908022,4.026492,0,52.6, 11.8, -0.2,0,0,1024,1024,1024,1024,0,0,0,0,0,0,0,92,,,,,,,19.008,102.2,1203.1899384365,22.309712,6,P-GPS,
11100,2024-04-10 20:52:37,39.0995569476168,-96.613963933704,22.309712,,,1203.1899384365,23.293964,4.1607084,32.3193579896,34.23228456,25,5,24.186,1203.5180224365,22.637796,7.9635064,32.3193579896,2.460634,3.35541,0,52.7, 16, 0,0,0,1024,1024,1024,1024,0,0,0,0,0,0,0,92,,,,,,,19.008,102.2,1203.1899384365,22.309712,6,P-GPS,
11200,2024-04-10 20:52:37,39.0995578303018,-96.6139625708573,22.309712,,,1203.1899384365,23.293964,3.35541,32.820211024,34.734909248,25,5,24.186,1203.5180224365,22.637796,7.9635064,32.820211024,2.013246,2.684328,0,52.7, 16.9, -0.1,0,0,1024,1024,1024,1024,0,0,0,0,0,0,0,92,,,,,,,19.008,102.2,1203.1899384365,22.309712,6,P-GPS,
11300,2024-04-10 20:52:37,39.0995584712987,-96.6139614574617,22.309712,,,1203.1899384365,23.293964,2.4158952,33.212599488,35.127297712,25,5,24.192,1203.5180224365,22.637796,7.9635064,33.212599488,1.342164,2.013246,0,52.6, 14.5, -0.5,0,0,1024,1024,1024,1024,0,0,0,0,0,0,0,92,,,,,,,18.44,102.38,1203.1899384365,22.309712,6,P-GPS,
11400,2024-04-10 20:52:37,39.0995586990106,-96.6139605054234,22.309712,,,1203.1899384365,23.293964,2.4158952,33.4809722,35.409449952,25,5,24.192,1203.5180224365,22.637796,7.9635064,33.4809722,1.11847,1.342164,0,52.5, 9.7, -0.3,0,0,1024,1024,1024,1024,0,0,0,0,0,0,0,92,,,,,,,18.44,102.38,1203.1899384365,22.309712,6,P-GPS,
11500,2024-04-10 20:52:37,39.0995590151337,-96.6139599267891,22.309712,,,1203.1899384365,23.293964,1.11847,33.681431524,35.609909276,25,5,24.192,1203.5180224365,22.637796,7.9635064,33.681431524,0.671082,0.894776,0,52.6, 4.3, 0.1,0,0,1024,1024,1024,1024,0,0,0,0,0,0,0,92,,,,,,,18.44,102.38,1203.1899384365,22.309712,6,P-GPS,
11600,2024-04-10 20:52:37,39.0995590558634,-96.6139594370048,22.309712,,,1203.1899384365,23.293964,0.8052984,33.803478772,35.749344976,25,5,24.192,1203.5180224365,22.637796,7.9635064,33.803478772,0.447388,0.671082,0,52.6, 0, 0.5,0,0,1024,1024,1024,1024,0,0,0,0,0,0,0,92,,,,,,,18.44,102.38,1203.1899384365,22.309712,6,P-GPS,
11700,2024-04-10 20:52:37,39.0995591932624,-96.613959092213,22.309712,,,1203.1899384365,23.293964,0.4921268,33.91240266,35.858925032,25,5,24.192,1203.5180224365,22.637796,7.9635064,33.91240266,0.223694,0.447388,0,52.6, -2.7, 0.5,0,0,1025,1024,1024,1024,0,0,0,0,0,0,0,92,,,,,,,18.44,102.38,1203.1899384365,22.309712,6,P-GPS,
11800,2024-04-10 20:52:37,39.0995595359674,-96.6139588065772,22.309712,,,1203.1899384365,23.293964,0.4921268,34.05019794,36.007875168,25,5,24.192,1203.5180224365,22.637796,7.9635064,34.05019794,0.223694,0.447388,0,52.6, -3.7, 0.4,0,0,1115,1024,1024,1024,14,0,0,0,0,0,0,92,,,,,,,18.44,102.38,1203.1899384365,22.309712,6,P-GPS,
11900,2024-04-10 20:52:37,39.0995596434734,-96.6139585242641,22.309712,,,1203.1899384365,23.293964,0.223694,34.138124452,36.096785932,25,5,24.192,1203.5180224365,22.637796,7.9635064,34.138124452,0,0.223694,0,52.7, -3.5, 0.3,0,0,1179,1024,1024,1024,23,0,0,0,0,0,0,92,,,,,,,18.44,102.38,1203.1899384365,22.309712,6,P-GPS,
12000,2024-04-10 20:52:37,39.0995596576682,-96.6139582210879,22.309712,,,1203.1899384365,23.293964,0.223694,34.211615268,36.183072024,25,5,24.192,1203.5180224365,22.637796,7.9635064,34.211615268,0,0.223694,0,52.8, -3.5, 0.2,0,0,1291,1024,1024,1024,40,0,0,0,0,0,0,92,,,,,,,18.44,102.38,1203.1899384365,22.309712,6,P-GPS,
12100,2024-04-10 20:52:37,39.0995597261878,-96.6139579649474,22.309712,,,1203.1899384365,23.293964,0.223694,34.285434168,36.259515596,25,5,24.192,1203.5180224365,22.637796,7.9635064,34.285434168,0,0.223694,0,52.9, -4.6, 0.1,0,0,1309,1024,1024,1024,43,0,0,0,0,0,0,92,,,,,,,18.44,102.38,1203.1899384365,22.309712,6,P-GPS,
12200,2024-04-10 20:52:38,39.0995595660575,-96.6139578824115,22.309712,,,1203.1899384365,23.293964,0.223694,34.271326556,36.322507724,24,5,24.192,1203.5180224365,22.637796,7.9635064,34.285434168,0,0.223694,0,52.9, -7.1, 0,0,0,1313,1024,1024,1024,44,0,0,0,0,0,0,92,,,,,,,18.44,102.38,1203.1899384365,22.309712,6,P-GPS,
12300,2024-04-10 20:52:38,39.0995596332492,-96.6139575853729,22.309712,,,1203.1899384365,23.293964,0.223694,34.354331808,36.410106152,24,5,24.18,1203.5180224365,22.637796,7.9635064,34.354331808,0,0.223694,0,53, -10.3, 0,0,0,1318,1024,1024,1024,45,0,0,0,0,0,0,92,,,,,,,19.21,102.38,1203.1899384365,22.309712,6,P-GPS,
12400,2024-04-10 20:52:38,39.0995596884478,-96.6139573600081,22.309712,,,1203.1899384365,23.293964,0.4921268,34.418308188,36.477035288,24,5,24.18,1203.5180224365,22.637796,7.9635064,34.418308188,0.223694,0.447388,0,53, -12.9, -0.1,0,0,1321,1024,1024,1024,45,0,0,0,0,0,0,92,,,,,,,19.21,102.38,1203.1899384365,22.309712,6,P-GPS,
12500,2024-04-10 20:52:38,39.0995598767706,-96.6139568472525,22.309712,,,1203.1899384365,23.293964,1.006623,34.57677276,36.637796448,24,5,24.18,1203.5180224365,22.637796,7.9635064,34.57677276,0.447388,0.894776,0,53.1, -14.2, -0.2,0,0,1319,1024,1024,1024,45,0,0,0,0,0,0,92,,,,,,,19.21,102.38,1203.1899384365,22.309712,6,P-GPS,
12600,2024-04-10 20:52:38,39.0995599958243,-96.6139563220673,22.309712,,,1203.1899384365,23.293964,1.2974252,34.723754392,36.792652096,25,5,24.18,1203.5180224365,22.637796,7.9635064,34.723754392,0.671082,1.11847,0,53.1, -14.6, -0.3,0,0,1319,1024,1024,1024,45,0,0,0,0,0,0,92,,,,,,,19.21,102.38,1203.1899384365,22.309712,6,P-GPS,
12700,2024-04-10 20:52:38,39.0995603517646,-96.6139555142821,22.309712,,,1203.1899384365,23.293964,1.6105968,34.985893508,37.055775464,25,5,24.18,1203.5180224365,22.637796,7.9635064,34.985893508,0.894776,1.342164,0,53.1, -14.5, -0.6,0,0,1324,1024,1024,1024,45,0,0,0,0,0,0,92,,,,,,,19.21,102.38,1203.1899384365,22.309712,6,P-GPS,
12800,2024-04-10 20:52:38,39.099560622472,-96.6139547893307,22.309712,,,1203.1899384365,23.293964,2.1027236,35.210959132,37.28346576,25,5,24.18,1203.5180224365,22.637796,7.9635064,35.210959132,1.11847,1.789552,0,53.2, -14.2, -0.6,0,0,1326,1024,1024,1024,46,0,0,0,0,0,0,92,,,,,,,19.21,102.38,1203.1899384365,22.309712,6,P-GPS,
12900,2024-04-10 20:52:38,39.0995611520779,-96.6139536997732,22.309712,,,1203.1899384365,23.293964,2.1027236,35.574804288,37.647310916,25,5,24.18,1203.5180224365,22.637796,7.9635064,35.574804288,1.342164,2.013246,0,53.3, -14, -0.3,0,0,1324,1024,1024,1024,45,0,0,0,0,0,0,92,,,,,,,19.21,102.38,1203.1899384365,22.309712,6,P-GPS,
13000,2024-04-10 20:52:38,39.0995617927062,-96.6139525277019,22.309712,,,1203.1899384365,23.293964,2.7290668,35.980644196,38.053478908,25,5,24.18,1203.5180224365,22.637796,7.9635064,35.980644196,1.565858,2.23694,0,53.4, -13.8, 0,0,0,1324,1024,1024,1024,45,0,0,0,0,0,0,92,,,,,,,19.21,102.38,1203.1899384365,22.309712,6,P-GPS,
13100,2024-04-10 20:52:39,39.0995624871926,-96.6139511380481,22.309712,,,1203.1899384365,23.293964,3.2211936,36.44849198,38.521326692,25,5,24.18,1203.5180224365,22.637796,7.9635064,36.44849198,1.789552,2.684328,0,53.5, -13.7, 0,0,0,1295,1024,1024,1024,41,0,0,0,0,0,0,92,,,,,,,19.21,102.38,1203.1899384365,22.309712,6,P-GPS,
13200,2024-04-10 20:52:39,39.0995630144811,-96.6139496360761,22.309712,,,1203.1899384365,23.293964,3.4225182,36.908137664,38.988190224,25,5,24.18,1203.5180224365,22.637796,7.9635064,36.908137664,1.789552,2.908022,0,53.5, -13.8, -0.3,0,0,1272,1024,1024,1024,38,0,0,0,0,0,0,92,,,,,,,19.21,102.38,1203.1899384365,22.309712,6,P-GPS,
13300,2024-04-10 20:52:39,39.0995638362108,-96.6139479594729,22.637796,,,1203.5180224365,23.293964,3.7133204,37.469161304,39.549541948,25,5,24.132,1203.5180224365,22.637796,7.9635064,37.469161304,2.013246,3.131716,0,53.4, -13.8, -0.7,0,0,1245,1024,1024,1024,33,0,0,0,0,0,0,92,,,,,,,19.242,102.38,1203.5180224365,22.637796,6,P-GPS,
13400,2024-04-10 20:52:39,39.0995647264771,-96.6139462669299,22.637796,,,1203.5180224365,23.293964,4.026492,38.048229564,40.128610208,25,5,24.132,1203.5180224365,22.637796,7.9635064,38.048229564,2.23694,3.35541,0,53.4, -13.4, -1.1,0,0,1243,1024,1024,1024,33,0,0,0,0,0,0,92,,,,,,,19.242,102.38,1203.5180224365,22.637796,6,P-GPS,
13500,2024-04-10 20:52:39,39.099565709969,-96.6139443581069,22.637796,,,1203.5180224365,23.293964,4.026492,38.696851632,40.777232276,25,5,24.132,1203.5180224365,22.637796,7.9635064,38.696851632,2.460634,3.579104,0,53.3, -12.5, -1.1,0,0,1229,1024,1024,1024,31,0,0,0,0,0,0,92,,,,,,,19.242,102.38,1203.5180224365,22.637796,6,P-GPS,
13600,2024-04-10 20:52:39,39.0995669997795,-96.6139422849628,22.637796,,,1203.5180224365,23.293964,4.6528352,39.446851656,41.529528888,25,5,24.132,1203.5180224365,22.637796,7.9635064,39.446851656,2.684328,3.802798,0,53.2, -11.3, -0.7,0,0,1206,1024,1024,913,28,0,0,-17,0,0,0,92,,,,,,,19.242,102.38,1203.5180224365,22.637796,6,P-GPS,
13700,2024-04-10 20:52:39,39.0995681383774,-96.6139401966294,22.637796,,,1203.5180224365,23.293964,4.9660068,40.169620708,42.25229794,25,5,24.132,1203.5180224365,22.637796,7.9635064,40.169620708,2.908022,4.026492,0,53, -10.3, -0.4,0,0,1201,1024,1024,847,27,0,0,-27,0,0,0,92,,,,,,,19.242,102.38,1203.5180224365,22.637796,6,P-GPS,
13800,2024-04-10 20:52:39,39.0995692884032,-96.6139380290939,22.637796,,,1203.5180224365,23.293964,4.9660068,40.913059052,42.995736284,25,5,24.132,1203.5180224365,22.637796,7.9635064,40.913059052,2.908022,4.026492,0,52.7, -9.3, -0.8,0,0,1188,1024,1024,801,25,0,0,-34,0,0,0,92,,,,,,,19.242,102.38,1203.5180224365,22.637796,6,P-GPS,
13900,2024-04-10 20:52:39,39.09957050183,-96.6139358469322,22.637796,,,1203.5180224365,23.293964,4.9660068,41.672901596,43.755906912,25,5,24.132,1203.5180224365,22.637796,7.9635064,41.672901596,3.131716,4.250186,0,51.8, -8.5, -2.7,0,0,1188,1024,1024,754,25,0,0,-41,0,0,0,92,,,,,,,19.242,102.38,1203.5180224365,22.637796,6,P-GPS,
14000,2024-04-10 20:52:39,39.099571894195,-96.6139336586661,22.637796,,,1203.5180224365,23.293964,5.2791784,42.471129968,44.55708804,25,5,24.132,1203.5180224365,22.637796,7.9635064,42.471129968,3.131716,4.250186,0,50.2, -8.1, -5.2,0,0,1188,1024,1024,737,25,0,0,-43,0,0,0,92,,,,,,,19.242,102.38,1203.5180224365,22.637796,6,P-GPS,
14100,2024-04-10 20:52:40,39.0995732414485,-96.6139315221932,22.637796,,,1203.5180224365,23.293964,5.2344396,43.24803288,45.33628754,25,5,24.132,1203.5180224365,22.637796,7.9635064,43.24803288,3.35541,4.026492,0,48, -8, -7.5,0,0,1183,1024,1024,784,24,0,0,-36,0,0,0,92,,,,,,,19.242,102.38,1203.5180224365,22.637796,6,P-GPS,
14200,2024-04-10 20:52:40,39.0995749026406,-96.6139293457274,22.637796,,,1203.5180224365,23.293964,5.5476112,44.09941086,46.20078888,25,5,24.132,1203.5180224365,22.637796,7.9635064,44.09941086,3.802798,4.026492,0,45.4, -8, -8.6,0,0,1183,1024,1024,780,24,0,0,-37,0,0,0,92,,,,,,,19.242,102.38,1203.5180224365,22.637796,6,P-GPS,
14300,2024-04-10 20:52:40,39.0995764743892,-96.6139273853318,22.637796,,,1203.5180224365,23.293964,5.5476112,44.882547368,46.999017252,25,5,24.132,1203.5180224365,22.637796,7.9635064,44.882547368,4.026492,3.802798,0,42.8, -8.1, -7.8,0,0,1184,1024,1024,745,24,0,0,-42,0,0,0,92,,,,,,,19.362,102.38,1203.5180224365,22.637796,6,P-GPS,
14400,2024-04-10 20:52:40,39.0995783163185,-96.613925450579,22.637796,,,1203.5180224365,23.293964,5.5476112,45.717193064,47.86581518,25,5,24.132,1203.5180224365,22.637796,7.9635064,45.717193064,4.250186,3.579104,0,40.4, -7.8, -6.8,0,0,1185,1024,1024,740,24,0,0,-43,0,0,0,92,,,,,,,19.362,102.38,1203.5180224365,22.637796,6,P-GPS,
14500,2024-04-10 20:52:40,39.0995800882761,-96.6139236755774,22.637796,,,1203.5180224365,23.293964,5.59235,46.50098574,48.684712844,25,5,24.132,1203.5180224365,22.637796,7.9635064,46.50098574,4.47388,3.35541,0,37.9, -7.5, -6.7,0,0,1188,1024,1024,741,25,0,0,-43,0,0,0,92,,,,,,,19.362,102.38,1203.5180224365,22.637796,6,P-GPS,
14600,2024-04-10 20:52:40,39.0995820035008,-96.6139218939525,22.637796,,,1203.5180224365,23.293964,5.6370888,47.318242984,49.546589512,25,5,24.132,1203.5180224365,22.637796,7.9635064,47.318242984,4.697574,3.131716,0,35.3, -7.3, -6.9,0,0,1187,1024,1024,740,25,0,0,-43,0,0,0,92,,,,,,,19.362,102.38,1203.5180224365,22.637796,6,P-GPS,
14700,2024-04-10 20:52:40,39.099583938677,-96.6139203382223,22.637796,,,1203.5180224365,23.293964,5.7265664,48.089896552,50.37893862,25,5,24.132,1203.5180224365,22.637796,7.9635064,48.089896552,4.921268,2.908022,0,32.7, -7.1, -7.1,0,0,1201,1024,1024,851,27,0,0,-26,0,0,0,92,,,,,,,19.362,102.38,1203.5180224365,22.637796,6,P-GPS,
14800,2024-04-10 20:52:40,39.0995861459784,-96.6139187829667,22.637796,,,1203.5180224365,23.293964,5.7936746,48.922573744,51.296589568,25,5,24.132,1203.5180224365,22.637796,7.9635064,48.922573744,5.144962,2.684328,0,30.1, -7.1, -6.8,0,0,1205,1024,1024,985,27,0,0,-6,0,0,0,92,,,,,,,19.362,102.38,1203.5180224365,22.637796,6,P-GPS,
14900,2024-04-10 20:52:40,39.0995882520745,-96.6139174797784,22.637796,,,1203.5180224365,23.293964,5.704197,49.678807364,52.1489518,25,5,24.132,1203.5180224365,22.637796,7.9635064,49.678807364,5.144962,2.460634,0,27.8, -7.3, -4.6,0,0,1205,1024,1024,1015,27,0,0,-1,0,0,0,92,,,,,,,19.362,102.38,1203.5180224365,22.637796,6,P-GPS,
15000,2024-04-10 20:52:40,39.0995904177424,-96.6139161883353,22.637796,,,1203.5180224365,23.293964,5.816044,50.449148596,53.019686736,25,5,24.132,1203.5180224365,22.637796,7.9635064,50.449148596,5.368656,2.23694,0,26.6, -7.4, -0.7,0,0,1196,1024,1024,1013,26,0,0,-2,0,0,0,92,,,,,,,19.362,102.38,1203.5180224365,22.637796,6,P-GPS,
15100,2024-04-10 20:52:41,39.0995926122968,-96.6139149933477,22.637796,,,1203.5180224365,23.293964,5.816044,51.20735072,53.889109336,25,5,24.132,1203.5180224365,22.637796,7.9635064,51.20735072,5.368656,2.23694,0,26.3, -7.6, 2.3,0,0,1185,1024,1024,1024,24,0,0,0,0,0,0,92,,,,,,,19.362,102.38,1203.5180224365,22.637796,6,P-GPS,
15200,2024-04-10 20:52:41,39.099594765766,-96.6139135786803,22.637796,,,1203.5180224365,23.293964,5.816044,52.008531848,54.770999128,25,5,24.132,1203.5180224365,22.637796,7.9635064,52.008531848,5.368656,2.23694,0,26.3, -7.7, 3.4,0,0,1140,1024,1024,1024,18,0,0,0,0,0,0,92,,,,,,,19.362,102.38,1203.5180224365,22.637796,6,P-GPS,
15300,2024-04-10 20:52:41,39.099596975783,-96.6139122786712,22.637796,,,1203.5180224365,23.293964,6.1068462,52.799870456,55.657154012,25,5,24.108,1203.5180224365,22.637796,7.9635064,52.799870456,5.59235,2.460634,0,26.3, -7.4, 3.1,0,0,1139,1024,1024,1024,17,0,0,0,0,0,0,92,,,,,,,19.388,102.38,1203.5180224365,22.637796,6,P-GPS,
15400,2024-04-10 20:52:41,39.0995991410483,-96.613910777803,22.637796,,,1203.5180224365,23.293964,6.1068462,53.627954472,56.554135668,25,5,24.108,1203.5180224365,22.637796,7.9635064,53.627954472,5.59235,2.460634,0,26.3, -6.5, 2.5,0,0,1146,1024,1024,1024,18,0,0,0,0,0,0,92,,,,,,,19.388,102.38,1203.5180224365,22.637796,6,P-GPS,
15500,2024-04-10 20:52:41,39.0996013448118,-96.6139094010864,22.637796,,,1203.5180224365,23.293964,5.9055216,54.439962372,57.447836484,25,5,24.108,1203.5180224365,22.637796,7.9635064,54.439962372,5.368656,2.460634,0,26.3, -5.9, 2.2,0,0,1140,1024,1208,1024,18,0,28,0,0,0,0,92,,,,,,,19.388,102.38,1203.5180224365,22.637796,6,P-GPS,
15600,2024-04-10 20:52:41,39.0996038690414,-96.6139079156502,22.637796,,,1203.5180224365,23.293964,5.9055216,55.353348228,58.460303708,25,5,24.108,1203.5180224365,22.637796,7.9635064,55.353348228,5.368656,2.460634,0,26.3, -5.7, 1.9,0,0,1126,1024,1257,1024,15,0,35,0,0,0,0,92,,,,,,,19.388,102.38,1203.5180224365,22.637796,6,P-GPS,
15700,2024-04-10 20:52:41,39.0996060669882,-96.613906504195,22.637796,,,1203.5180224365,23.293964,5.9055216,56.177167152,59.356301112,25,5,24.108,1203.5180224365,22.637796,7.9635064,56.177167152,5.368656,2.460634,0,26.2, -5.6, 1.7,0,0,1103,1024,1170,1024,12,0,22,0,0,0,0,92,,,,,,,19.388,102.38,1203.5180224365,22.637796,6,P-GPS,
15800,2024-04-10 20:52:41,39.099608296674,-96.6139051150931,22.96588,,,1203.8461064365,23.293964,5.9055216,57.005579252,60.259844448,25,5,24.108,1203.8461064365,22.96588,7.9635064,57.005579252,5.368656,2.460634,-0.447388,26, -5.2, 1.4,0,0,1043,1024,1024,1024,3,0,0,0,0,0,0,92,,,,,,,19.388,102.38,1203.8461064365,22.96588,6,P-GPS,
15900,2024-04-10 20:52:41,39.0996104757401,-96.6139037002048,22.96588,,,1203.8461064365,23.293964,5.9055216,57.82972626,61.14993634,25,5,24.108,1203.8461064365,22.96588,7.9635064,57.82972626,5.368656,2.460634,-0.894776,26, -4.9, 1.3,0,0,1024,1024,1024,1024,0,0,0,0,0,0,0,92,,,,,,,19.388,102.38,1203.8461064365,22.96588,6,P-GPS,
16000,2024-04-10 20:52:41,39.0996125720361,-96.613902466273,22.96588,,,1203.8461064365,23.293964,5.9055216,58.59744282,61.990815632,25,5,24.108,1203.8461064365,22.96588,7.9635064,58.59744282,5.368656,2.460634,-0.671082,26.1, -4.4, 1.5,0,0,1024,1024,1024,1024,0,0,0,0,0,0,0,92,,,,,,,19.388,102.38,1203.8461064365,22.96588,6,P-GPS,
16100,2024-04-10 20:52:41,39.099614693038,-96.6139011037631,23.293964,,,1204.1741904365,23.293964,5.9055216,59.400264368,62.855645056,25,5,24.108,1204.1741904365,23.293964,7.9635064,59.400264368,5.144962,2.460634,-0.671082,26.1, 2.7, 1.6,0,0,1024,1024,1024,1024,0,0,0,0,0,0,0,92,,,,,,,19.388,102.38,1204.1741904365,23.293964,6,P-GPS,
16200,2024-04-10 20:52:42,39.0996168856478,-96.6138996988648,23.293964,,,1204.1741904365,23.293964,5.2120702,60.23130114,63.749017788,25,5,24.108,1204.1741904365,23.293964,7.9635064,60.23130114,4.697574,2.23694,-0.447388,26.4, 13, 2,0,0,1024,1024,1024,1024,0,0,0,0,0,0,0,92,,,,,,,19.388,102.38,1204.1741904365,23.293964,6,P-GPS,
16300,2024-04-10 20:52:42,39.0996186592504,-96.6138985436163,23.293964,,,1204.1741904365,23.293964,4.4962494,60.908466516,64.474083428,25,5,24.12,1204.1741904365,23.293964,7.9635064,60.908466516,4.026492,2.013246,-0.447388,26.9, 18.6, 2.6,0,0,1024,1024,1024,1024,0,0,0,0,0,0,0,91,,,,,,,18.598,102.38,1204.1741904365,23.293964,6,P-GPS,
16400,2024-04-10 20:52:42,39.0996200451392,-96.6138975442665,23.293964,,,1204.1741904365,23.293964,4.4962494,61.458663384,65.053479772,25,5,24.12,1204.1741904365,23.293964,7.9635064,61.458663384,3.131716,1.565858,-0.223694,27.4, 19, 3.1,0,0,1024,1024,1024,1024,0,0,0,0,0,0,0,91,,,,,,,18.598,102.38,1204.1741904365,23.293964,6,P-GPS,
16500,2024-04-10 20:52:42,39.099621147655,-96.6138967430049,23.293964,,,1204.1741904365,23.293964,2.796175,61.898295944,65.515422044,25,5,24.12,1204.1741904365,23.293964,7.9635064,61.898295944,2.460634,1.342164,0,27.7, 15.4, 3,0,0,1024,1024,1024,1024,0,0,0,0,0,0,0,91,,,,,,,18.598,102.38,1204.1741904365,23.293964,6,P-GPS,
16600,2024-04-10 20:52:42,39.0996217518799,-96.613896007898,23.293964,,,1204.1741904365,23.293964,2.1027236,62.200789392,65.81857166,25,5,24.12,1204.1741904365,23.293964,7.9635064,62.200789392,1.789552,1.11847,0,27.7, 9.9, 2.2,0,0,1024,1024,1024,1024,0,0,0,0,0,0,0,91,,,,,,,18.598,102.38,1204.1741904365,23.293964,6,P-GPS,
16700,2024-04-10 20:52:42,39.0996223624354,-96.6138954675457,23.622048,,,1204.5022744365,23.293964,2.1027236,62.464240844,66.088912876,25,5,24.12,1204.5022744365,23.622048,7.9635064,62.464240844,1.342164,0.894776,0,27.5, 4.7, 1,0,0,1024,1024,1024,1024,0,0,0,0,0,0,0,91,,,,,,,18.598,102.38,1204.5022744365,23.622048,6,P-GPS,
16800,2024-04-10 20:52:42,39.0996230751129,-96.6138946636901,23.622048,,,1204.5022744365,23.293964,1.2974252,62.807744792,66.434385328,25,5,24.12,1204.5022744365,23.622048,7.9635064,62.807744792,1.11847,0.671082,0,27, 0.7, 0.1,0,0,1024,1024,1024,1024,0,0,0,0,0,0,0,91,,,,,,,18.598,102.38,1204.5022744365,23.622048,6,P-GPS,
16900,2024-04-10 20:52:42,39.0996235023698,-96.6138942767969,23.622048,,,1204.5022744365,23.293964,1.2974252,62.994096504,66.625002132,25,5,24.12,1204.5022744365,23.622048,7.9635064,62.994096504,0.894776,0.447388,0,26.6, -1.6, -0.2,0,0,1024,1024,1024,1024,0,0,0,0,0,0,0,91,,,,,,,18.598,102.38,1204.5022744365,23.622048,6,P-GPS,
17000,2024-04-10 20:52:42,39.0996241103897,-96.6138939435626,23.293964,,,1204.1741904365,23.293964,0.8052984,63.214240868,66.865815788,25,5,24.12,1204.5022744365,23.622048,7.9635064,63.214240868,0.671082,0.447388,0,26.2, -2.4, -0.1,0,0,1024,1024,1024,1024,0,0,0,0,0,0,0,91,,,,,,,18.598,102.38,1204.1741904365,23.293964,6,P-GPS,
17100,2024-04-10 20:52:43,39.0996244953364,-96.6138936786242,23.293964,,,1204.1741904365,23.293964,0.7158208,63.364831424,67.025264612,25,5,24.12,1204.5022744365,23.622048,7.9635064,63.364831424,0.671082,0.223694,0,25.9, -2.2, 0.2,0,0,1024,1024,1024,1024,0,0,0,0,0,0,0,91,,,,,,,18.598,102.38,1204.1741904365,23.293964,6,P-GPS,
17200,2024-04-10 20:52:43,39.099624915603,-96.61389364999,23.293964,,,1204.1741904365,23.293964,0.4921268,63.475395732,67.178807924,25,5,24.12,1204.5022744365,23.622048,7.9635064,63.475395732,0.447388,0.223694,0,25.8, -1.8, 0.6,0,0,1024,1024,1024,1024,0,0,0,0,0,0,0,91,,,,,,,18.598,102.38,1204.1741904365,23.293964,6,P-GPS,
17300,2024-04-10 20:52:43,39.0996252604669,-96.6138934876889,23.293964,,,1204.1741904365,23.293964,0.447388,63.595146392,67.312666196,25,5,24.114,1204.5022744365,23.622048,7.9635064,63.595146392,0.447388,0,0,25.8, -1.3, 1,0,0,1024,1024,1027,1024,0,0,0,0,0,0,0,91,,,,,,,19.108,102.38,1204.1741904365,23.293964,6,P-GPS,
17400,2024-04-10 20:52:43,39.0996254650876,-96.6138933765409,23.293964,,,1204.1741904365,23.293964,0.447388,63.668965292,67.393702944,25,5,24.114,1204.5022744365,23.622048,7.9635064,63.668965292,0.447388,0,0,25.8, -0.8, 1.7,0,0,1024,1024,1024,1024,0,0,0,0,0,0,0,91,,,,,,,19.108,102.38,1204.1741904365,23.293964,6,P-GPS,
17500,2024-04-10 20:52:43,39.0996257342317,-96.6138932841475,23.293964,,,1204.1741904365,23.293964,0.223694,63.755251384,67.495408984,25,5,24.114,1204.5022744365,23.622048,7.9635064,63.755251384,0.223694,0,0,25.9, -0.7, 2.3,0,0,1024,1024,1024,1024,0,0,0,0,0,0,0,91,,,,,,,19.108,102.38,1204.1741904365,23.293964,6,P-GPS,
17600,2024-04-10 20:52:43,39.0996257760536,-96.6138931038203,23.293964,,,1204.1741904365,23.293964,0.223694,63.803151648,67.548558592,25,5,24.114,1204.5022744365,23.622048,7.9635064,63.803151648,0.223694,0,0,26, -1, 2.5,0,0,1024,1024,1024,1024,0,0,0,0,0,0,0,91,,,,,,,19.108,102.38,1204.1741904365,23.293964,6,P-GPS,
17700,2024-04-10 20:52:43,39.0996259407285,-96.6138930281946,23.293964,,,1204.1741904365,23.293964,0,63.85991018,67.612534972,25,5,24.114,1204.5022744365,23.622048,7.9635064,63.85991018,0,0,0,26, -1.6, 2.4,0,0,1024,1024,1024,1024,0,0,0,0,0,0,0,91,,,,,,,19.108,102.38,1204.1741904365,23.293964,6,P-GPS,
17800,2024-04-10 20:52:43,39.0996257789919,-96.6138929052463,23.293964,,,1204.1741904365,23.293964,0,63.844818316,67.680776444,25,5,24.114,1204.5022744365,23.622048,7.9635064,63.85991018,0,0,0,25.9, -2.2, 2.1,0,0,1024,1024,1024,1024,0,0,0,0,0,0,0,91,,,,,,,19.108,102.38,1204.1741904365,23.293964,6,P-GPS,
17900,2024-04-10 20:52:43,39.0996258591492,-96.613892844876,23.293964,,,1204.1741904365,23.293964,0,63.877298632,67.71489718,25,5,24.114,1204.5022744365,23.622048,7.9635064,63.877298632,0,0,0,25.9, -2.6, 1.8,0,0,1024,1024,1024,1024,0,0,0,0,0,0,0,91,,,,,,,19.108,102.38,1204.1741904365,23.293964,6,P-GPS,
18000,2024-04-10 20:52:43,39.0996258084438,-96.6138929041976,23.293964,,,1204.1741904365,23.293964,0,63.852364248,67.739831564,25,5,24.114,1204.5022744365,23.622048,7.9635064,63.877298632,0,0,0,25.8, -2.5, 1.7,0,0,1024,1024,1024,1024,0,0,0,0,0,0,0,91,,,,,,,19.108,102.38,1204.1741904365,23.293964,6,P-GPS,
18100,2024-04-10 20:52:44,39.0996258392063,-96.6138928689182,23.293964,,,1204.1741904365,23.293964,0,63.867456112,67.754923428,25,5,24.114,1204.5022744365,23.622048,7.9635064,63.877298632,0,0,0,25.9, -2.6, 1.6,0,0,1024,1024,1024,1024,0,0,0,0,0,0,0,91,,,,,,,19.108,102.38,1204.1741904365,23.293964,6,P-GPS,
18200,2024-04-10 20:52:44,39.099625700488,-96.6138928981595,23.293964,,,1204.1741904365,23.293964,0,63.826773696,67.806104532,25,5,24.114,1204.5022744365,23.622048,7.9635064,63.877298632,0,0,0,25.8, -2.7, 1.6,0,0,1024,1024,1024,1024,0,0,0,0,0,0,0,91,,,,,,,19.108,102.38,1204.1741904365,23.293964,6,P-GPS,
18300,2024-04-10 20:52:44,39.0996256791488,-96.6138928924967,23.293964,,,1204.1741904365,23.293964,0,63.822508604,67.813978548,25,5,24.144,1204.5022744365,23.622048,7.9635064,63.877298632,0,0,0,25.9, -3, 1.6,0,0,1024,1024,1024,1024,0,0,0,0,0,0,0,91,,,,,,,18.894,102.38,1204.1741904365,23.293964,6,P-GPS,
18400,2024-04-10 20:52:44,39.0996255222266,-96.6138928748901,23.622048,,,1204.5022744365,23.293964,0,63.787075532,67.871393248,25,5,24.144,1204.5022744365,23.622048,7.9635064,63.877298632,0,0,0,26, -3.2, 1.5,0,0,1024,1024,1024,1024,0,0,0,0,0,0,0,91,,,,,,,18.894,102.38,1204.5022744365,23.622048,6,P-GPS,
18500,2024-04-10 20:52:44,39.0996254623036,-96.6138928835112,23.622048,,,1204.5022744365,23.293964,0,63.770343248,67.893374876,25,5,24.144,1204.5022744365,23.622048,7.9635064,63.877298632,0,0,0,26.1, -3.6, 1.4,0,0,1024,1024,1024,1024,0,0,0,0,0,0,0,91,,,,,,,18.894,102.38,1204.5022744365,23.622048,6,P-GPS,
18600,2024-04-10 20:52:44,39.0996254279088,-96.6138929583421,23.622048,,,1204.5022744365,23.293964,0,63.746393116,67.917981176,25,5,24.144,1204.5022744365,23.622048,7.9635064,63.877298632,0,0,0,26.1, -3.9, 1.3,0,0,1024,1024,1024,1024,0,0,0,0,0,0,0,91,,,,,,,18.894,102.38,1204.5022744365,23.622048,6,P-GPS,
18700,2024-04-10 20:52:44,39.0996253629487,-96.61389298372,23.622048,,,1204.5022744365,23.293964,0,63.724739572,67.94291556,25,5,24.144,1204.5022744365,23.622048,7.9635064,63.877298632,0,0,0,26.1, -4.1, 1.2,0,0,1024,1024,1024,1024,0,0,0,0,0,0,0,91,,,,,,,18.894,102.38,1204.5022744365,23.622048,6,P-GPS,
