time(millisecond),datetime(utc),latitude,longitude,height_above_takeoff(feet),height_above_ground_at_drone_location(feet),ground_elevation_at_drone_location(feet),altitude_above_seaLevel(feet),height_sonar(feet),speed(mph),distance(feet),mileage(feet),satellites,gpslevel,voltage(v),max_altitude(feet),max_ascent(feet),max_speed(mph),max_distance(feet), xSpeed(mph), ySpeed(mph), zSpeed(mph), compass_heading(degrees), pitch(degrees), roll(degrees),isPhoto,isVideo,rc_elevator,rc_aileron,rc_throttle,rc_rudder,rc_elevator(percent),rc_aileron(percent),rc_throttle(percent),rc_rudder(percent),gimbal_heading(degrees),gimbal_pitch(degrees),gimbal_roll(degrees),battery_percent,voltageCell1,voltageCell2,voltageCell3,voltageCell4,voltageCell5,voltageCell6,current(A),battery_temperature(f),altitude(feet),ascent(feet),flycStateRaw,flycState,message
0,2024-04-08 18:28:10,39.1016857166637,-96.5962244142984,0,Available with any HD 360 subscription,Available with any HD 360 subscription,1112.3829794939,0.656168,0,0,0,17,5,0,1112.3829794939,0,0,0,0,0,0,256.4, -1.8, 1.5,0,0,364,364,364,1637,-100,-100,-100,93,0,0,0,100,,,,,,,0,93.74,1112.3829794939,0,41,Motors_Started,"GEO: You are in a Warning Zone (Airport). Fly with caution."
100,2024-04-08 18:28:10,39.1016855561421,-96.5962244347916,0,,,1112.3829794939,0.656168,0,0.058853020256,0.058853020256,17,5,0,1112.3829794939,0,0,0.058853020256,0,0,0,256.4, -1.8, 1.5,0,0,364,364,364,1640,-100,-100,-100,93,0,0,0,100,,,,,,,0,93.74,1112.3829794939,0,41,Motors_Started,
200,2024-04-08 18:28:10,39.1016855403882,-96.5962244274996,0,,,1112.3829794939,0.656168,0,0.06442257424,0.064960303916,17,5,0,1112.3829794939,0,0,0.06442257424,0,0,0,256.4, -1.8, 1.5,0,0,364,364,364,1642,-100,-100,-100,94,0,0,0,100,,,,,,,0,93.74,1112.3829794939,0,41,Motors_Started,
300,2024-04-08 18:28:11,39.1016855671737,-96.5962244433206,0,,,1112.3829794939,0.656168,0,0.055156825912,0.075710632344,17,5,0,1112.3829794939,0,0,0.06442257424,0,0,0,256.4, -1.8, 1.5,0,0,364,364,364,1641,-100,-100,-100,93,0,0,0,100,,,,,,,0,93.74,1112.3829794939,0,41,Motors_Started,"Setting new Return-To-Home altitude to 61m (200 ft). Data Recorder File Index is 34. Setting new Maximum Flight Altitude to 61m (200 ft)"
400,2024-04-08 18:28:11,39.1016855536728,-96.596224437196,0,,,1112.3829794939,0.656168,0,0.05981955572,0.080932745372,17,5,0,1112.3829794939,0,0,0.06442257424,0,0,0,256.4, -1.8, 1.5,0,0,364,364,364,1640,-100,-100,-100,93,0,0,0,100,,,,,,,0,93.74,1112.3829794939,0,41,Motors_Started,
500,2024-04-08 18:28:11,39.101685742532,-96.5962244494404,0,,,1112.3829794939,0.656168,0,0.0137141080504,0.149925201648,17,5,0,1112.3829794939,0,0,0.06442257424,0,0,0,256.4, -1.8, 1.5,0,0,1039,1024,1024,1024,2,0,0,0,0,0,0,100,,,,,,,0,93.74,1112.3829794939,0,41,Motors_Started,
600,2024-04-08 18:28:11,39.1016857462654,-96.5962244448681,0,,,1112.3829794939,0.656168,0,0.0138404860072,0.151804138716,17,5,0,1112.3829794939,0,0,0.06442257424,0,0,0,256.4, -1.8, 1.5,0,0,1024,1024,1024,1024,0,0,0,0,0,0,0,100,,,,,,,0,93.74,1112.3829794939,0,41,Motors_Started,
700,2024-04-08 18:28:11,39.1016857422193,-96.5962244545073,0,,,1112.3829794939,0.656168,0,0.01471538761,0.154907157188,17,5,0,1112.3829794939,0,0,0.06442257424,0,0,0,256.3, -1.9, 1.5,0,0,1024,1024,1024,1024,0,0,0,0,0,0,0,100,,,,,,,0,93.74,1112.3829794939,0,41,Motors_Started,
800,2024-04-08 18:28:11,39.1016857462414,-96.5962244514653,0,,,1112.3829794939,0.656168,0,0.0150729007448,0.156608600812,17,5,0,1112.3829794939,0,0,0.06442257424,0,0,0,256.4, -1.9, 1.5,0,0,1024,1024,1024,1024,0,0,0,0,0,0,0,100,,,,,,,0,93.74,1112.3829794939,0,41,Motors_Started,
900,2024-04-08 18:28:11,39.1016857413638,-96.5962242922311,0,,,1112.3829794939,0.656168,0,0.03571686466,0.201728352912,17,5,0,1112.3829794939,0,0,0.06442257424,0,0,0,256.4, -1.8, 1.5,0,0,1024,1024,1024,1024,0,0,0,0,0,0,0,100,,,,,,,0,93.74,1112.3829794939,0,41,Motors_Started,
1000,2024-04-08 18:28:11,39.1016857442298,-96.5962242752193,0,,,1112.3829794939,0.656168,0,0.040642061668,0.206657158844,17,5,25.152,1112.3829794939,0,0,0.06442257424,0,0,0,256.4, -1.8, 1.5,0,0,1024,1024,1024,1024,0,0,0,0,0,0,0,100,,,,,,,0.646,93.74,1112.3829794939,0,41,Motors_Started,
1100,2024-04-08 18:28:11,39.1016857364508,-96.5962243005628,0,,,1112.3829794939,0.656168,0,0.033001641476,0.21437336644,17,5,25.152,1112.3829794939,0,0,0.06442257424,0,0,0,256.2, -1.8, 1.5,0,0,1024,1024,1024,1024,0,0,0,0,0,0,0,100,,,,,,,0.646,93.74,1112.3829794939,0,41,Motors_Started,
1200,2024-04-08 18:28:11,39.1016857393597,-96.5962242892085,0,,,1112.3829794939,0.656168,0,0.036372376492,0.217758865236,17,5,25.152,1112.3829794939,0,0,0.06442257424,0,0,0,256.1, -1.9, 1.5,0,0,1024,1024,1024,1024,0,0,0,0,0,0,0,100,,,,,,,0.646,93.74,1112.3829794939,0,41,Motors_Started,
1300,2024-04-08 18:28:12,39.1016857291617,-96.5962243074794,0,,,1112.3829794939,0.656168,0,0.0305858277504,0.224131240768,17,5,25.152,1112.3829794939,0,0,0.06442257424,0,0,0,256, -1.8, 1.5,0,0,1024,1024,1024,1024,0,0,0,0,0,0,0,100,,,,,,,0.646,93.74,1112.3829794939,0,41,Motors_Started,
1400,2024-04-08 18:28:12,39.1016857293561,-96.5962242970255,0,,,1112.3829794939,0.656168,0,0.03352526354,0.227091870784,17,5,25.152,1112.3829794939,0,0,0.06442257424,0,0,0,256.1, -1.8, 1.5,0,0,1024,1024,1024,1024,0,0,0,0,0,0,0,100,,,,,,,0.646,93.74,1112.3829794939,0,41,Motors_Started,
1500,2024-04-08 18:28:12,39.1016857048819,-96.5962242920855,0,,,1112.3829794939,0.656168,0,0.034868439436,0.2361302569,17,5,25.152,1112.3829794939,0,0,0.06442257424,0,0,0,256, -1.8, 1.5,0,0,1024,1024,1024,1024,0,0,0,0,0,0,0,100,,,,,,,0.646,93.74,1112.3829794939,0,41,Motors_Started,
1600,2024-04-08 18:28:12,39.1016857026541,-96.5962242825506,0,,,1112.3829794939,0.656168,0,0.037650591756,0.238949482712,17,5,25.152,1112.3829794939,0,0,0.06442257424,0,0,0,256, -1.8, 1.5,0,0,1024,1024,1024,1024,0,0,0,0,0,0,0,100,,,,,,,0.646,93.74,1112.3829794939,0,41,Motors_Started,
1700,2024-04-08 18:28:12,39.1016857083102,-96.5962243241525,0,,,1112.3829794939,0.656168,0,0.0257046268068,0.250907816428,17,5,25.152,1112.3829794939,0,0,0.06442257424,0,0,0,256.1, -1.8, 1.5,0,0,1024,1024,1024,1024,0,0,0,0,0,0,0,100,,,,,,,0.646,93.74,1112.3829794939,0,41,Motors_Started,
1800,2024-04-08 18:28:12,39.1016857041763,-96.5962243176539,0,,,1112.3829794939,0.656168,0,0.0277399615176,0.253287081596,17,5,25.152,1112.3829794939,0,0,0.06442257424,0,0,0,256, -1.9, 1.4,0,0,1024,1024,1024,1024,0,0,0,0,0,0,0,100,,,,,,,0.646,93.74,1112.3829794939,0,41,Motors_Started,
1900,2024-04-08 18:28:12,39.1016855352193,-96.5962243185536,0,,,1112.3829794939,0.656168,0,0.071535107276,0.314931440524,17,5,25.152,1112.3829794939,0,0,0.071535107276,0,0,0,256.1, -1.9, 1.5,0,0,1024,1024,1024,1024,0,0,0,0,0,0,0,100,,,,,,,0.646,93.74,1112.3829794939,0,41,Motors_Started,
2000,2024-04-08 18:28:12,39.1016855176509,-96.5962243145209,0,,,1112.3829794939,0.656168,0,0.0779117479,0.32144193942,17,5,25.152,1112.3829794939,0,0,0.0779117479,0,0,0,256.1, -1.9, 1.5,0,0,1024,1024,1024,1024,0,0,0,0,0,0,0,100,,,,,,,2.75,93.74,1112.3829794939,0,10,Assisted_Takeoff,
2100,2024-04-08 18:28:12,39.1016857073454,-96.5962241629167,0,,,1112.3829794939,0.656168,0,0.071255579708,0.40288059032,17,5,25.152,1112.3829794939,0,0,0.0779117479,0,0,0,256.1, -1.9, 1.5,0,0,1024,1024,1024,1024,0,0,0,0,0,0,0,100,,,,,,,2.75,93.74,1112.3829794939,0,10,Assisted_Takeoff,
2200,2024-04-08 18:28:12,39.1016857057616,-96.5962241474063,0,,,1112.3829794939,0.656168,0,0.075670606096,0.40731300516,17,5,25.152,1112.3829794939,0,0,0.0779117479,0,0,0,256.1, -1.9, 1.5,0,0,1024,1024,1024,1024,0,0,0,0,0,0,0,100,,,,,,,2.75,93.74,1112.3829794939,0,10,Assisted_Takeoff,
2300,2024-04-08 18:28:13,39.1016857139625,-96.5962241910089,0,,,1112.3829794939,0.656168,0,0.06322834848,0.4200131368,17,5,25.152,1112.3829794939,0,0,0.0779117479,0,0,0,256.1, -1.9, 1.5,0,0,1024,1024,1024,1024,0,0,0,0,0,0,0,100,,,,,,,2.75,93.74,1112.3829794939,0,10,Assisted_Takeoff,
2400,2024-04-08 18:28:13,39.1016857135053,-96.5962241791765,0,,,1112.3829794939,0.656168,0,0.066580710792,0.42336943612,17,5,25.152,1112.3829794939,0,0,0.0779117479,0,0,0,256.1, -1.9, 1.5,0,0,1024,1024,1024,1024,0,0,0,0,0,0,0,100,,,,,,,2.75,93.74,1112.3829794939,0,10,Assisted_Takeoff,
2500,2024-04-08 18:28:13,39.1016857152014,-96.5962242130035,0,,,1112.3829794939,0.656168,0,0.056995736732,0.43296589312,17,5,25.152,1112.3829794939,0,0,0.0779117479,0,0,0,256.1, -1.9, 1.5,0,0,1024,1024,1024,1024,0,0,0,0,0,0,0,100,,,,,,,2.75,93.74,1112.3829794939,0,10,Assisted_Takeoff,
2600,2024-04-08 18:28:13,39.1016857164431,-96.5962242075744,0,,,1112.3829794939,0.656168,0,0.058530513684,0.43457022388,17,5,25.152,1112.3829794939,0,0,0.0779117479,0,0,0,256.1, -1.9, 1.5,0,0,1024,1024,1024,1024,0,0,0,0,0,0,0,100,,,,,,,2.75,93.74,1112.3829794939,0,10,Assisted_Takeoff,
2700,2024-04-08 18:28:13,39.1016857196652,-96.5962242306693,0,,,1112.3829794939,0.656168,0,0.05200295442,0.44121392488,17,5,25.152,1112.3829794939,0,0,0.0779117479,0,0,0,256.1, -1.9, 1.5,0,0,1024,1024,1024,1024,0,0,0,0,0,0,0,100,,,,,,,2.75,93.74,1112.3829794939,0,10,Assisted_Takeoff,
2800,2024-04-08 18:28:13,39.1016857209662,-96.5962242434359,0,,,1112.3829794939,0.656168,0,0.04840223252,0.44485893812,17,5,25.152,1112.3829794939,0,0,0.0779117479,0,0,0,256.1, -1.9, 1.5,0,0,1024,1024,1024,1024,0,0,0,0,0,0,0,100,,,,,,,2.75,93.74,1112.3829794939,0,10,Assisted_Takeoff,
2900,2024-04-08 18:28:13,39.1016857232374,-96.5962242443404,0,,,1112.3829794939,0.656168,0,0.048180447736,0.44572507988,17,5,25.152,1112.3829794939,0,0,0.0779117479,0,0,0,256.1, -1.9, 1.5,0,0,1024,1024,1024,1024,0,0,0,0,0,0,0,100,,,,,,,2.75,93.74,1112.3829794939,0,10,Assisted_Takeoff,
3000,2024-04-08 18:28:13,39.1016857261361,-96.5962242448455,0,,,1112.3829794939,0.656168,0,0.04810203566,0.44679135288,17,5,24.942,1112.3829794939,0,0,0.0779117479,0,0,0,256.1, -1.9, 1.5,0,0,1024,1024,1024,1024,0,0,0,0,0,0,0,100,,,,,,,4.392,93.74,1112.3829794939,0,10,Assisted_Takeoff,
3100,2024-04-08 18:28:13,39.1016857227577,-96.5962242580309,0,,,1112.3829794939,0.656168,0,0.044300198268,0.45072508004,17,5,24.942,1112.3829794939,0,0,0.0779117479,0,0,0,256.1, -1.9, 1.5,0,0,1024,1024,1024,1024,0,0,0,0,0,0,0,100,,,,,,,4.392,93.74,1112.3829794939,0,10,Assisted_Takeoff,
3200,2024-04-08 18:28:13,39.1016857245936,-96.5962242611032,0,,,1112.3829794939,0.656168,0,0.04347113,0.4518208806,17,5,24.942,1112.3829794939,0,0,0.0779117479,0,0,0,256.2, -1.9, 1.5,0,0,1024,1024,1024,1024,0,0,0,0,0,0,0,100,,,,,,,4.392,93.74,1112.3829794939,0,10,Assisted_Takeoff,
3300,2024-04-08 18:28:13,39.1016857208554,-96.5962241028377,0,,,1112.3829794939,0.656168,0,0.088198165552,0.4966535592,17,5,24.942,1112.3829794939,0,0,0.088198165552,0,0,0,256.2, -1.9, 1.5,0,0,1024,1024,1024,1024,0,0,0,0,0,0,0,100,,,,,,,4.392,93.74,1112.3829794939,0,10,Assisted_Takeoff,
3400,2024-04-08 18:28:14,39.1016857233472,-96.5962240938533,0,,,1112.3829794939,0.656168,0,0.090761485844,0.49935369052,17,5,24.942,1112.3829794939,0,0,0.090761485844,0,0,0,256.1, -1.9, 1.5,0,0,1024,1024,1024,1024,0,0,0,0,0,0,0,100,,,,,,,4.392,93.74,1112.3829794939,0,10,Assisted_Takeoff,
3500,2024-04-08 18:28:14,39.1016857188717,-96.5962241226906,0,,,1112.3829794939,0.656168,0,0.082567916028,0.50768046244,17,5,24.942,1112.3829794939,0,0,0.090761485844,0,0,0,256.1, -1.9, 1.5,0,0,1024,1024,1024,1024,0,0,0,0,0,0,0,100,,,,,,,4.392,93.74,1112.3829794939,0,10,Assisted_Takeoff,
3600,2024-04-08 18:28:14,39.1016857208431,-96.5962241174333,0,,,1112.3829794939,0.656168,0,0.084066275656,0.5093340058,17,5,24.942,1112.3829794939,0,0,0.090761485844,0,0,0,256.1, -1.9, 1.5,0,0,1024,1024,1024,1024,0,0,0,0,0,0,0,100,,,,,,,4.392,93.74,1112.3829794939,0,10,Assisted_Takeoff,
3700,2024-04-08 18:28:14,39.1016857215321,-96.5962241361409,0,,,1112.3829794939,0.656168,0,0.078775593072,0.51463584324,17,5,24.942,1112.3829794939,0,0,0.090761485844,0,0,0,256.1, -1.9, 1.5,0,0,1024,1024,1024,1024,0,0,0,0,0,0,0,100,,,,,,,4.392,93.74,1112.3829794939,0,10,Assisted_Takeoff,
3800,2024-04-08 18:28:14,39.1016857226763,-96.5962241342657,0,,,1112.3829794939,0.656168,0,0.079316931672,0.51531169628,17,5,24.942,1112.3829794939,0,0,0.090761485844,0,0,0,256.2, -1.9, 1.5,0,0,1024,1024,1024,1024,0,0,0,0,0,0,0,100,,,,,,,4.392,93.74,1112.3829794939,0,10,Assisted_Takeoff,
3900,2024-04-08 18:28:14,39.1016857202611,-96.5962241443719,0,,,1112.3829794939,0.656168,0,0.076436354152,0.5183071032,17,5,24.942,1112.3829794939,0,0,0.090761485844,0,0,0,256.2, -1.9, 1.5,0,0,1024,1024,1024,1024,0,0,0,0,0,0,0,100,,,,,,,4.392,93.74,1112.3829794939,0,10,Assisted_Takeoff,
4000,2024-04-08 18:28:14,39.1016857235592,-96.596224144385,0,,,1112.3829794939,0.656168,0,0.076462928956,0.51950789064,17,5,25.032,1112.3829794939,0,0,0.090761485844,0,0,0,256.2, -1.9, 1.5,0,0,1024,1024,1044,1024,0,0,3,0,0,0,0,100,,,,,,,2.344,93.74,1112.3829794939,0,10,Assisted_Takeoff,
4100,2024-04-08 18:28:14,39.1016857207124,-96.5962241514382,0,,,1112.3829794939,0.656168,0,0.07443897876,0.52176182772,17,5,25.032,1112.3829794939,0,0,0.090761485844,0,0,0,256.2, -1.9, 1.5,0,0,1024,1024,1102,1024,0,0,12,0,0,0,0,100,,,,,,,2.344,93.74,1112.3829794939,0,10,Assisted_Takeoff,
4200,2024-04-08 18:28:14,39.1016857221447,-96.5962241526815,0,,,1112.3829794939,0.656168,0,0.07409941182,0.522391749,17,5,25.032,1112.3829794939,0,0,0.090761485844,0,0,0,256.2, -1.9, 1.5,0,0,1024,1024,1107,1024,0,0,13,0,0,0,0,100,,,,,,,2.344,93.74,1112.3829794939,0,10,Assisted_Takeoff,
4300,2024-04-08 18:28:15,39.1016857242306,-96.596224160306,0,,,1112.3829794939,0.656168,0,0.071966537736,0.52467849448,17,5,25.032,1112.3829794939,0,0,0.090761485844,0,0,0,256.2, -1.9, 1.5,0,0,1024,1024,1102,1024,0,0,12,0,0,0,0,100,,,,,,,2.344,93.74,1112.3829794939,0,10,Assisted_Takeoff,
4400,2024-04-08 18:28:15,39.101685726346,-96.5962241633487,0,,,1112.3829794939,0.656168,0,0.07114009414,0.525836631,17,5,25.032,1112.3829794939,0,0,0.090761485844,0,0,0,256.2, -1.8, 1.5,0,0,1024,1024,1105,1024,0,0,12,0,0,0,0,100,,,,,,,2.344,93.74,1112.3829794939,0,10,Assisted_Takeoff,
4500,2024-04-08 18:28:15,39.1016857182297,-96.5962241610946,0,,,1112.3829794939,0.656168,0,0.071692587596,0.52886484632,17,5,25.032,1112.3829794939,0,0,0.090761485844,0,0,0,256.2, -1.8, 1.5,0,0,1024,1024,1136,1024,0,0,17,0,0,0,0,100,,,,,,,2.344,93.74,1112.3829794939,0,10,Assisted_Takeoff,
4600,2024-04-08 18:28:15,39.1016857195602,-96.5962241655433,0,,,1112.3829794939,0.656168,0,0.070438650548,0.5302165524,17,5,25.032,1112.3829794939,0,0,0.090761485844,0,0,0,256.1, -1.9, 1.5,0,0,1024,1024,1166,1024,0,0,22,0,0,0,0,100,,,,,,,2.344,93.74,1112.3829794939,0,10,Assisted_Takeoff,
4700,2024-04-08 18:28:15,39.1016857193043,-96.596224000691,0,,,1112.3829794939,0.656168,0,0.117109911884,0.57688978224,17,5,25.032,1112.3829794939,0,0,0.117109911884,0,0,0,256.2, -1.8, 1.5,0,0,1024,1024,1175,1024,0,0,23,0,0,0,0,100,,,,,,,2.344,93.74,1112.3829794939,0,10,Assisted_Takeoff,
4800,2024-04-08 18:28:15,39.1016857214829,-96.5962239911471,0,,,1112.3829794939,0.656168,0,0.11982119806,0.5797080238,17,5,25.032,1112.3829794939,0,0,0.11982119806,0,0,0,256.1, -1.9, 1.5,0,0,1024,1024,1193,1024,0,0,26,0,0,0,0,100,,,,,,,2.344,93.74,1112.3829794939,0,10,Assisted_Takeoff,
4900,2024-04-08 18:28:15,39.1016857142677,-96.5962240131575,0,,,1112.3829794939,0.656168,0,0.113579728044,0.58647311588,17,5,25.032,1112.3829794939,0,0,0.11982119806,0,0,0,256.1, -1.9, 1.4,0,0,1024,1024,1232,1024,0,0,32,0,0,0,0,100,,,,,,,2.344,93.74,1112.3829794939,0,10,Assisted_Takeoff,
5000,2024-04-08 18:28:15,39.1016857113454,-96.596224008855,0,,,1112.3829794939,0.656168,0,0.114811027296,0.58809057,17,5,25.074,1112.3829794939,0,0,0.11982119806,0,0,0,256, -2, 1.4,0,0,1024,1024,1272,1024,0,0,38,0,0,0,0,100,,,,,,,2.976,93.74,1112.3829794939,0,10,Assisted_Takeoff,
5100,2024-04-08 18:28:15,39.1016857043406,-96.5962240251058,0,,,1112.3829794939,0.656168,0,0.110285108516,0.59335303736,17,5,25.074,1112.3829794939,0,0,0.11982119806,0,0,0,256, -2, 1.3,0,0,1024,1024,1273,1032,0,0,38,1,0,0,0,100,,,,,,,2.976,93.74,1112.3829794939,0,10,Assisted_Takeoff,
5200,2024-04-08 18:28:15,39.1016857041034,-96.5962240208703,0,,,1112.3829794939,0.656168,0,0.111486880208,0.59455710564,17,5,25.074,1112.3829794939,0,0,0.11982119806,0,0,0,255.9, -2, 1.4,0,0,1024,1024,1280,1041,0,0,39,3,0,0,0,100,,,,,,,2.976,93.74,1112.3829794939,0,10,Assisted_Takeoff,
5300,2024-04-08 18:28:16,39.1016857022204,-96.596224038483,0,,,1112.3829794939,0.656168,0,0.106536092648,0.5995899142,17,5,25.074,1112.3829794939,0,0,0.11982119806,0,0,0,255.6, -1.9, 1.4,0,0,1024,1024,1299,1052,0,0,42,4,0,0,0,100,,,,,,,2.976,93.74,1112.3829794939,0,10,Assisted_Takeoff,
5400,2024-04-08 18:28:16,39.101685564185,-96.5962240568326,0,,,1112.3829794939,0.656168,0,0.11549212968,0.65021983708,17,5,25.074,1112.3829794939,0,0,0.11982119806,0,0,-0.223694,255, -1.7, 1.5,0,0,1024,1024,1314,1060,0,0,44,5,0,0,0,100,,,,,,,2.976,93.74,1112.3829794939,0,10,Assisted_Takeoff,
5500,2024-04-08 18:28:16,39.1016855590397,-96.5962240913985,0,,,1112.3829794939,0.656168,0,0.108007221304,0.66018374816,17,5,25.074,1112.3829794939,0,0,0.11982119806,0,0,-0.671082,254.2, -1.4, 1.4,0,0,1024,1024,1318,1061,0,0,45,6,0,0,0,100,,,,,,,2.976,93.74,1112.3829794939,0,6,P-GPS,
5600,2024-04-08 18:28:16,39.1016855567476,-96.596224140393,0,,,1112.3829794939,0.984252,0,0.097048559536,0.6740813864,17,5,25.074,1112.3829794939,0,0,0.11982119806,0,0,-1.11847,253.4, -0.5, 0.9,0,0,1024,1024,1316,1068,0,0,44,7,0,0,0,100,,,,,,,2.976,93.74,1112.3829794939,0,6,P-GPS,
5700,2024-04-08 18:28:16,39.1016855870064,-96.5962243268853,0.328084,,,1112.7110634939,0.984252,0,0.053388453152,0.72802495768,17,5,25.074,1112.7110634939,0.328084,0,0.11982119806,0,0,-1.565858,252.8, 0.7, 0.5,0,0,1024,1024,1315,1123,0,0,44,15,0,0,0,100,,,,,,,2.976,93.74,1112.7110634939,0.328084,6,P-GPS,
5800,2024-04-08 18:28:16,39.1016855966973,-96.5962243638039,0.656168,,,1113.0391474939,1.312336,0,0.046045277064,0.73906170344,17,5,25.074,1113.0391474939,0.656168,0,0.11982119806,0,0,-2.013246,252.5, 1.5, 0.3,0,0,1024,1024,1304,1212,0,0,42,28,0,0,0,100,,,,,,,2.976,93.74,1113.0391474939,0.656168,6,P-GPS,
5900,2024-04-08 18:28:16,39.1016857223636,-96.5962242635752,0.984252,,,1113.3672314939,1.64042,0,0.042725395068,0.79298230884,17,5,25.074,1113.3672314939,0.984252,0,0.11982119806,0,0,-2.23694,252.4, 1.7, 0.2,0,0,1024,1024,1301,1274,0,0,42,38,0,0,0,100,,,,,,,2.976,93.74,1113.3672314939,0.984252,6,P-GPS,
6000,2024-04-08 18:28:16,39.1016857427938,-96.5962241601832,1.312336,,,1113.6953154939,1.968504,0.223694,0.072577430144,0.82318900272,17,5,25.098,1113.6953154939,1.312336,0.223694,0.11982119806,0,0.223694,-2.684328,252.7, 0.4, 0.1,0,0,1024,1024,1301,1309,0,0,42,43,0,0,0,100,,,,,,,11.96,93.74,1113.6953154939,1.312336,6,P-GPS,
6100,2024-04-08 18:28:16,39.1016858075181,-96.5962241073609,1.64042,,,1114.0233994939,2.296588,0.223694,0.093011485916,0.85114175952,17,5,25.098,1114.0233994939,1.64042,0.223694,0.11982119806,0,0.223694,-2.908022,253.7, -1.8, 0.1,0,0,1024,1024,1295,1331,0,0,41,47,0,0,0,100,,,,,,,11.96,93.74,1114.0233994939,1.64042,6,P-GPS,
6200,2024-04-08 18:28:16,39.1016858029446,-96.5962239470041,1.968504,,,1114.3514834939,2.624672,0.223694,0.136000004352,0.89657483184,17,5,25.098,1114.3514834939,1.968504,0.223694,0.136000004352,0,0.223694,-3.131716,255.4, -3.4, 0.1,0,0,1024,1024,1300,1339,0,0,42,48,0,0,0,100,,,,,,,11.96,93.74,1114.3514834939,1.968504,6,P-GPS,
6300,2024-04-08 18:28:16,39.1016856618151,-96.5962237783019,2.624672,,,1115.0076514939,3.28084,0.223694,0.181180451992,0.96680777372,17,5,25.098,1115.0076514939,2.624672,0.223694,0.181180451992,0,0.223694,-3.131716,257.8, -3.7, 0.5,0,0,1024,1024,1299,1370,0,0,42,52,0,0,0,100,,,,,,,11.96,93.74,1115.0076514939,2.624672,6,P-GPS,
6400,2024-04-08 18:28:17,39.1016855975235,-96.5962236895662,2.952756,,,1115.3357354939,3.937008,0,0.209749350544,1.0011811344,17,5,25.098,1115.3357354939,2.952756,0.223694,0.209749350544,0,0,-3.35541,260.5, -2.8, 1.5,0,0,1024,1024,1305,1404,0,0,43,58,0,0,0,100,,,,,,,11.96,93.74,1115.3357354939,2.952756,6,P-GPS,"Home Point recorded. Return-to-Home Altitude:200.1 ft"
6500,2024-04-08 18:28:17,39.1016855219802,-96.5962235353838,3.608924,,,1115.9919034939,4.265092,0,0.258788722192,1.05280843264,17,5,25.098,1115.9919034939,3.608924,0.223694,0.258788722192,0,0,-3.35541,263.7, -2, 1.9,0,0,1024,1024,1305,1406,0,0,43,58,0,0,0,100,,,,,,,11.96,93.74,1115.9919034939,3.608924,6,P-GPS,
6600,2024-04-08 18:28:17,39.1016854902651,-96.5962234345866,3.937008,,,1116.3199874939,4.593176,0.223694,0.289426518448,1.08360239688,17,5,25.098,1116.3199874939,3.937008,0.223694,0.289426518448,0,0.223694,-3.35541,267.3, -2.4, 1.8,0,0,1024,1024,1307,1418,0,0,43,60,0,0,0,100,,,,,,,11.96,93.74,1116.3199874939,3.937008,6,P-GPS,
6700,2024-04-08 18:28:17,39.101685391779,-96.5962234602847,4.593176,,,1116.9761554939,5.249344,0.223694,0.29497704356,1.12026578388,17,5,25.098,1116.9761554939,4.593176,0.223694,0.29497704356,0,0.223694,-3.35541,271.1, -3.5, 1.1,0,0,1024,1024,1307,1426,0,0,43,61,0,0,0,100,,,,,,,11.96,93.74,1116.9761554939,4.593176,6,P-GPS,
6800,2024-04-08 18:28:17,39.1016853888556,-96.596223354491,4.92126,,,1117.3042394939,5.905512,0.223694,0.323023632384,1.15023953812,17,5,25.098,1117.3042394939,4.92126,0.223694,0.323023632384,0,0.223694,-3.35541,274.9, -4.3, 0,0,0,1024,1024,1307,1423,0,0,43,60,0,0,0,100,,,,,,,11.96,93.74,1117.3042394939,4.92126,6,P-GPS,
6900,2024-04-08 18:28:17,39.1016854485438,-96.5962229400378,5.577428,,,1117.9604074939,6.233596,0.223694,0.42872048616,1.2695866548,17,5,25.098,1117.9604074939,5.577428,0.223694,0.42872048616,0,0.223694,-3.35541,278.9, -4.6, -0.7,0,0,1024,1024,1312,1419,0,0,44,60,0,0,0,100,,,,,,,11.96,93.74,1117.9604074939,5.577428,6,P-GPS,
7000,2024-04-08 18:28:17,39.1016854342558,-96.5962228616794,5.905512,,,1118.2884914939,6.889764,0.223694,0.45151248164,1.29237865028,17,5,25.098,1118.2884914939,5.905512,0.223694,0.45151248164,0,0,-3.35541,282.9, -4.4, -0.8,0,0,1024,1024,1311,1430,0,0,43,62,0,0,0,100,,,,,,,25.644,93.74,1118.2884914939,5.905512,6,P-GPS,
7100,2024-04-08 18:28:17,39.1016853865742,-96.5962228699504,6.56168,,,1118.9446594939,7.217848,0,0.45354004076,1.30993114428,17,5,25.098,1118.9446594939,6.56168,0.223694,0.45354004076,0,0,-3.35541,286.8, -3.9, -0.3,0,0,1047,1024,1308,1443,3,0,43,63,0,0,0,100,,,,,,,25.644,93.74,1118.9446594939,6.56168,6,P-GPS,
7200,2024-04-08 18:28:17,39.1016853710318,-96.5962228294938,6.889764,,,1119.2727434939,7.874016,0,0.4660925346,1.32271329692,17,5,25.098,1119.2727434939,6.889764,0.223694,0.4660925346,0,0,-3.35541,291, -3.3, 0,0,0,1140,1024,1305,1446,18,0,43,64,0,0,0,100,,,,,,,25.644,93.74,1119.2727434939,6.889764,6,P-GPS,
7300,2024-04-08 18:28:18,39.1016852062291,-96.5962231692613,7.545932,,,1119.9289114939,8.2021,0,0.39868111512,1.43615818244,17,5,25.098,1119.9289114939,7.545932,0.223694,0.4660925346,0,0,-3.35541,295.3, -2.9, -0.4,0,0,1177,1024,1309,1478,23,0,43,69,0,0,0,100,,,,,,,25.644,93.74,1119.9289114939,7.545932,6,P-GPS,
7400,2024-04-08 18:28:18,39.1016851989266,-96.5962231416211,8.2021,,,1120.5850794939,8.858268,0,0.40684712588,1.4444226184,17,5,25.098,1120.5850794939,8.2021,0.223694,0.4660925346,0,0,-3.35541,299.8, -3, -1,0,0,1191,1024,1311,1493,25,0,43,71,0,0,0,100,,,,,,,25.644,93.74,1120.5850794939,8.2021,6,P-GPS,
7500,2024-04-08 18:28:18,39.1016852066194,-96.5962233183735,8.530184,,,1120.9131634939,9.186352,0,0.36181759688,1.49454729192,17,5,25.098,1120.9131634939,8.530184,0.223694,0.4660925346,0,0,-3.35541,304.6, -4.2, -1.5,0,0,1204,1024,1319,1498,27,0,45,72,0,0,0,100,,,,,,,25.644,93.74,1120.9131634939,8.530184,6,P-GPS,
7600,2024-04-08 18:28:18,39.1016851988634,-96.596223304988,9.186352,,,1121.5693314939,9.514436,0,0.36652232144,1.4992782632,17,5,25.098,1121.5693314939,9.186352,0.223694,0.4660925346,0,0,-3.35541,309.7, -5.8, -1.9,0,0,1217,1024,1322,1494,29,0,45,71,0,0,0,100,,,,,,,25.644,93.74,1121.5693314939,9.186352,6,P-GPS,
7700,2024-04-08 18:28:18,39.101685337438,-96.5962230889395,9.514436,,,1121.8974154939,10.170604,0,0.39994751936,1.57863850196,17,5,25.098,1121.8974154939,9.514436,0.223694,0.4660925346,0,0,-3.35541,314.7, -7.1, -1.8,0,0,1203,1024,1339,1538,27,0,48,78,0,0,0,100,,,,,,,25.644,93.74,1121.8974154939,9.514436,6,P-GPS,
7800,2024-04-08 18:28:18,39.1016854103299,-96.5962231446761,10.170604,,,1122.5535834939,10.498688,0.223694,0.37644686244,1.60956041896,17,5,25.098,1122.5535834939,10.170604,0.223694,0.4660925346,0.223694,0,-3.35541,319.7, -7.6, -1.3,0,0,1203,1024,1339,1538,27,0,48,78,0,0,0,100,,,,,,,25.644,93.74,1122.5535834939,10.170604,6,P-GPS,
7900,2024-04-08 18:28:18,39.101685560579,-96.5962232888545,10.498688,,,1122.8816674939,10.826772,0.447388,0.32369915734,1.67791015868,17,5,25.098,1122.8816674939,10.498688,0.447388,0.4660925346,0.447388,0,-3.35541,324.8, -7.6, -0.4,0,0,1223,1024,1342,1520,30,0,48,75,0,0,0,100,,,,,,,25.644,93.74,1122.8816674939,10.498688,6,P-GPS,
8000,2024-04-08 18:28:18,39.1016857906339,-96.5962234077218,11.154856,,,1123.5378354939,11.48294,0.671082,0.286270350368,1.7683399516,17,5,24.102,1123.5378354939,11.154856,0.671082,0.4660925346,0.671082,0,-3.35541,330.1, -6.8, 0.3,0,0,1252,1024,1343,1522,35,0,48,75,0,0,0,100,,,,,,,22.984,93.74,1123.5378354939,11.154856,6,P-GPS,
8100,2024-04-08 18:28:18,39.101686086147,-96.5962235139294,11.48294,,,1123.8659194939,11.811024,0.894776,0.288373040724,1.88027236988,17,5,24.102,1123.8659194939,11.48294,0.894776,0.4660925346,0.894776,0,-3.579104,335.5, -5.8, 0.8,0,0,1274,1024,1347,1499,38,0,49,72,0,0,0,100,,,,,,,22.984,93.74,1123.8659194939,11.48294,6,P-GPS,
8200,2024-04-08 18:28:18,39.1016864910563,-96.5962235774845,12.139108,,,1124.5220874939,12.467192,1.11847,0.36873032676,2.02909783396,17,5,24.102,1124.5220874939,12.139108,1.11847,0.4660925346,1.11847,0,-3.579104,341, -4.9, 0.9,0,0,1292,1024,1354,1502,41,0,50,72,0,0,0,100,,,,,,,22.984,93.74,1124.5220874939,12.139108,6,P-GPS,
8300,2024-04-08 18:28:18,39.1016872451863,-96.5962235736615,12.795276,,,1125.1782554939,12.795276,1.11847,0.6063484446,2.30424219972,17,5,24.102,1125.1782554939,12.795276,1.11847,0.6063484446,1.11847,0,-3.579104,346.3, -4.4, 0.7,0,0,1293,1024,1361,1480,41,0,51,69,0,0,0,100,,,,,,,22.984,93.74,1125.1782554939,12.795276,6,P-GPS,
8400,2024-04-08 18:28:19,39.1016878170496,-96.5962235182347,13.12336,,,1125.5063394939,13.451444,1.3645334,0.80723099696,2.51347448988,17,5,24.102,1125.5063394939,13.12336,1.3645334,0.80723099696,1.342164,0.223694,-3.802798,351.5, -4.2, 0.6,0,0,1304,1024,1376,1353,42,0,53,50,0,0,0,100,,,,,,,22.984,93.74,1125.5063394939,13.12336,6,P-GPS,
8500,2024-04-08 18:28:19,39.1016883693217,-96.5962230766641,13.779528,,,1126.1625074939,14.107612,1.5882274,1.03928481016,2.7506070434,17,5,24.102,1126.1625074939,13.779528,1.5882274,1.03928481016,1.565858,0.223694,-3.802798,356.4, -4.3, 0.5,0,0,1327,1024,1358,1285,46,0,51,40,0,0,0,100,,,,,,,22.984,93.74,1126.1625074939,13.779528,6,P-GPS,
8600,2024-04-08 18:28:19,39.1016890717819,-96.5962228571487,14.435696,,,1126.8186754939,14.435696,1.8342908,1.30108599964,3.01432752428,17,5,24.102,1126.8186754939,14.435696,1.8342908,1.30108599964,1.789552,0.447388,-4.026492,0.6, -4.8, 0.3,0,0,1403,1024,1323,1256,57,0,45,35,0,0,0,100,,,,,,,22.984,93.74,1126.8186754939,14.435696,6,P-GPS,
8700,2024-04-08 18:28:19,39.1016898266781,-96.5962225154362,15.091864,,,1127.4748434939,15.091864,1.8342908,1.59300201948,3.30626651,17,5,24.102,1127.4748434939,15.091864,1.8342908,1.59300201948,1.789552,0.447388,-4.026492,4, -5.6, 0,0,0,1413,1024,1319,1190,59,0,45,25,0,0,0,100,,,,,,,22.984,93.74,1127.4748434939,15.091864,6,P-GPS,
8800,2024-04-08 18:28:19,39.1016906916982,-96.5962221467576,15.748032,,,1128.1310114939,15.748032,2.125093,1.92533470728,3.6386812188,17,5,24.102,1128.1310114939,15.748032,2.125093,1.92533470728,2.013246,0.671082,-4.026492,6.5, -6.9, -0.7,0,0,1420,1024,1324,1175,60,0,45,23,0,0,0,100,,,,,,,22.984,93.74,1128.1310114939,15.748032,6,P-GPS,
8900,2024-04-08 18:28:19,39.1016918698231,-96.5962216738852,16.076116,,,1128.4590954939,16.4042,2.5501116,2.3752789474,4.0888780836,17,5,24.102,1128.4590954939,16.076116,2.5501116,2.3752789474,2.460634,0.671082,-3.802798,8.4, -9, -1.6,0,0,1416,1024,1339,1123,59,0,48,15,0,0,0,100,,,,,,,22.984,93.74,1128.4590954939,16.076116,6,P-GPS,
9000,2024-04-08 18:28:19,39.1016929798887,-96.5962211980006,16.732284,,,1129.1152634939,16.732284,2.8185444,2.802083423,4.5157153676,17,5,24.15,1129.1152634939,16.732284,2.8185444,2.802083423,2.684328,0.894776,-3.802798,9.9, -11.7, -2.2,0,0,1413,1024,1342,1079,59,0,48,8,0,0,0,100,,,,,,,23.124,93.74,1129.1152634939,16.732284,6,P-GPS,
9100,2024-04-08 18:28:19,39.1016942676567,-96.5962207403358,17.388452,,,1129.7714314939,17.388452,3.2659324,3.2886812076,5.0030841496,17,5,24.15,1129.7714314939,17.388452,3.2659324,3.2886812076,3.131716,0.894776,-3.802798,11, -13.6, -2.2,0,0,1420,1024,1368,1024,60,0,52,0,0,0,0,100,,,,,,,23.124,93.74,1129.7714314939,17.388452,6,P-GPS,
9200,2024-04-08 18:28:19,39.1016957741988,-96.5962201608446,18.04462,,,1130.4275994939,17.716536,3.9593838,3.862040806,5.5767062152,17,5,24.15,1130.4275994939,18.04462,3.9593838,3.862040806,3.802798,1.11847,-3.802798,11.7, -14.1, -2.2,0,0,1417,1024,1384,1024,60,0,55,0,0,0,0,100,,,,,,,23.124,93.74,1130.4275994939,18.04462,6,P-GPS,
9300,2024-04-08 18:28:19,39.1016972641098,-96.5962193134961,18.372704,,,1130.7556834939,18.372704,4.3844024,4.4537403,6.1708991476,17,5,24.15,1130.7556834939,18.372704,4.3844024,4.4537403,4.250186,1.11847,-3.802798,12.1, -13.5, -2.6,0,0,1408,1024,1391,1024,58,0,56,0,0,0,0,100,,,,,,,23.124,93.74,1130.7556834939,18.372704,6,P-GPS,
9400,2024-04-08 18:28:20,39.1016991952208,-96.5962185815906,19.028872,,,1131.4118514939,19.028872,5.1002232,5.1875329744,6.9053151816,17,5,24.15,1131.4118514939,19.028872,5.1002232,5.1875329744,4.921268,1.342164,-4.026492,12.1, -12.5, -2.9,0,0,1410,1024,1385,1024,58,0,55,0,0,0,0,100,,,,,,,23.124,93.74,1131.4118514939,19.028872,6,P-GPS,
9500,2024-04-08 18:28:20,39.1017015368844,-96.5962177106738,19.68504,,,1132.0680194939,19.356956,5.5252418,6.0760500632,7.7945212468,17,5,24.15,1132.0680194939,19.68504,5.5252418,6.0760500632,5.368656,1.342164,-4.026492,12.1, -11.4, -3.1,0,0,1400,1024,1389,1024,57,0,55,0,0,0,0,100,,,,,,,23.124,93.74,1132.0680194939,19.68504,6,P-GPS,
9600,2024-04-08 18:28:20,39.1017038762474,-96.5962168800893,20.341208,,,1132.7241874939,20.013124,6.0173686,6.960466102,8.6798559208,17,5,24.15,1132.7241874939,20.341208,6.0173686,6.960466102,5.816044,1.565858,-4.250186,12, -10.7, -3.3,0,0,1425,1024,1386,1024,61,0,55,0,0,0,0,100,,,,,,,23.124,93.74,1132.7241874939,20.341208,6,P-GPS,
9700,2024-04-08 18:28:20,39.1017061529442,-96.5962159034506,20.997376,,,1133.3803554939,20.669292,6.0173686,7.8358926392,9.5553152664,17,5,24.15,1133.3803554939,20.997376,6.0173686,7.8358926392,6.263432,1.565858,-4.250186,12, -10.8, -3.4,0,0,1420,1024,1390,1024,60,0,55,0,0,0,0,100,,,,,,,23.124,93.74,1133.3803554939,20.997376,6,P-GPS,
9800,2024-04-08 18:28:20,39.1017088098277,-96.5962150040696,21.653544,,,1134.0365234939,21.32546,6.6660812,8.8367456896,10.557579078,17,5,24.15,1134.0365234939,21.653544,6.6660812,8.8367456896,6.487126,1.565858,-4.47388,11.9, -11.2, -3.4,0,0,1430,1024,1382,1024,62,0,54,0,0,0,0,100,,,,,,,23.124,93.74,1134.0365234939,21.653544,6,P-GPS,
9900,2024-04-08 18:28:20,39.1017117220188,-96.5962141335405,22.309712,,,1134.6926914939,22.309712,7.1134692,9.9245081916,11.648294336,17,5,24.15,1134.6926914939,22.309712,7.1134692,9.9245081916,6.934514,1.565858,-4.47388,12, -11.6, -3.3,0,0,1444,1024,1383,1024,64,0,54,0,0,0,0,100,,,,,,,23.124,93.74,1134.6926914939,22.309712,6,P-GPS,
10000,2024-04-08 18:28:20,39.1017147349817,-96.5962131798532,22.96588,,,1135.3488594939,22.96588,7.605596,11.0548231884,12.7802497528,17,5,24.162,1135.3488594939,22.96588,7.605596,11.0548231884,7.381902,1.789552,-4.47388,11.9, -11.9, -3,0,0,1447,1024,1385,1024,64,0,55,0,0,0,0,100,,,,,,,23.872,93.74,1135.3488594939,22.96588,6,P-GPS,
10100,2024-04-08 18:28:20,39.1017178017619,-96.5962122220525,23.622048,,,1136.0050274939,23.622048,8.0306146,12.2045935664,13.9315621256,17,5,24.162,1136.0050274939,23.622048,8.0306146,12.2045935664,7.82929,1.789552,-4.47388,12, -12.1, -2.9,0,0,1443,1024,1398,1024,63,0,57,0,0,0,0,100,,,,,,,23.872,93.74,1136.0050274939,23.622048,6,P-GPS,
10200,2024-04-08 18:28:20,39.1017211544473,-96.596211195029,24.278216,,,1136.6611954939,24.278216,8.4780026,13.460302268,15.1888784388,17,5,24.162,1136.6611954939,24.278216,8.4780026,13.460302268,8.276678,1.789552,-4.47388,12, -12.2, -2.8,0,0,1457,1024,1373,1024,66,0,53,0,0,0,0,100,,,,,,,23.872,93.74,1136.6611954939,24.278216,6,P-GPS,
10300,2024-04-08 18:28:21,39.1017248518988,-96.5962100452627,24.934384,,,1137.3173634939,24.934384,8.9030212,14.8467524436,16.576608142,17,5,24.162,1137.3173634939,24.934384,8.9030212,14.8467524436,8.724066,1.789552,-4.697574,12, -12.2, -2.8,0,0,1474,1024,1362,1024,68,0,51,0,0,0,0,100,,,,,,,23.872,93.74,1137.3173634939,24.934384,6,P-GPS,
10400,2024-04-08 18:28:21,39.1017285704712,-96.5962089331712,25.590552,,,1137.9735314939,25.590552,9.395148,16.2379598372,17.9693903388,17,5,24.162,1137.9735314939,25.590552,9.395148,16.2379598372,9.171454,2.013246,-4.697574,11.9, -12.2, -2.8,0,0,1457,1024,1375,1024,66,0,53,0,0,0,0,100,,,,,,,23.872,93.74,1137.9735314939,25.590552,6,P-GPS,
10500,2024-04-08 18:28:21,39.1017321374752,-96.596208063234,26.24672,,,1138.6296994939,26.24672,9.8201666,17.5579401944,19.2938982552,17,5,24.162,1138.6296994939,26.24672,9.8201666,17.5579401944,9.618842,2.013246,-4.47388,12, -12.6, -2.7,0,0,1462,1024,1370,1024,66,0,52,0,0,0,0,100,,,,,,,23.872,93.74,1138.6296994939,26.24672,6,P-GPS,
10600,2024-04-08 18:28:21,39.1017361530229,-96.5962069037079,26.902888,,,1139.2858674939,26.574804,10.2675546,19.0578418172,20.7953090644,17,5,24.162,1139.2858674939,26.902888,10.2675546,19.0578418172,10.06623,2.013246,-4.47388,11.9, -13, -2.6,0,0,1439,1024,1366,1024,63,0,52,0,0,0,0,100,,,,,,,23.872,93.74,1139.2858674939,26.902888,6,P-GPS,
10700,2024-04-08 18:28:21,39.101740339992,-96.5962055854271,27.559056,,,1139.9420354939,26.574804,10.7596814,20.6299875368,22.3678484848,17,5,24.162,1139.9420354939,27.559056,10.7596814,20.6299875368,10.513618,2.23694,-4.47388,12, -13.1, -2.5,0,0,1434,1024,1361,1024,62,0,51,0,0,0,0,100,,,,,,,23.872,93.74,1139.9420354939,27.559056,6,P-GPS,
10800,2024-04-08 18:28:21,39.1017446985111,-96.596204336347,28.215224,,,1140.5982034939,26.574804,11.1847,22.2576778776,23.9969167784,17,5,24.162,1140.5982034939,28.215224,11.1847,22.2576778776,10.961006,2.23694,-4.47388,12, -12.8, -2.5,0,0,1441,1024,1344,1024,63,0,48,0,0,0,0,100,,,,,,,23.872,93.74,1140.5982034939,28.215224,6,P-GPS,
10900,2024-04-08 18:28:21,39.1017492107574,-96.5962032270483,28.871392,,,1141.2543714939,26.574804,11.408394,23.9298892172,25.672901084,17,5,24.162,1141.2543714939,28.871392,11.408394,23.9298892172,11.1847,2.23694,-4.250186,12, -12.4, -2.4,0,0,1414,1024,1353,1024,59,0,50,0,0,0,0,100,,,,,,,23.872,93.74,1141.2543714939,28.871392,6,P-GPS,
11000,2024-04-08 18:28:21,39.1017538656542,-96.5962019201377,29.52756,,,1141.9105394939,26.574804,11.855782,25.66683153,27.411090116,17,5,24.126,1141.9105394939,29.52756,11.855782,25.66683153,11.632088,2.23694,-4.250186,12.1, -11.9, -2.3,0,0,1456,1024,1350,1024,65,0,49,0,0,0,0,100,,,,,,,25.02,93.74,1141.9105394939,29.52756,6,P-GPS,
11100,2024-04-08 18:28:21,39.1017590628196,-96.5962003517295,30.183728,,,1142.5667074939,26.574804,12.1018454,27.6139444532,29.3585639316,17,5,24.126,1142.5667074939,30.183728,12.1018454,27.6139444532,11.855782,2.460634,-4.250186,12.1, -11.5, -2.1,0,0,1467,1024,1346,1024,67,0,49,0,0,0,0,100,,,,,,,25.02,93.74,1142.5667074939,30.183728,6,P-GPS,
11200,2024-04-08 18:28:21,39.1017640003406,-96.5961989513406,30.839896,,,1143.2228754939,26.574804,12.5492334,29.4575796828,31.2031177964,17,5,24.126,1143.2228754939,30.839896,12.5492334,29.4575796828,12.30317,2.460634,-4.026492,11.9, -11.7, -2,0,0,1473,1024,1344,1024,68,0,48,0,0,0,0,100,,,,,,,25.02,93.74,1143.2228754939,30.839896,6,P-GPS,
11300,2024-04-08 18:28:22,39.1017685815906,-96.5961977736139,31.496064,,,1143.8790434939,26.574804,12.7729274,31.159941942,32.907481368,17,5,24.126,1143.8790434939,31.496064,12.7729274,31.159941942,12.526864,2.460634,-4.026492,11.8, -12.2, -2.2,0,0,1453,1024,1344,1024,65,0,48,0,0,0,0,100,,,,,,,25.02,93.74,1143.8790434939,31.496064,6,P-GPS,
11400,2024-04-08 18:28:22,39.1017737241998,-96.5961963142242,32.152232,,,1144.5352114939,26.574804,13.2426848,33.080381636,34.828741272,17,5,24.126,1144.5352114939,32.152232,13.2426848,33.080381636,12.974252,2.684328,-3.802798,11.7, -12.6, -2.6,0,0,1445,1024,1330,1024,64,0,46,0,0,0,0,100,,,,,,,25.02,93.74,1144.5352114939,32.152232,6,P-GPS,
11500,2024-04-08 18:28:22,39.1017790033687,-96.596194671507,32.8084,,,1145.1913794939,26.574804,13.4663788,35.062008996,36.810368632,17,5,24.126,1145.1913794939,32.8084,13.4663788,35.062008996,13.197946,2.684328,-3.802798,11.8, -12.7, -2.8,0,0,1435,1024,1347,1024,62,0,49,0,0,0,0,100,,,,,,,25.02,93.74,1145.1913794939,32.8084,6,P-GPS,
11600,2024-04-08 18:28:22,39.1017844151824,-96.5961931467885,33.136484,,,1145.5194634939,26.574804,13.9137668,37.082350268,38.831366072,17,5,24.126,1145.5194634939,33.136484,13.9137668,37.082350268,13.645334,2.684328,-3.802798,11.8, -12.4, -2.5,0,0,1436,1024,1345,1024,62,0,49,0,0,0,0,100,,,,,,,25.02,93.74,1145.5194634939,33.136484,6,P-GPS,
11700,2024-04-08 18:28:22,39.101789917245,-96.5961917591109,33.792652,,,1146.1756314939,26.574804,14.1374608,39.12565742,40.876969812,17,5,24.126,1146.1756314939,33.792652,14.1374608,39.12565742,13.869028,2.684328,-3.802798,11.9, -12, -2,0,0,1449,1024,1341,994,64,0,48,-5,0,0,0,100,,,,,,,25.02,93.74,1146.1756314939,33.792652,6,P-GPS,
11800,2024-04-08 18:28:22,39.1017955708417,-96.5961901728306,34.44882,,,1146.8317994939,26.574804,14.1374608,41.236221792,42.987862268,17,5,24.126,1146.8317994939,34.44882,14.1374608,41.236221792,14.092722,2.908022,-3.802798,11.9, -11.4, -1.7,0,0,1452,1024,1360,931,65,0,51,-14,0,0,0,100,,,,,,,25.02,93.74,1146.8317994939,34.44882,6,P-GPS,
11900,2024-04-08 18:28:22,39.1018017336785,-96.596188471648,35.104988,,,1147.4879674939,26.574804,14.6072182,43.534778296,45.287403024,17,5,24.126,1147.4879674939,35.104988,14.6072182,43.534778296,14.316416,2.908022,-3.802798,12, -11, -1.9,0,0,1456,1024,1362,927,65,0,51,-15,0,0,0,100,,,,,,,25.02,93.74,1147.4879674939,35.104988,6,P-GPS,
12000,2024-04-08 18:28:22,39.1018076207744,-96.596186785749,35.433072,,,1147.8160514939,26.574804,14.875651,45.7349096,47.487862412,17,5,24.27,1147.8160514939,35.433072,14.875651,45.7349096,14.54011,3.131716,-3.802798,11.9, -11.1, -4.1,0,0,1461,1024,1356,925,66,0,50,-15,0,0,0,100,,,,,,,23.912,93.74,1147.8160514939,35.433072,6,P-GPS,
12100,2024-04-08 18:28:22,39.1018130623399,-96.5961851077925,36.08924,,,1148.4722194939,26.574804,15.2559308,47.776248248,49.52920106,17,5,24.27,1148.4722194939,36.08924,15.2559308,47.776248248,14.987498,2.908022,-3.802798,11.5, -11.4, -6.6,0,0,1455,1024,1359,908,65,0,51,-18,0,0,0,100,,,,,,,23.912,93.74,1148.4722194939,36.08924,6,P-GPS,
12200,2024-04-08 18:28:22,39.1018191187284,-96.5961834849482,36.745408,,,1149.1283874939,26.574804,15.4796248,50.032153832,51.786090896,17,5,24.27,1149.1283874939,36.745408,15.4796248,50.032153832,15.211192,2.908022,-3.802798,11, -11.8, -8.4,0,0,1459,1024,1363,925,66,0,51,-15,0,0,0,100,,,,,,,23.912,93.74,1149.1283874939,36.745408,6,P-GPS,
12300,2024-04-08 18:28:23,39.101825333273,-96.5961819251036,37.401576,,,1149.7845554939,26.574804,15.65858,52.340224772,54.09613034,17,5,24.27,1149.7845554939,37.401576,15.65858,52.340224772,15.434886,2.684328,-3.802798,10.4, -12.1, -8.9,0,0,1473,1024,1354,895,68,0,50,-20,0,0,0,100,,,,,,,23.912,93.74,1149.7845554939,37.401576,6,P-GPS,
12400,2024-04-08 18:28:23,39.1018316449027,-96.5961805091358,37.72966,,,1150.1126394939,26.574804,16.0612292,54.673886264,56.433400756,17,5,24.27,1150.1126394939,37.72966,16.0612292,54.673886264,15.882274,2.460634,-4.026492,9.6, -12.1, -8.6,0,0,1479,1024,1347,863,69,0,49,-24,0,0,0,100,,,,,,,23.912,93.74,1150.1126394939,37.72966,6,P-GPS,
12500,2024-04-08 18:28:23,39.1018378347499,-96.596179319418,38.385828,,,1150.7688074939,26.574804,16.2625538,56.949804972,58.716865396,17,5,24.27,1150.7688074939,38.385828,16.2625538,56.949804972,16.105968,2.23694,-4.026492,8.9, -11.8, -8.8,0,0,1481,1024,1340,796,69,0,48,-35,0,0,0,100,,,,,,,23.912,93.74,1150.7688074939,38.385828,6,P-GPS,
12600,2024-04-08 18:28:23,39.1018443576569,-96.5961781138427,39.041996,,,1151.4249754939,26.574804,16.4638784,59.346130508,61.121064948,17,5,24.27,1151.4249754939,39.041996,16.4638784,59.346130508,16.329662,2.013246,-4.026492,8.1, -11.7, -10.3,0,0,1476,1024,1328,789,68,0,46,-36,0,0,0,100,,,,,,,23.912,93.74,1151.4249754939,39.041996,6,P-GPS,
12700,2024-04-08 18:28:23,39.1018510135943,-96.5961771473832,39.698164,,,1152.0811434939,26.574804,16.4638784,61.775592528,63.564962664,17,5,24.27,1152.0811434939,39.698164,16.4638784,61.775592528,16.77705,1.789552,-4.026492,7, -10.9, -14.7,0,0,1477,1024,1310,828,69,0,43,-30,0,0,0,100,,,,,,,23.912,93.74,1152.0811434939,39.698164,6,P-GPS,
12800,2024-04-08 18:28:23,39.101857749989,-96.5961762876102,40.354332,,,1152.7373114939,26.574804,17.0454828,64.228348512,66.034779016,17,5,24.27,1152.7373114939,40.354332,17.0454828,64.228348512,17.000744,1.342164,-3.802798,4.9, -9.1, -18.7,0,0,1451,1024,1326,848,65,0,46,-27,0,0,0,100,,,,,,,23.912,93.74,1152.7373114939,40.354332,6,P-GPS,
12900,2024-04-08 18:28:23,39.1018651559129,-96.5961756280903,40.682416,,,1153.0653954939,26.574804,17.0231134,66.909779044,68.743112436,17,5,24.27,1153.0653954939,40.682416,17.0454828,66.909779044,17.000744,0.671082,-3.802798,2.4, -7.4, -20.9,0,0,1486,1024,1307,839,70,0,43,-28,0,0,0,100,,,,,,,23.912,93.74,1153.0653954939,40.682416,6,P-GPS,
13000,2024-04-08 18:28:23,39.101872032868,-96.5961754752111,41.338584,,,1153.7215634939,26.574804,17.000744,69.375330304,71.252626952,17,5,24.018,1153.7215634939,41.338584,17.0454828,69.375330304,17.000744,0,-3.579104,0.4, -7.1, -19,0,0,1482,1024,1312,866,69,0,44,-24,0,0,0,99,,,,,,,23.154,93.74,1153.7215634939,41.338584,6,P-GPS,
13100,2024-04-08 18:28:23,39.1018788532322,-96.5961757850429,41.994752,,,1154.3777314939,26.574804,17.000744,71.798230644,73.742456428,17,5,24.018,1154.3777314939,41.994752,17.0454828,71.798230644,17.224438,-0.447388,-3.579104,359.1, -7.7, -17,0,0,1482,1024,1312,866,69,0,44,-24,0,0,0,99,,,,,,,23.154,93.74,1154.3777314939,41.994752,6,P-GPS,
13200,2024-04-08 18:28:23,39.1018857327059,-96.5961762607192,42.322836,,,1154.7058154939,26.574804,17.2468074,74.238519436,76.256236036,17,5,24.018,1154.7058154939,42.322836,17.2468074,74.238519436,17.224438,-0.894776,-3.579104,358, -9.2, -13.6,0,0,1479,1024,1314,861,69,0,44,-25,0,0,0,99,,,,,,,23.154,93.74,1154.7058154939,42.322836,6,P-GPS,
13300,2024-04-08 18:28:23,39.1018924123213,-96.5961771359523,42.979004,,,1155.3619834939,26.574804,17.2691768,76.591537884,78.70571118,17,5,24.018,1155.3619834939,42.979004,17.2691768,76.591537884,17.224438,-1.342164,-3.35541,357.3, -11, -10.9,0,0,1474,1024,1317,862,68,0,44,-25,0,0,0,99,,,,,,,23.154,93.74,1155.3619834939,42.979004,6,P-GPS,
13400,2024-04-08 18:28:24,39.1018993509728,-96.5961780185484,43.307088,,,1155.6900674939,26.574804,17.5152402,79.0436377,81.249674516,17,5,24.018,1155.6900674939,43.307088,17.5152402,79.0436377,17.448132,-1.565858,-3.35541,356.6, -12.1, -9.7,0,0,1473,1024,1308,856,68,0,43,-25,0,0,0,99,,,,,,,23.154,93.74,1155.6900674939,43.307088,6,P-GPS,
13500,2024-04-08 18:28:24,39.1019056719229,-96.5961793415511,43.963256,,,1156.3462354939,26.574804,17.559979,81.258860868,83.58596068,17,5,24.018,1156.3462354939,43.963256,17.559979,81.258860868,17.448132,-2.013246,-3.35541,355.8, -12.4, -9.4,0,0,1484,1024,1303,854,70,0,42,-26,0,0,0,99,,,,,,,23.154,93.74,1156.3462354939,43.963256,6,P-GPS,
13600,2024-04-08 18:28:24,39.1019126658802,-96.5961805296738,44.619424,,,1157.0024034939,26.574804,17.5823484,83.729333388,86.15977966,17,5,24.018,1157.0024034939,44.619424,17.5823484,83.729333388,17.448132,-2.23694,-3.35541,354.9, -12.2, -9.9,0,0,1484,1024,1303,854,70,0,42,-26,0,0,0,99,,,,,,,23.154,93.74,1157.0024034939,44.619424,6,P-GPS,
13700,2024-04-08 18:28:24,39.1019197726422,-96.5961818006166,44.947508,,,1157.3304874939,26.574804,17.8507812,86.24344108,88.777561896,17,5,24.018,1157.3304874939,44.947508,17.8507812,86.24344108,17.671826,-2.460634,-3.35541,354, -12.1, -11,0,0,1480,1024,1294,839,69,0,41,-28,0,0,0,99,,,,,,,23.154,93.74,1157.3304874939,44.947508,6,P-GPS,
13800,2024-04-08 18:28:24,39.1019268395696,-96.596183272646,45.603676,,,1157.9866554939,26.574804,17.9178894,88.741472656,91.38943862,17,5,24.018,1157.9866554939,45.603676,17.9178894,88.741472656,17.671826,-2.908022,-3.131716,353, -12.2, -12,0,0,1484,1024,1270,808,70,0,37,-33,0,0,0,99,,,,,,,23.154,93.74,1157.9866554939,45.603676,6,P-GPS,
13900,2024-04-08 18:28:24,39.1019345533762,-96.596185146716,45.93176,,,1158.3147394939,26.574804,17.9402588,91.466210276,94.253283856,17,5,24.018,1158.3147394939,45.93176,17.9402588,91.466210276,17.671826,-3.131716,-3.131716,352, -12.3, -12.9,0,0,1488,1024,1271,815,70,0,37,-32,0,0,0,99,,,,,,,23.154,93.74,1158.3147394939,45.93176,6,P-GPS,
14000,2024-04-08 18:28:24,39.1019417331426,-96.5961869938011,46.259844,,,1158.6428234939,26.574804,18.0297364,94.006564688,96.924543784,17,5,24.042,1158.6428234939,46.259844,18.0297364,94.006564688,17.671826,-3.579104,-3.131716,350.7, -12, -15,0,0,1487,1024,1259,818,70,0,36,-31,0,0,0,99,,,,,,,24.804,93.92,1158.6428234939,46.259844,6,P-GPS,
14100,2024-04-08 18:28:24,39.1019489383516,-96.5961890431428,46.916012,,,1159.2989914939,26.574804,18.342908,96.557089704,99.616801088,17,5,24.042,1159.2989914939,46.916012,18.342908,96.557089704,17.89552,-4.026492,-2.908022,349, -11, -17,0,0,1467,1024,1259,804,67,0,36,-33,0,0,0,99,,,,,,,24.804,93.92,1159.2989914939,46.916012,6,P-GPS,
14200,2024-04-08 18:28:24,39.1019561019957,-96.5961913637847,47.244096,,,1159.6270754939,26.574804,18.231061,99.09285094,102.311683064,17,5,24.042,1159.6270754939,47.244096,18.342908,99.09285094,17.671826,-4.47388,-2.684328,347.2, -10.1, -18.5,0,0,1495,1024,1229,794,71,0,31,-35,0,0,0,99,,,,,,,24.804,93.92,1159.6270754939,47.244096,6,P-GPS,
14300,2024-04-08 18:28:25,39.1019629268831,-96.5961941329911,47.57218,,,1159.9551594939,26.574804,18.4100162,101.50262792,104.922247452,17,5,24.042,1159.9551594939,47.57218,18.4100162,101.50262792,17.671826,-5.144962,-2.460634,345.5, -9.8, -18.2,0,0,1482,1024,1243,789,69,0,33,-36,0,0,0,99,,,,,,,24.804,93.92,1159.9551594939,47.57218,6,P-GPS,
14400,2024-04-08 18:28:25,39.101969943165,-96.5961970444986,47.900264,,,1160.2832434939,26.574804,18.3205386,103.989176556,107.611552,17,5,24.042,1160.2832434939,47.900264,18.4100162,103.989176556,17.448132,-5.59235,-2.460634,344, -9.6, -18.8,0,0,1485,1024,1242,789,70,0,33,-36,0,0,0,99,,,,,,,24.804,93.92,1160.2832434939,47.900264,6,P-GPS,
14500,2024-04-08 18:28:25,39.1019761737034,-96.5961999622541,48.556432,,,1160.9394114939,26.574804,18.3205386,106.198822296,110.030187248,17,5,24.042,1160.9394114939,48.556432,18.4100162,106.198822296,17.224438,-6.263432,-2.23694,342.2, -9.1, -19.4,0,0,1489,1024,1237,782,70,0,32,-37,0,0,0,99,,,,,,,24.804,93.92,1160.9394114939,48.556432,6,P-GPS,
14600,2024-04-08 18:28:25,39.1019829518859,-96.5962034210754,48.884516,,,1161.2674954939,26.574804,18.2757998,108.60892736,112.689964236,17,5,24.042,1161.2674954939,48.884516,18.4100162,108.60892736,17.000744,-6.71082,-2.23694,340.2, -8.5, -19.6,0,0,1488,1024,1243,764,70,0,33,-39,0,0,0,99,,,,,,,24.804,93.92,1161.2674954939,48.884516,6,P-GPS,
14700,2024-04-08 18:28:25,39.1019895294734,-96.5962072490522,49.2126,,,1161.5955794939,26.574804,18.3205386,110.952431372,115.323494504,17,5,24.042,1161.5955794939,49.2126,18.4100162,110.952431372,16.77705,-7.381902,-2.013246,338.3, -7.9, -20,0,0,1495,1024,1235,764,71,0,32,-39,0,0,0,99,,,,,,,24.804,93.92,1161.5955794939,49.2126,6,P-GPS,
14800,2024-04-08 18:28:25,39.1019960369522,-96.5962113125627,49.2126,,,1161.5955794939,26.574804,18.119214,113.28084352,117.961617948,17,5,24.042,1161.5955794939,49.2126,18.4100162,113.28084352,16.329662,-7.82929,-2.013246,336.1, -7.2, -20.9,0,0,1483,1024,1229,790,70,0,31,-35,0,0,0,99,,,,,,,24.804,93.92,1161.5955794939,49.2126,6,P-GPS,
14900,2024-04-08 18:28:25,39.1020029721086,-96.5962159527923,49.540684,,,1161.9236634939,26.574804,18.007367,115.775266172,120.812667908,17,5,24.042,1161.9236634939,49.540684,18.4100162,115.775266172,15.882274,-8.500372,-2.013246,333.9, -6.9, -21.1,0,0,1492,1024,1225,785,71,0,30,-36,0,0,0,99,,,,,,,24.804,93.92,1161.9236634939,49.540684,6,P-GPS,
15000,2024-04-08 18:28:25,39.1020091759536,-96.5962206537654,49.868768,,,1162.2517474939,26.574804,17.9626282,118.018704564,123.438652244,17,5,24.024,1162.2517474939,49.868768,18.4100162,118.018704564,15.434886,-9.171454,-2.013246,331.8, -7.1, -20,0,0,1492,1024,1225,786,71,0,30,-36,0,0,0,99,,,,,,,24.718,93.92,1162.2517474939,49.868768,6,P-GPS,
15100,2024-04-08 18:28:25,39.1020151411339,-96.5962255658456,50.196852,,,1162.5798314939,26.574804,17.6270872,120.190620644,126.021329492,17,5,24.024,1162.5798314939,50.196852,18.4100162,120.190620644,14.763804,-9.618842,-2.013246,330.1, -7.4, -18.4,0,0,1487,1024,1228,798,70,0,31,-34,0,0,0,99,,,,,,,24.718,93.92,1162.5798314939,50.196852,6,P-GPS,
15200,2024-04-08 18:28:25,39.1020209765134,-96.5962307723697,50.524936,,,1162.9079154939,26.574804,17.6941954,122.33268108,128.610896504,17,5,24.024,1162.9079154939,50.524936,18.4100162,122.33268108,14.54011,-10.06623,-1.789552,328.3, -7.9, -16.9,0,0,1484,1024,1235,774,70,0,32,-38,0,0,0,99,,,,,,,24.718,93.92,1162.9079154939,50.524936,6,P-GPS,
15300,2024-04-08 18:28:26,39.1020264177962,-96.5962362628166,50.85302,,,1163.2359994939,26.574804,17.5823484,124.349741512,131.132222044,17,5,24.024,1163.2359994939,50.85302,18.4100162,124.349741512,14.092722,-10.513618,-1.789552,326.9, -8.7, -15.2,0,0,1490,1024,1216,815,71,0,29,-32,0,0,0,99,,,,,,,24.718,93.92,1163.2359994939,50.85302,6,P-GPS,
15400,2024-04-08 18:28:26,39.102031929085,-96.596241872542,51.181104,,,1163.5640834939,26.574804,17.3586544,126.412077536,133.694886168,17,5,24.024,1163.5640834939,51.181104,18.4100162,126.412077536,13.645334,-10.737312,-2.013246,325.3, -9.2, -15.4,0,0,1472,1024,1193,784,68,0,26,-36,0,0,0,99,,,,,,,24.718,93.92,1163.5640834939,51.181104,6,P-GPS,
15500,2024-04-08 18:28:26,39.102036748503,-96.5962470138823,51.509188,,,1163.8921674939,26.574804,17.4705014,128.233599904,135.977366556,17,5,24.024,1163.8921674939,51.509188,18.4100162,128.233599904,13.42164,-11.1847,-1.789552,323.6, -9.3, -15.4,0,0,1494,1024,1147,804,71,0,19,-33,0,0,0,99,,,,,,,24.718,93.92,1163.8921674939,51.509188,6,P-GPS,
15600,2024-04-08 18:28:26,39.1020419165806,-96.5962529479286,51.837272,,,1164.2202514939,26.574804,17.2691768,130.210306004,138.502957188,17,5,24.024,1164.2202514939,51.837272,18.4100162,130.210306004,12.974252,-11.408394,-1.789552,322.1, -9.9, -14.1,0,0,1479,1024,1157,799,69,0,20,-34,0,0,0,99,,,,,,,24.718,93.92,1164.2202514939,51.837272,6,P-GPS,
15700,2024-04-08 18:28:26,39.102046989158,-96.5962592998223,51.837272,,,1164.2202514939,26.574804,17.2468074,132.179466172,141.083665932,17,5,24.024,1164.2202514939,51.837272,18.4100162,132.179466172,12.526864,-11.855782,-1.565858,320.5, -10.3, -13.7,0,0,1474,1024,1144,746,68,0,18,-42,0,0,0,99,,,,,,,24.718,93.92,1164.2202514939,51.837272,6,P-GPS,
15800,2024-04-08 18:28:26,39.1020528290264,-96.5962663361909,52.165356,,,1164.5483354939,26.574804,17.2468074,134.465555484,144.000660776,17,5,24.024,1164.5483354939,52.165356,18.4100162,134.465555484,12.30317,-12.079476,-1.342164,319.1, -10.6, -14.4,0,0,1459,1024,1120,733,66,0,15,-44,0,0,0,99,,,,,,,24.718,93.92,1164.5483354939,52.165356,6,P-GPS,
15900,2024-04-08 18:28:26,39.1020577344871,-96.5962727885989,52.49344,,,1164.8764194939,26.574804,17.2468074,136.419623788,146.558075556,17,5,24.024,1164.8764194939,52.49344,18.4100162,136.419623788,12.079476,-12.30317,-1.11847,317.3, -10.2, -16.5,0,0,1451,1024,1062,737,65,0,6,-43,0,0,0,99,,,,,,,24.718,93.92,1164.8764194939,52.49344,6,P-GPS,
16000,2024-04-08 18:28:26,39.1020624895872,-96.5962794163655,52.49344,,,1164.8764194939,26.574804,17.2691768,138.344492616,149.113521832,17,5,23.958,1164.8764194939,52.49344,18.4100162,138.344492616,11.632088,-12.750558,-0.894776,315, -9.2, -19.9,0,0,1437,1024,1024,728,63,0,0,-45,0,0,0,99,,,,,,,22.9,93.92,1164.8764194939,52.49344,6,P-GPS,
16100,2024-04-08 18:28:26,39.1020663592805,-96.5962853125304,52.49344,,,1164.8764194939,26.574804,17.2915462,139.943574032,151.299873608,17,5,23.958,1164.8764194939,52.49344,18.4100162,139.943574032,11.1847,-13.197946,-0.671082,312.1, -8, -23,0,0,1397,1024,1024,653,57,0,0,-56,0,0,0,99,,,,,,,22.9,93.92,1164.8764194939,52.49344,6,P-GPS,
16200,2024-04-08 18:28:26,39.1020705860971,-96.59629226034,52.821524,,,1165.2045034939,26.574804,17.0454828,141.72736674,153.799545604,17,5,23.958,1165.2045034939,52.821524,18.4100162,141.72736674,10.513618,-13.42164,-0.447388,309, -7.3, -24.2,0,0,1372,1024,1024,656,53,0,0,-56,0,0,0,99,,,,,,,22.9,93.92,1165.2045034939,52.821524,6,P-GPS,
16300,2024-04-08 18:28:26,39.1020742804497,-96.5962994079335,52.821524,,,1165.2045034939,26.574804,17.0454828,143.348429784,156.230976128,17,5,23.958,1165.2045034939,52.821524,18.4100162,143.348429784,9.618842,-13.869028,-0.223694,305.4, -6.2, -25,0,0,1372,1024,1024,656,53,0,0,-56,0,0,0,99,,,,,,,22.9,93.92,1165.2045034939,52.821524,6,P-GPS,
16400,2024-04-08 18:28:27,39.1020778498674,-96.5963067126148,52.821524,,,1165.2045034939,26.574804,16.6875724,144.954729048,158.675201928,17,5,23.958,1165.2045034939,52.821524,18.4100162,144.954729048,8.94776,-14.092722,-0.223694,301.3, -5.2, -25.3,0,0,1317,1024,1024,714,44,0,0,-47,0,0,0,99,,,,,,,22.9,93.92,1165.2045034939,52.821524,6,P-GPS,
16500,2024-04-08 18:28:27,39.1020808538226,-96.5963133926263,52.821524,,,1165.2045034939,26.574804,16.4191396,146.3500703,160.86122562,17,5,23.958,1165.2045034939,52.821524,18.4100162,146.3500703,8.052984,-14.316416,0,297.4, -4.8, -25.4,0,0,1310,1024,1024,708,43,0,0,-48,0,0,0,99,,,,,,,22.9,93.92,1165.2045034939,52.821524,6,P-GPS,
16600,2024-04-08 18:28:27,39.1020836320658,-96.5963208330487,52.821524,,,1165.2045034939,26.574804,16.4191396,147.723429924,163.19882412,17,5,23.958,1165.2045034939,52.821524,18.4100162,147.723429924,6.934514,-14.54011,0,294.1, -5.2, -25.4,0,0,1286,1024,1024,780,40,0,0,-37,0,0,0,99,,,,,,,22.9,93.92,1165.2045034939,52.821524,6,P-GPS,
16700,2024-04-08 18:28:27,39.1020859930139,-96.5963283611374,52.821524,,,1165.2045034939,26.574804,15.7480576,148.976710804,165.497708708,17,5,23.958,1165.2045034939,52.821524,18.4100162,148.976710804,6.039738,-14.54011,0,291.2, -6, -25,0,0,1241,1024,1024,815,33,0,0,-32,0,0,0,99,,,,,,,22.9,93.92,1165.2045034939,52.821524,6,P-GPS,
16800,2024-04-08 18:28:27,39.102087967678,-96.5963359082297,52.821524,,,1165.2045034939,26.574804,15.7480576,150.117786956,167.752958124,17,5,23.958,1165.2045034939,52.821524,18.4100162,150.117786956,4.921268,-14.763804,0,289, -7.8, -23.4,0,0,1241,1024,1024,815,33,0,0,-32,0,0,0,99,,,,,,,22.9,93.92,1165.2045034939,52.821524,6,P-GPS,
16900,2024-04-08 18:28:27,39.1020899204802,-96.5963441178501,52.821524,,,1165.2045034939,26.574804,15.3006696,151.317918228,170.184060564,17,5,23.958,1165.2045034939,52.821524,18.4100162,151.317918228,4.026492,-14.763804,0,286.9, -9.2, -19.3,0,0,1254,1024,1024,938,35,0,0,-13,0,0,0,99,,,,,,,22.9,93.92,1165.2045034939,52.821524,6,P-GPS,
17000,2024-04-08 18:28:27,39.1020912116344,-96.596351835782,52.821524,,,1165.2045034939,26.574804,15.3006696,152.279860516,172.419296856,17,5,23.976,1165.2045034939,52.821524,18.4100162,152.279860516,3.131716,-14.987498,0,284.6, -9.2, -12.5,0,0,1250,1024,942,947,34,0,-12,-12,0,0,0,99,,,,,,,23.032,93.92,1165.2045034939,52.821524,6,P-GPS,
17100,2024-04-08 18:28:27,39.1020920757277,-96.5963596173539,52.821524,,,1165.2045034939,26.574804,15.3006696,153.122052144,174.645018712,17,5,23.976,1165.2045034939,52.821524,18.4100162,153.122052144,2.684328,-14.763804,0,283, -8.5, -5.2,0,0,1277,1024,798,1000,38,0,-34,-4,0,0,0,99,,,,,,,23.032,93.92,1165.2045034939,52.821524,6,P-GPS,
17200,2024-04-08 18:28:27,39.1020930614321,-96.5963673083838,52.821524,,,1165.2045034939,26.574804,15.0098674,154.027892068,176.85203978,17,5,23.976,1165.2045034939,52.821524,18.4100162,154.027892068,2.684328,-14.763804,0,282.2, -7.7, 0.3,0,0,1252,1024,769,1024,35,0,-39,0,0,0,0,99,,,,,,,23.032,93.92,1165.2045034939,52.821524,6,P-GPS,
17300,2024-04-08 18:28:27,39.1020939927901,-96.5963748588761,52.821524,,,1165.2045034939,26.574804,14.5624794,154.929794984,179.016738012,17,5,23.976,1165.2045034939,52.821524,18.4100162,154.929794984,2.684328,-14.316416,0.223694,281.9, -7.7, 3.3,0,0,1209,1024,717,1024,28,0,-47,0,0,0,0,99,,,,,,,23.032,93.92,1165.2045034939,52.821524,6,P-GPS,
17400,2024-04-08 18:28:28,39.102095025782,-96.5963823341266,52.49344,,,1164.8764194939,26.574804,14.3387854,155.886159844,181.16634438,17,5,23.976,1165.2045034939,52.821524,18.4100162,155.886159844,2.684328,-14.092722,0.671082,281.9, -8.6, 3.5,0,0,1198,1024,706,1024,26,0,-48,0,0,0,0,99,,,,,,,23.032,93.92,1164.8764194939,52.49344,6,P-GPS,
17500,2024-04-08 18:28:28,39.1020960872834,-96.5963890104842,52.49344,,,1164.8764194939,26.574804,14.3387854,156.808403968,183.096134468,17,5,23.976,1165.2045034939,52.821524,18.4100162,156.808403968,2.684328,-13.869028,0.894776,281.9, -9.2, 2.2,0,0,1194,1024,728,1024,26,0,-45,0,0,0,0,99,,,,,,,23.032,93.92,1164.8764194939,52.49344,6,P-GPS,
17600,2024-04-08 18:28:28,39.1020972244791,-96.5963962803539,52.165356,,,1164.5483354939,26.574804,14.1374608,157.827104788,185.195872068,17,5,23.976,1165.2045034939,52.821524,18.4100162,157.827104788,2.684328,-13.869028,1.342164,281.8, -9, 1.1,0,0,1169,1024,705,1024,22,0,-48,0,0,0,0,99,,,,,,,23.032,93.92,1164.5483354939,52.165356,6,P-GPS,
17700,2024-04-08 18:28:28,39.1020987187982,-96.596403462585,52.165356,,,1164.5483354939,26.574804,13.9585056,158.982616636,187.301187096,17,5,23.976,1165.2045034939,52.821524,18.4100162,158.982616636,2.908022,-13.645334,1.565858,281.6, -8, 0.5,0,0,1082,1024,673,1024,9,0,-53,0,0,0,0,99,,,,,,,23.032,93.92,1164.5483354939,52.165356,6,P-GPS,
17800,2024-04-08 18:28:28,39.1020999196606,-96.5964105829204,51.837272,,,1164.2202514939,26.574804,13.7348116,160.050530056,189.364179288,17,5,23.976,1165.2045034939,52.821524,18.4100162,160.050530056,2.908022,-13.42164,1.789552,281.5, -6.7, 0.2,0,0,1068,1024,661,1024,7,0,-55,0,0,0,0,99,,,,,,,23.032,93.92,1164.2202514939,51.837272,6,P-GPS,
17900,2024-04-08 18:28:28,39.1021014873781,-96.5964182906523,51.509188,,,1163.8921674939,26.574804,13.7348116,161.320215136,191.620084872,17,5,23.976,1165.2045034939,52.821524,18.4100162,161.320215136,2.908022,-13.42164,2.013246,281.5, -5.4, 0.1,0,0,1084,1024,664,1024,9,0,-55,0,0,0,0,99,,,,,,,23.032,93.92,1163.8921674939,51.509188,6,P-GPS,
18000,2024-04-08 18:28:28,39.1021027353225,-96.596425238713,51.181104,,,1163.5640834939,26.574804,13.5111176,162.426514384,193.639441892,17,5,24.072,1165.2045034939,52.821524,18.4100162,162.426514384,2.908022,-13.197946,2.23694,281.5, -3.6, -0.1,0,0,1087,1024,671,1024,10,0,-53,0,0,0,0,99,,,,,,,21.338,94.1,1163.5640834939,51.181104,6,P-GPS,
18100,2024-04-08 18:28:28,39.1021041611089,-96.5964320987596,50.85302,,,1163.2359994939,26.574804,13.086099,163.602039356,195.650268728,17,5,24.072,1165.2045034939,52.821524,18.4100162,163.602039356,2.908022,-12.750558,2.460634,281.4, -1.9, -0.6,0,0,1079,1024,719,1024,8,0,-46,0,0,0,0,99,,,,,,,21.338,94.1,1163.2359994939,50.85302,6,P-GPS,
18200,2024-04-08 18:28:28,39.1021054089848,-96.5964387396268,50.524936,,,1162.9079154939,26.574804,12.862405,164.710307108,197.584651992,17,5,24.072,1165.2045034939,52.821524,18.4100162,164.710307108,2.908022,-12.526864,2.460634,281.3, -0.7, -1,0,0,1079,1024,719,1024,8,0,-46,0,0,0,0,99,,,,,,,21.338,94.1,1162.9079154939,50.524936,6,P-GPS,
