time(millisecond),datetime(utc),latitude,longitude,height_above_takeoff(feet),height_above_ground_at_drone_location(feet),ground_elevation_at_drone_location(feet),altitude_above_seaLevel(feet),height_sonar(feet),speed(mph),distance(feet),mileage(feet),satellites,gpslevel,voltage(v),max_altitude(feet),max_ascent(feet),max_speed(mph),max_distance(feet), xSpeed(mph), ySpeed(mph), zSpeed(mph), compass_heading(degrees), pitch(degrees), roll(degrees),isPhoto,isVideo,rc_elevator,rc_aileron,rc_throttle,rc_rudder,rc_elevator(percent),rc_aileron(percent),rc_throttle(percent),rc_rudder(percent),gimbal_heading(degrees),gimbal_pitch(degrees),gimbal_roll(degrees),battery_percent,voltageCell1,voltageCell2,voltageCell3,voltageCell4,voltageCell5,voltageCell6,current(A),battery_temperature(f),altitude(feet),ascent(feet),flycStateRaw,flycState,message
0,2024-04-10 20:20:33,39.0995037093253,-96.6134729355014,0,Available with any HD 360 subscription,Available with any HD 360 subscription,1168.2830144192,0.656168,0,0,0,21,5,0,1168.2830144192,0,0,0,0,0,0,1.6, -6.5, 3.5,0,0,364,385,364,1684,-100,-97,-100,100,0,0,0,97,,,,,,,0,91.4,1168.2830144192,0,41,Motors_Started,"GEO: You are in a Warning Zone (Airport). Fly with caution."
100,2024-04-10 20:20:33,39.0995037069748,-96.6134729474786,0,,,1168.2830144192,0.656168,0,0.003498031608,0.003498031608,21,5,0,1168.2830144192,0,0,0.003498031608,0,0,0,1.6, -6.5, 3.5,0,0,364,381,364,1684,-100,-97,-100,100,0,0,0,97,,,,,,,0,91.4,1168.2830144192,0,41,Motors_Started,
200,2024-04-10 20:20:33,39.099503865443,-96.6134730875759,0,,,1168.2830144192,0.656168,0,0.071403217508,0.073614503668,21,5,0,1168.2830144192,0,0,0.071403217508,0,0,0,1.6, -6.5, 3.5,0,0,364,375,364,1684,-100,-98,-100,100,0,0,0,97,,,,,,,0,91.4,1168.2830144192,0,41,Motors_Started,"Setting new Return-To-Home altitude to 61m (200 ft). Data Recorder File Index is 48. Setting new Maximum Flight Altitude to 122m (400 ft)"
300,2024-04-10 20:20:33,39.0995038765475,-96.6134731112831,0,,,1168.2830144192,0.656168,0,0.07873687916,0.081454727016,21,5,0,1168.2830144192,0,0,0.07873687916,0,0,0,1.6, -6.4, 3.5,0,0,364,364,364,1684,-100,-100,-100,100,0,0,0,97,,,,,,,0,91.4,1168.2830144192,0,41,Motors_Started,
400,2024-04-10 20:20:33,39.0995038540101,-96.6134730681541,0,,,1168.2830144192,0.656168,0,0.06478674748,0.096176840348,21,5,0,1168.2830144192,0,0,0.07873687916,0,0,0,1.7, -6.4, 3.5,0,0,364,364,364,1684,-100,-100,-100,100,0,0,0,97,,,,,,,0,91.4,1168.2830144192,0,41,Motors_Started,
500,2024-04-10 20:20:33,39.0995038624778,-96.6134730873989,0,,,1168.2830144192,0.656168,0,0.070512797532,0.10244094816,21,5,0,1168.2830144192,0,0,0.07873687916,0,0,0,1.7, -6.4, 3.5,0,0,364,364,364,1684,-100,-100,-100,100,0,0,0,97,,,,,,,0,91.4,1168.2830144192,0,41,Motors_Started,
600,2024-04-10 20:20:33,39.0995038446528,-96.6134730487254,0,,,1168.2830144192,0.656168,0,0.058869096372,0.115176512872,21,5,0,1168.2830144192,0,0,0.07873687916,0,0,0,1.6, -6.5, 3.5,0,0,364,364,364,1684,-100,-100,-100,100,0,0,0,97,,,,,,,0,91.4,1168.2830144192,0,41,Motors_Started,
700,2024-04-10 20:20:33,39.0995038492533,-96.6134730638397,0,,,1168.2830144192,0.656168,0,0.062664372084,0.119773297796,21,5,0,1168.2830144192,0,0,0.07873687916,0,0,0,1.7, -6.4, 3.5,0,0,364,364,364,1684,-100,-100,-100,100,0,0,0,97,,,,,,,0,91.4,1168.2830144192,0,41,Motors_Started,
800,2024-04-10 20:20:34,39.0995038358615,-96.6134731933002,0,,,1168.2830144192,0.656168,0,0.086368113,0.156753285856,21,5,0,1168.2830144192,0,0,0.086368113,0,0,0,1.7, -6.5, 3.5,0,0,715,850,455,1592,-47,-26,-86,86,0,0,0,97,,,,,,,0,91.4,1168.2830144192,0,41,Motors_Started,
900,2024-04-10 20:20:34,39.0995038358587,-96.6134732181868,0,,,1168.2830144192,0.656168,0,0.092399609256,0.163799874008,21,5,24.948,1168.2830144192,0,0,0.092399609256,0,0,0,1.7, -6.4, 3.5,0,0,1024,1024,1024,1024,0,0,0,0,0,0,0,97,,,,,,,1.088,91.4,1168.2830144192,0,41,Motors_Started,
1000,2024-04-10 20:20:34,39.0995038258809,-96.6134731761824,0,,,1168.2830144192,0.656168,0,0.080326774224,0.176237866532,21,5,24.948,1168.2830144192,0,0,0.092399609256,0,0,0,1.5, -6.5, 3.5,0,0,1024,1024,1024,1024,0,0,0,0,0,0,0,97,,,,,,,1.088,91.4,1168.2830144192,0,41,Motors_Started,
1100,2024-04-10 20:20:34,39.0995038258815,-96.6134731996947,0,,,1168.2830144192,0.656168,0,0.086046918764,0.182895018976,21,5,24.948,1168.2830144192,0,0,0.092399609256,0,0,0,1.4, -6.5, 3.5,0,0,1024,1024,1024,1024,0,0,0,0,0,0,0,97,,,,,,,1.088,91.4,1168.2830144192,0,41,Motors_Started,
1200,2024-04-10 20:20:34,39.0995038180764,-96.6134731606496,0,,,1168.2830144192,0.656168,0,0.075088256996,0.194311357924,21,5,24.948,1168.2830144192,0,0,0.092399609256,0,0,0,1.7, -6.5, 3.5,0,0,1024,1024,1024,1024,0,0,0,0,0,0,0,97,,,,,,,1.088,91.4,1168.2830144192,0,41,Motors_Started,
1300,2024-04-10 20:20:34,39.0995038204688,-96.6134731857422,0,,,1168.2830144192,0.656168,0,0.08163714172,0.201469494636,21,5,24.948,1168.2830144192,0,0,0.092399609256,0,0,0,1.7, -6.5, 3.5,0,0,1024,1024,1024,1024,0,0,0,0,0,0,0,97,,,,,,,1.088,91.4,1168.2830144192,0,41,Motors_Started,
1400,2024-04-10 20:20:34,39.0995038073311,-96.6134731680021,0,,,1168.2830144192,0.656168,0,0.074915028644,0.208412408244,21,5,24.948,1168.2830144192,0,0,0.092399609256,0,0,0,1.6, -6.5, 3.5,0,0,1024,1024,1024,1024,0,0,0,0,0,0,0,97,,,,,,,1.088,91.4,1168.2830144192,0,41,Motors_Started,
1500,2024-04-10 20:20:34,39.0995038019511,-96.6134731951073,0,,,1168.2830144192,0.656168,0,0.080901905476,0.216333996424,21,5,24.948,1168.2830144192,0,0,0.092399609256,0,0,0,1.7, -6.5, 3.4,0,0,1024,1024,1024,1024,0,0,0,0,0,0,0,97,,,,,,,1.088,91.4,1168.2830144192,0,41,Motors_Started,
1600,2024-04-10 20:20:34,39.0995038041672,-96.6134731692049,0,,,1168.2830144192,0.656168,0,0.074672574568,0.223712605584,21,5,24.948,1168.2830144192,0,0,0.092399609256,0,0,0,1.7, -6.5, 3.5,0,0,1024,1024,1024,1024,0,0,0,0,0,0,0,97,,,,,,,1.088,91.4,1168.2830144192,0,41,Motors_Started,
1700,2024-04-10 20:20:34,39.0995038022856,-96.6134731855561,0,,,1168.2830144192,0.656168,0,0.07850557994,0.228392723844,21,5,24.948,1168.2830144192,0,0,0.092399609256,0,0,0,1.7, -6.5, 3.5,0,0,1024,1024,1024,1024,0,0,0,0,0,0,0,97,,,,,,,1.088,91.4,1168.2830144192,0,41,Motors_Started,
1800,2024-04-10 20:20:34,39.0995039815387,-96.6134732859108,0,,,1168.2830144192,0.656168,0,0.14038386276,0.299699156572,21,5,24.948,1168.2830144192,0,0,0.14038386276,0,0,0,1.7, -6.4, 3.5,0,0,1024,1024,1024,1024,0,0,0,0,0,0,0,97,,,,,,,1.088,91.4,1168.2830144192,0,41,Motors_Started,
1900,2024-04-10 20:20:35,39.0995039952421,-96.6134733118545,0,,,1168.2830144192,0.656168,0,0.149121723932,0.308584983628,21,5,24.948,1168.2830144192,0,0,0.149121723932,0,0,0,1.7, -6.5, 3.5,0,0,1024,1024,1024,1024,0,0,0,0,0,0,0,97,,,,,,,3.17,91.4,1168.2830144192,0,41,Motors_Started,
2000,2024-04-10 20:20:35,39.099503970162,-96.6134732672912,0,,,1168.2830144192,0.656168,0,0.13372375756,0.3241715983,21,5,24.948,1168.2830144192,0,0,0.149121723932,0,0,0,1.7, -6.5, 3.5,0,0,1024,1024,1024,1024,0,0,0,0,0,0,0,97,,,,,,,3.17,91.4,1168.2830144192,0,10,Assisted_Takeoff,
2100,2024-04-10 20:20:35,39.0995039779074,-96.6134732908345,0,,,1168.2830144192,0.656168,0,0.140444886384,0.33141077176,21,5,24.948,1168.2830144192,0,0,0.149121723932,0,0,0,1.7, -6.5, 3.5,0,0,1024,1024,1024,1024,0,0,0,0,0,0,0,97,,,,,,,3.17,91.4,1168.2830144192,0,10,Assisted_Takeoff,
2200,2024-04-10 20:20:35,39.0995039428676,-96.6134732579035,0,,,1168.2830144192,0.656168,0,0.12487369166,0.34723426308,21,5,24.948,1168.2830144192,0,0,0.149121723932,0,0,0,1.7, -6.4, 3.5,0,0,1024,1024,1024,1024,0,0,0,0,0,0,0,97,,,,,,,3.17,91.4,1168.2830144192,0,10,Assisted_Takeoff,
2300,2024-04-10 20:20:35,39.0995039477649,-96.6134732770614,0,,,1168.2830144192,0.656168,0,0.13008038474,0.35294620552,21,5,24.948,1168.2830144192,0,0,0.149121723932,0,0,0,1.7, -6.4, 3.5,0,0,1024,1024,1024,1024,0,0,0,0,0,0,0,97,,,,,,,3.17,91.4,1168.2830144192,0,10,Assisted_Takeoff,
2400,2024-04-10 20:20:35,39.0995039364044,-96.6134732354858,0,,,1168.2830144192,0.656168,0,0.11865321902,0.36542652088,21,5,24.948,1168.2830144192,0,0,0.149121723932,0,0,0,1.7, -6.4, 3.5,0,0,1024,1024,1024,1024,0,0,0,0,0,0,0,97,,,,,,,3.17,91.4,1168.2830144192,0,10,Assisted_Takeoff,
2500,2024-04-10 20:20:35,39.0995039385725,-96.6134732473754,0,,,1168.2830144192,0.656168,0,0.121628612816,0.36888452624,21,5,24.948,1168.2830144192,0,0,0.149121723932,0,0,0,1.7, -6.4, 3.5,0,0,1024,1024,1024,1024,0,0,0,0,0,0,0,97,,,,,,,3.17,91.4,1168.2830144192,0,10,Assisted_Takeoff,
2600,2024-04-10 20:20:35,39.0995039275744,-96.6134732127406,0,,,1168.2830144192,0.656168,0,0.111814964208,0.37948163944,21,5,24.948,1168.2830144192,0,0,0.149121723932,0,0,0,1.7, -6.5, 3.5,0,0,1024,1024,1024,1024,0,0,0,0,0,0,0,97,,,,,,,3.17,91.4,1168.2830144192,0,10,Assisted_Takeoff,
2700,2024-04-10 20:20:35,39.0995039271611,-96.6134732228327,0,,,1168.2830144192,0.656168,0,0.113733927524,0.38234253192,21,5,24.948,1168.2830144192,0,0,0.149121723932,0,0,0,1.7, -6.5, 3.5,0,0,1024,1024,1024,1024,0,0,0,0,0,0,0,97,,,,,,,3.17,91.4,1168.2830144192,0,10,Assisted_Takeoff,
2800,2024-04-10 20:20:35,39.0995039169038,-96.6134731997375,0,,,1168.2830144192,0.656168,0,0.106457680572,0.38987534056,21,5,24.948,1168.2830144192,0,0,0.149121723932,0,0,0,1.7, -6.5, 3.5,0,0,1024,1024,1024,1024,0,0,0,0,0,0,0,97,,,,,,,3.17,91.4,1168.2830144192,0,10,Assisted_Takeoff,
2900,2024-04-10 20:20:36,39.099503914283,-96.6134732090206,0,,,1168.2830144192,0.656168,0,0.107654859088,0.39267389708,21,5,24.6,1168.2830144192,0,0,0.149121723932,0,0,0,1.7, -6.4, 3.5,0,0,1024,1024,1024,1024,0,0,0,0,0,0,0,97,,,,,,,2.402,91.4,1168.2830144192,0,10,Assisted_Takeoff,
3000,2024-04-10 20:20:36,39.0995039081268,-96.6134733619434,0,,,1168.2830144192,0.656168,0,0.1408546633,0.43603019768,21,5,24.6,1168.2830144192,0,0,0.149121723932,0,0,0,1.7, -6.4, 3.5,0,0,1024,1024,1024,1024,0,0,0,0,0,0,0,97,,,,,,,2.402,91.4,1168.2830144192,0,10,Assisted_Takeoff,
3100,2024-04-10 20:20:36,39.0995039005768,-96.613473385179,0,,,1168.2830144192,0.656168,0,0.145189637192,0.44316274384,21,5,24.6,1168.2830144192,0,0,0.149121723932,0,0,0,1.7, -6.4, 3.4,0,0,1024,1024,1024,1024,0,0,0,0,0,0,0,97,,,,,,,2.402,91.4,1168.2830144192,0,10,Assisted_Takeoff,
3200,2024-04-10 20:20:36,39.0995038967752,-96.6134733574037,0,,,1168.2830144192,0.656168,0,0.137650266872,0.4511483084,21,5,24.6,1168.2830144192,0,0,0.149121723932,0,0,0,1.7, -6.4, 3.5,0,0,1024,1024,1024,1024,0,0,0,0,0,0,0,97,,,,,,,2.402,91.4,1168.2830144192,0,10,Assisted_Takeoff,
3300,2024-04-10 20:20:36,39.0995038894528,-96.6134733783075,0,,,1168.2830144192,0.656168,0,0.141557091144,0.45764109076,21,5,24.6,1168.2830144192,0,0,0.149121723932,0,0,0,1.7, -6.4, 3.5,0,0,1024,1024,1024,1024,0,0,0,0,0,0,0,97,,,,,,,2.402,91.4,1168.2830144192,0,10,Assisted_Takeoff,
3400,2024-04-10 20:20:36,39.0995038913187,-96.6134733531663,0,,,1168.2830144192,0.656168,0,0.135624676256,0.46479332196,21,5,24.6,1168.2830144192,0,0,0.149121723932,0,0,0,1.7, -6.4, 3.5,0,0,1024,1024,1024,1024,0,0,0,0,0,0,0,97,,,,,,,2.402,91.4,1168.2830144192,0,10,Assisted_Takeoff,
3500,2024-04-10 20:20:36,39.0995038835673,-96.613473372161,0,,,1168.2830144192,0.656168,0,0.139023298412,0.47086943764,21,5,24.6,1168.2830144192,0,0,0.149121723932,0,0,0,1.7, -6.4, 3.5,0,0,1024,1024,1024,1024,0,0,0,0,0,0,0,97,,,,,,,2.402,91.4,1168.2830144192,0,10,Assisted_Takeoff,
3600,2024-04-10 20:20:36,39.0995038911634,-96.6134733459756,0,,,1168.2830144192,0.656168,0,0.133825135516,0.47878610456,21,5,24.6,1168.2830144192,0,0,0.149121723932,0,0,0,1.7, -6.4, 3.5,0,0,1024,1024,1045,1024,0,0,3,0,0,0,0,97,,,,,,,2.402,91.4,1168.2830144192,0,10,Assisted_Takeoff,
3700,2024-04-10 20:20:36,39.0995038836619,-96.6134733638569,0,,,1168.2830144192,0.656168,0,0.136952432204,0.48454069792,21,5,24.6,1168.2830144192,0,0,0.149121723932,0,0,0,1.7, -6.4, 3.5,0,0,1024,1024,1139,1024,0,0,17,0,0,0,0,97,,,,,,,2.402,91.4,1168.2830144192,0,10,Assisted_Takeoff,
3800,2024-04-10 20:20:36,39.0995038975883,-96.6134733320566,0,,,1168.2830144192,0.656168,0,0.131625004212,0.49487862476,21,5,24.6,1168.2830144192,0,0,0.149121723932,0,0,0,1.7, -6.4, 3.5,0,0,1024,1024,1363,1037,0,0,51,2,0,0,0,97,,,,,,,2.402,91.4,1168.2830144192,0,10,Assisted_Takeoff,
3900,2024-04-10 20:20:37,39.0995038908626,-96.6134733463723,0,,,1168.2830144192,0.656168,0,0.13386811452,0.49961615772,21,5,24.84,1168.2830144192,0,0,0.149121723932,0,0,0,1.7, -6.3, 3.5,0,0,1024,1024,1508,1024,0,0,73,0,0,0,0,97,,,,,,,2.164,91.4,1168.2830144192,0,10,Assisted_Takeoff,
4000,2024-04-10 20:20:37,39.0995040537126,-96.6134733267087,0,,,1168.2830144192,0.656168,0,0.167502630032,0.55929463732,21,5,24.84,1168.2830144192,0,0,0.167502630032,0,0,0,1.7, -6.2, 3.5,0,0,1024,1024,1595,1024,0,0,87,0,0,0,0,97,,,,,,,2.164,91.4,1168.2830144192,0,10,Assisted_Takeoff,
4100,2024-04-10 20:20:37,39.0995040588503,-96.6134733402607,0,,,1168.2830144192,0.656168,0,0.171454073728,0.56356301016,21,5,24.84,1168.2830144192,0,0,0.171454073728,0,0,0,1.7, -6.3, 3.5,0,0,1024,1024,1594,1024,0,0,86,0,0,0,0,97,,,,,,,2.164,91.4,1168.2830144192,0,10,Assisted_Takeoff,
4200,2024-04-10 20:20:37,39.0995040471352,-96.6134733209614,0,,,1168.2830144192,0.656168,0,0.164626973772,0.57050198676,21,5,24.84,1168.2830144192,0,0,0.171454073728,0,0,0,1.7, -6.3, 3.5,0,0,1024,1024,1595,1024,0,0,87,0,0,0,0,97,,,,,,,2.164,91.4,1168.2830144192,0,10,Assisted_Takeoff,
4300,2024-04-10 20:20:37,39.0995040547615,-96.6134733320646,0,,,1168.2830144192,0.656168,0,0.168794952908,0.57469818112,21,5,24.84,1168.2830144192,0,0,0.171454073728,0,0,0,1.7, -6.4, 3.5,0,0,1024,1024,1598,1024,0,0,87,0,0,0,0,97,,,,,,,2.164,91.4,1168.2830144192,0,10,Assisted_Takeoff,
4400,2024-04-10 20:20:37,39.0995040443772,-96.6134733193605,0,,,1168.2830144192,0.656168,0,0.163573496048,0.57992455924,21,5,24.84,1168.2830144192,0,0,0.171454073728,0,0,0,1.7, -6.4, 3.4,0,0,1024,1024,1614,1024,0,0,89,0,0,0,0,97,,,,,,,2.164,91.4,1168.2830144192,0,10,Assisted_Takeoff,
4500,2024-04-10 20:20:37,39.0995040605821,-96.6134733289906,0,,,1168.2830144192,0.656168,0,0.169814309896,0.5864337458,21,5,24.84,1168.2830144192,0,0,0.171454073728,0,0,0,1.6, -6.2, 3.2,0,0,1024,1024,1627,1041,0,0,91,3,0,0,0,97,,,,,,,2.164,91.4,1168.2830144192,0,10,Assisted_Takeoff,
4600,2024-04-10 20:20:37,39.0995040881211,-96.6134734458402,0,,,1168.2830144192,0.656168,0,0.199949809548,0.62101051856,21,5,24.84,1168.2830144192,0,0,0.199949809548,0,0,-0.223694,1, -5.5, 2.5,0,0,1024,1024,1622,1042,0,0,91,3,0,0,0,97,,,,,,,2.164,91.4,1168.2830144192,0,10,Assisted_Takeoff,
4700,2024-04-10 20:20:37,39.0995041859613,-96.6134733875793,0,,,1168.2830144192,0.656168,0.223694,0.215930453104,0.6603346668,21,5,24.84,1168.2830144192,0,0.223694,0.215930453104,0.223694,0,-0.447388,0.5, -3.9, 1.2,0,0,1024,1024,1620,1038,0,0,90,2,0,0,0,97,,,,,,,2.164,91.4,1168.2830144192,0,6,P-GPS,
4800,2024-04-10 20:20:38,39.0995043114165,-96.6134732296991,0,,,1168.2830144192,0.984252,0.223694,0.23493603114,0.72431432764,21,5,24.84,1168.2830144192,0,0.223694,0.23493603114,0.223694,0,-1.11847,0.1, -1.5, -0.4,0,0,1024,1024,1617,1043,0,0,90,3,0,0,0,97,,,,,,,2.164,91.4,1168.2830144192,0,6,P-GPS,
4900,2024-04-10 20:20:38,39.0995044588081,-96.6134731419147,0.328084,,,1168.6110984192,1.312336,0.223694,0.27962435278,0.78355645552,21,5,24.87,1168.6110984192,0.328084,0.223694,0.27962435278,0.223694,0,-1.565858,0, 0.7, -1.8,0,0,1024,1024,1618,1064,0,0,90,6,0,0,0,97,,,,,,,3.74,91.4,1168.6110984192,0.328084,6,P-GPS,
5000,2024-04-10 20:20:38,39.0995046132411,-96.6134731281208,0.656168,,,1168.9391824192,1.312336,0.223694,0.33427166424,0.84003611612,21,5,24.87,1168.9391824192,0.656168,0.223694,0.33427166424,0.223694,0,-2.23694,359.9, 2.5, -1.9,0,0,1024,1024,1622,1095,0,0,91,11,0,0,0,97,,,,,,,3.74,91.4,1168.9391824192,0.656168,6,P-GPS,
5100,2024-04-10 20:20:38,39.0995046533654,-96.6134731251362,0.984252,,,1169.2672664192,1.64042,0,0.34859253084,0.85470147092,21,5,24.87,1169.2672664192,0.984252,0.223694,0.34859253084,0,0,-2.908022,359.6, 3, -0.9,0,0,1024,1024,1617,1111,0,0,90,13,0,0,0,97,,,,,,,3.74,91.4,1169.2672664192,0.984252,6,P-GPS,
5200,2024-04-10 20:20:38,39.0995044731769,-96.6134729841345,1.312336,,,1169.5953504192,2.296588,0,0.279030848824,0.93161748388,21,5,24.87,1169.5953504192,1.312336,0.223694,0.34859253084,0,0,-3.579104,359.5, 1.3, 0.7,0,0,1024,1024,1619,1119,0,0,90,14,0,0,0,97,,,,,,,3.74,91.4,1169.5953504192,1.312336,6,P-GPS,
5300,2024-04-10 20:20:38,39.0995043437934,-96.613472949113,1.968504,,,1170.2515184192,2.624672,0.223694,0.23151739586,0.97985239356,21,5,24.87,1170.2515184192,1.968504,0.223694,0.34859253084,-0.223694,0,-4.026492,359.3, -1.2, 0.9,0,0,1024,1024,1617,1129,0,0,90,16,0,0,0,97,,,,,,,3.74,91.4,1170.2515184192,1.968504,6,P-GPS,"Home Point recorded. Return-to-Home Altitude:61.0 m"
5400,2024-04-10 20:20:38,39.0995043980265,-96.6134728540493,2.624672,,,1170.9076864192,3.608924,0.223694,0.252328420148,1.01325790644,21,5,24.87,1170.9076864192,2.624672,0.223694,0.34859253084,-0.223694,0,-4.697574,359.1, -3.1, -0.1,0,0,1024,1024,1617,1141,0,0,90,18,0,0,0,97,,,,,,,3.74,91.4,1170.9076864192,2.624672,6,P-GPS,
5500,2024-04-10 20:20:38,39.0995042744688,-96.6134727812077,3.608924,,,1171.8919384192,4.265092,0.223694,0.210769691784,1.06283139884,21,5,24.87,1171.8919384192,3.608924,0.223694,0.34859253084,-0.223694,0,-5.59235,359.1, -3.7, -0.9,0,0,1024,1024,1622,1152,0,0,91,19,0,0,0,97,,,,,,,3.74,91.4,1171.8919384192,3.608924,6,P-GPS,
5600,2024-04-10 20:20:38,39.0995042295051,-96.6134725000739,4.265092,,,1172.5481064192,5.249344,0.223694,0.226316280208,1.14410764816,21,5,24.87,1172.5481064192,4.265092,0.223694,0.34859253084,-0.223694,0,-6.263432,359.2, -3.4, -0.9,0,0,1024,1024,1621,1165,0,0,90,21,0,0,0,97,,,,,,,3.74,91.4,1172.5481064192,4.265092,6,P-GPS,
5700,2024-04-10 20:20:38,39.0995041490957,-96.6134724328472,5.249344,,,1173.5323584192,6.233596,0,0.214476056732,1.17907812172,21,5,24.87,1173.5323584192,5.249344,0.223694,0.34859253084,0,0,-6.934514,359.3, -3, -0.3,0,0,1024,1024,1619,1219,0,0,90,30,0,0,0,97,,,,,,,3.74,91.4,1173.5323584192,5.249344,6,P-GPS,
5800,2024-04-10 20:20:38,39.0995045539572,-96.6134722801017,6.56168,,,1174.8446944192,7.217848,0,0.35972442096,1.33299216864,21,5,24.87,1174.8446944192,6.56168,0.223694,0.35972442096,0,0,-7.82929,359.7, -2.1, 0.3,0,0,1024,1024,1607,1295,0,0,88,41,0,0,0,97,,,,,,,3.74,91.4,1174.8446944192,6.56168,6,P-GPS,
5900,2024-04-10 20:20:39,39.0995044865549,-96.6134721487453,7.545932,,,1175.8289464192,8.530184,0,0.36060696692,1.37757878424,21,5,24.87,1175.8289464192,7.545932,0.223694,0.36060696692,0,0,-8.276678,0.4, -1.3, 0.2,0,0,1024,1024,1590,1361,0,0,86,51,0,0,0,97,,,,,,,16.886,91.4,1175.8289464192,7.545932,6,P-GPS,
6000,2024-04-10 20:20:39,39.0995041271073,-96.6134717652329,9.186352,,,1177.4693664192,9.514436,0.223694,0.3647309828,1.54784453772,21,5,24.87,1177.4693664192,9.186352,0.223694,0.3647309828,-0.223694,0,-8.94776,1.8, -1.7, -0.5,0,0,1024,1024,1588,1378,0,0,85,54,0,0,0,97,,,,,,,16.886,91.4,1177.4693664192,9.186352,6,P-GPS,
6100,2024-04-10 20:20:39,39.0995039943933,-96.6134715085338,10.498688,,,1178.7817024192,10.826772,0.3131716,0.4172080186,1.63518049852,21,5,24.87,1178.7817024192,10.498688,0.3131716,0.4172080186,-0.223694,0.223694,-9.171454,4.4, -3.5, -2.7,0,0,1024,1024,1588,1399,0,0,85,57,0,0,0,97,,,,,,,16.886,91.4,1178.7817024192,10.498688,6,P-GPS,
6200,2024-04-10 20:20:39,39.0995041509129,-96.6134711865729,11.811024,,,1180.0940384192,12.139108,0.3131716,0.52074476732,1.7427493996,21,5,24.87,1180.0940384192,11.811024,0.3131716,0.52074476732,-0.223694,0.223694,-9.395148,7.5, -4.6, -4.4,0,0,1024,1024,1589,1430,0,0,86,62,0,0,0,97,,,,,,,16.886,91.4,1180.0940384192,11.811024,6,P-GPS,
6300,2024-04-10 20:20:39,39.0995041333506,-96.613470956669,13.12336,,,1181.4063744192,13.451444,0.3131716,0.58125658028,1.80815950668,21,5,24.87,1181.4063744192,13.12336,0.3131716,0.58125658028,0,0.223694,-9.618842,10.9, -3.9, -4.7,0,0,1024,1024,1588,1476,0,0,85,68,0,0,0,97,,,,,,,16.886,91.4,1181.4063744192,13.12336,6,P-GPS,
6400,2024-04-10 20:20:39,39.0995039184319,-96.6134711213697,14.76378,,,1183.0467944192,14.76378,0,0.5192913552,1.8993931054,21,5,24.87,1183.0467944192,14.76378,0.3131716,0.58125658028,0,0,-9.618842,14.6, -2.4, -3.6,0,0,1024,1024,1576,1527,0,0,84,76,0,0,0,97,,,,,,,16.886,91.4,1183.0467944192,14.76378,6,P-GPS,
6500,2024-04-10 20:20:39,39.0995039459208,-96.6134709580865,16.076116,,,1184.3591304192,16.076116,0,0.56650592364,1.94669953736,21,5,24.87,1184.3591304192,16.076116,0.3131716,0.58125658028,0,0,-9.618842,19.1, -1.2, -2.6,0,0,1024,1024,1546,1538,0,0,79,78,0,0,0,97,,,,,,,16.886,91.4,1184.3591304192,16.076116,6,P-GPS,
6600,2024-04-10 20:20:39,39.0995039228262,-96.6134708004791,17.388452,,,1185.6714664192,17.060368,0.223694,0.60951117436,1.99211292464,21,5,24.87,1185.6714664192,17.388452,0.3131716,0.60951117436,0,0.223694,-9.618842,24.4, -0.6, -2.5,0,0,1024,1024,1535,1543,0,0,77,79,0,0,0,97,,,,,,,16.886,91.4,1185.6714664192,17.388452,6,P-GPS,
6700,2024-04-10 20:20:39,39.0995039450607,-96.6134706302178,19.028872,,,1187.3118864192,18.372704,0.223694,0.6583661628,2.04100072148,21,5,24.87,1187.3118864192,19.028872,0.3131716,0.6583661628,0,0.223694,-9.171454,30.4, -0.2, -2.8,0,0,1024,1024,1536,1564,0,0,78,82,0,0,0,97,,,,,,,16.886,91.4,1187.3118864192,19.028872,6,P-GPS,
6800,2024-04-10 20:20:39,39.0995039326531,-96.613470125123,20.341208,,,1188.6242224192,19.68504,0.223694,0.79989831956,2.18408471556,21,5,24.87,1188.6242224192,20.341208,0.3131716,0.79989831956,0,0.223694,-8.94776,36.6, 0, -3.4,0,0,1024,1024,1534,1562,0,0,77,82,0,0,0,97,,,,,,,16.886,91.4,1188.6242224192,20.341208,6,P-GPS,
6900,2024-04-10 20:20:40,39.0995039539551,-96.613469949798,21.653544,,,1189.9365584192,20.997376,0.223694,0.85007548652,2.23433078016,21,5,24.282,1189.9365584192,21.653544,0.3131716,0.85007548652,0,0.223694,-8.500372,43, 0.2, -3.5,0,0,1024,1024,1529,1549,0,0,77,80,0,0,0,97,,,,,,,30.224,91.4,1189.9365584192,21.653544,6,P-GPS,
7000,2024-04-10 20:20:40,39.0995037963385,-96.6134698102164,22.96588,,,1191.2488944192,22.309712,0.223694,0.88546918844,2.30410768528,21,5,24.282,1191.2488944192,22.96588,0.3131716,0.88546918844,0,0.223694,-8.276678,49.5, 0.5, -3.1,0,0,1024,1024,1524,1505,0,0,76,73,0,0,0,97,,,,,,,30.224,91.4,1191.2488944192,22.96588,6,P-GPS,
7100,2024-04-10 20:20:40,39.0995038141938,-96.6134696545464,23.950132,,,1192.2331464192,23.622048,0.223694,0.92976380928,2.34866477332,21,5,24.282,1192.2331464192,23.950132,0.3131716,0.92976380928,0,0.223694,-8.052984,56, 0.9, -2.8,0,0,1024,1024,1522,1495,0,0,75,71,0,0,0,97,,,,,,,30.224,91.4,1192.2331464192,23.950132,6,P-GPS,
7200,2024-04-10 20:20:40,39.0995039175398,-96.6134695357803,25.262468,,,1193.5454824192,24.934384,0.223694,0.96559714376,2.39918642848,21,5,24.282,1193.5454824192,25.262468,0.3131716,0.96559714376,0,0.223694,-8.052984,62.1, 1.4, -2.5,0,0,1024,1024,1522,1495,0,0,75,71,0,0,0,97,,,,,,,30.224,91.4,1193.5454824192,25.262468,6,P-GPS,
7300,2024-04-10 20:20:40,39.0995039559551,-96.6134694012506,26.574804,,,1194.8578184192,25.918636,0,1.00473100328,2.43977370012,21,5,24.282,1194.8578184192,26.574804,0.3131716,1.00473100328,0,0,-7.605596,68, 2.1, -2.3,0,0,1024,1024,1478,1341,0,0,69,48,0,0,0,97,,,,,,,30.224,91.4,1194.8578184192,26.574804,6,P-GPS,
7400,2024-04-10 20:20:40,39.0995037796068,-96.6134692285254,27.559056,,,1195.8420704192,27.230972,0,1.04991473176,2.52059391268,21,5,24.282,1195.8420704192,27.559056,0.3131716,1.04991473176,0,0,-7.605596,73.3, 2.5, -2,0,0,1024,1024,1499,1409,0,0,72,58,0,0,0,97,,,,,,,30.224,91.4,1195.8420704192,27.559056,6,P-GPS,
7500,2024-04-10 20:20:40,39.0995038091473,-96.6134691254347,28.543308,,,1196.8263224192,27.230972,0,1.07940620252,2.55170939924,21,5,24.282,1196.8263224192,28.543308,0.3131716,1.07940620252,0,0,-7.158208,77.5, 2.7, -1.7,0,0,1024,1024,1507,1431,0,0,73,62,0,0,0,97,,,,,,,30.224,91.4,1196.8263224192,28.543308,6,P-GPS,
7600,2024-04-10 20:20:40,39.099503775264,-96.6134691034064,29.855644,,,1198.1386584192,27.230972,0,1.08529531032,2.56555454404,21,5,24.282,1198.1386584192,29.855644,0.3131716,1.08529531032,0,0,-6.934514,81.4, 2.8, -1.3,0,0,1024,1024,1505,1459,0,0,73,66,0,0,0,97,,,,,,,30.224,91.4,1198.1386584192,29.855644,6,P-GPS,
7700,2024-04-10 20:20:40,39.0995037819489,-96.6134690175602,30.839896,,,1199.1229104192,27.230972,0,1.10964898564,2.58998367868,21,5,24.282,1199.1229104192,30.839896,0.3131716,1.10964898564,0,0,-6.934514,85.6, 3, -1.5,0,0,1024,1024,1498,1501,0,0,72,72,0,0,0,97,,,,,,,30.224,91.4,1199.1229104192,30.839896,6,P-GPS,
7800,2024-04-10 20:20:40,39.0995035958992,-96.6134688615747,31.824148,,,1200.1071624192,27.230972,0,1.15424216292,2.67096793324,21,5,24.282,1200.1071624192,31.824148,0.3131716,1.15424216292,0,0,-6.934514,90.2, 3.4, -2,0,0,1024,1024,1476,1502,0,0,68,72,0,0,0,97,,,,,,,30.224,91.4,1200.1071624192,31.824148,6,P-GPS,
7900,2024-04-10 20:20:41,39.0995035696548,-96.6134687931883,32.8084,,,1201.0914144192,27.230972,0,1.17396985384,2.6925689838,21,5,24.282,1201.0914144192,32.8084,0.3131716,1.17396985384,0,0,-6.934514,95.6, 3.6, -2.3,0,0,1024,1024,1456,1468,0,0,65,67,0,0,0,97,,,,,,,32.356,91.4,1201.0914144192,32.8084,6,P-GPS,
8000,2024-04-10 20:20:41,39.0995033764492,-96.6134686430302,33.792652,,,1202.0756664192,27.230972,0,1.22143376612,2.77488854024,21,5,24.282,1202.0756664192,33.792652,0.3131716,1.22143376612,0,0,-6.71082,101.2, 3.6, -2.1,0,0,1024,1024,1444,1404,0,0,64,58,0,0,0,97,,,,,,,32.356,91.4,1202.0756664192,33.792652,6,P-GPS,
8100,2024-04-10 20:20:41,39.0995033543945,-96.6134685819782,34.776904,,,1203.0599184192,27.230972,0,1.23944885856,2.79395678232,21,5,24.282,1203.0599184192,34.776904,0.3131716,1.23944885856,0,0,-6.487126,106.7, 3.7, -1.6,0,0,1024,1024,1396,1267,0,0,56,37,0,0,0,97,,,,,,,32.356,91.4,1203.0599184192,34.776904,6,P-GPS,
8200,2024-04-10 20:20:41,39.0995034548799,-96.613468614927,35.761156,,,1204.0441704192,27.230972,0,1.2268537138,2.83178486752,21,5,24.282,1204.0441704192,35.761156,0.3131716,1.23944885856,0,0,-6.263432,111.4, 3.6, -0.8,0,0,1024,1024,1396,1267,0,0,56,37,0,0,0,97,,,,,,,32.356,91.4,1204.0441704192,35.761156,6,P-GPS,
8300,2024-04-10 20:20:41,39.0995034636533,-96.6134685556795,36.745408,,,1205.0284224192,27.230972,0,1.24334649648,2.84886492056,21,5,24.282,1205.0284224192,36.745408,0.3131716,1.24334649648,0,0,-6.039738,115.1, 3.7, 0.1,0,0,1084,1024,1381,1209,9,0,54,28,0,0,0,97,,,,,,,32.356,91.4,1205.0284224192,36.745408,6,P-GPS,
8400,2024-04-10 20:20:41,39.0995032983839,-96.6134687505067,37.72966,,,1206.0126744192,27.230972,0,1.19439636368,2.93058736412,21,5,24.282,1206.0126744192,37.72966,0.3131716,1.24334649648,0,0,-5.59235,117.7, 3.9, 0.7,0,0,1222,1024,1362,1192,30,0,51,25,0,0,0,97,,,,,,,32.356,91.4,1206.0126744192,37.72966,6,P-GPS,
8500,2024-04-10 20:20:41,39.0995032911935,-96.6134687205738,38.385828,,,1206.6688424192,27.230972,0,1.2031332406,2.93946203632,21,5,24.282,1206.6688424192,38.385828,0.3131716,1.24334649648,0,0,-5.368656,120, 3.7, 0.7,0,0,1298,1024,1353,1156,42,0,50,20,0,0,0,97,,,,,,,32.356,91.4,1206.6688424192,38.385828,6,P-GPS,
8600,2024-04-10 20:20:41,39.0995034440245,-96.613468794247,39.37008,,,1207.6530944192,27.230972,0,1.17655187492,2.99899615896,21,5,24.282,1207.6530944192,39.37008,0.3131716,1.24334649648,0,0,-4.921268,121.6, 2.6, 0.2,0,0,1361,1024,1341,1141,51,0,48,18,0,0,0,97,,,,,,,32.356,91.4,1207.6530944192,39.37008,6,P-GPS,
8700,2024-04-10 20:20:41,39.0995034405439,-96.6134687629291,40.026248,,,1208.3092624192,27.230972,0,1.18549216392,3.00795285216,21,5,24.282,1208.3092624192,40.026248,0.3131716,1.24334649648,0,0,-4.697574,122.9, -0.4, 0,0,0,1379,1024,1328,1121,54,0,46,15,0,0,0,97,,,,,,,32.356,91.4,1208.3092624192,40.026248,6,P-GPS,
8800,2024-04-10 20:20:42,39.0995031564459,-96.613468867231,40.682416,,,1208.9654304192,27.230972,0.223694,1.16942589044,3.115731727,21,5,24.282,1208.9654304192,40.682416,0.3131716,1.24334649648,0,0.223694,-4.47388,123.7, -4.7, 0,0,0,1400,1024,1312,1102,57,0,44,12,0,0,0,97,,,,,,,32.356,91.4,1208.9654304192,40.682416,6,P-GPS,
8900,2024-04-10 20:20:42,39.0995030472341,-96.6134686716669,41.338584,,,1209.6215984192,27.230972,0.4921268,1.2312008268,3.18395023312,21,5,23.826,1209.6215984192,41.338584,0.4921268,1.24334649648,-0.223694,0.447388,-4.026492,124.3, -8.6, 0.3,0,0,1407,1024,1293,1068,58,0,41,7,0,0,0,97,,,,,,,20.364,91.4,1209.6215984192,41.338584,6,P-GPS,
9000,2024-04-10 20:20:42,39.0995025926533,-96.6134682859515,41.994752,,,1210.2777664192,27.230972,0.8052984,1.3780840336,3.38254604,21,5,23.826,1210.2777664192,41.994752,0.8052984,1.3780840336,-0.447388,0.671082,-3.802798,124.8, -11, 0.4,0,0,1406,1024,1276,1038,58,0,38,2,0,0,0,97,,,,,,,20.364,91.4,1210.2777664192,41.994752,6,P-GPS,
9100,2024-04-10 20:20:42,39.0995022534708,-96.6134677085037,42.322836,,,1210.6058504192,27.230972,1.2974252,1.57241474848,3.58759854,21,5,23.826,1210.6058504192,42.322836,1.2974252,1.57241474848,-0.671082,1.11847,-3.579104,125.1, -11.9, 0.6,0,0,1410,1024,1261,1024,58,0,36,0,0,0,0,97,,,,,,,20.364,91.4,1210.6058504192,42.322836,6,P-GPS,
9200,2024-04-10 20:20:42,39.0995017186001,-96.6134666387541,42.979004,,,1211.2620184192,27.230972,1.9237684,1.92514113772,3.9479003888,21,5,23.826,1211.2620184192,42.979004,1.9237684,1.92514113772,-1.11847,1.565858,-3.131716,125.2, -12, 0.6,0,0,1418,1024,1253,1024,60,0,35,0,0,0,0,97,,,,,,,20.364,91.4,1211.2620184192,42.979004,6,P-GPS,
9300,2024-04-10 20:20:42,39.0995011302237,-96.6134656222813,43.307088,,,1211.5901024192,27.230972,2.4158952,2.2744587342,4.3069555184,21,5,23.826,1211.5901024192,43.307088,2.4158952,2.2744587342,-1.342164,2.013246,-2.908022,125.2, -11.9, 0.6,0,0,1439,1024,1209,1024,63,0,28,0,0,0,0,97,,,,,,,20.364,91.4,1211.5901024192,43.307088,6,P-GPS,
9400,2024-04-10 20:20:42,39.099500374583,-96.6134643352841,43.963256,,,1212.2462704192,27.230972,2.8632832,2.72211950968,4.7638781052,21,5,23.826,1212.2462704192,43.963256,2.8632832,2.72211950968,-1.789552,2.23694,-2.684328,125.1, -12.1, 0.5,0,0,1454,1024,1185,1024,65,0,24,0,0,0,0,97,,,,,,,20.364,91.4,1212.2462704192,43.963256,6,P-GPS,
9500,2024-04-10 20:20:42,39.0994995270009,-96.6134628835147,44.29134,,,1212.5743544192,27.230972,2.8632832,3.22938658628,5.2782810088,21,5,23.826,1212.5743544192,44.29134,2.8632832,3.22938658628,-2.013246,2.684328,-2.460634,125, -12.3, 0.3,0,0,1457,1024,1177,1024,66,0,23,0,0,0,0,97,,,,,,,20.364,91.4,1212.5743544192,44.29134,6,P-GPS,
9600,2024-04-10 20:20:42,39.099498469804,-96.6134611448912,44.619424,,,1212.9024384192,27.230972,3.8475368,3.8469817504,5.9036747296,21,5,23.826,1212.9024384192,44.619424,3.8475368,3.8469817504,-2.23694,3.131716,-2.013246,125.1, -12.7, 0.1,0,0,1457,1024,1177,1024,66,0,23,0,0,0,0,97,,,,,,,20.364,91.4,1212.9024384192,44.619424,6,P-GPS,
9700,2024-04-10 20:20:42,39.0994973689033,-96.6134592591919,44.947508,,,1213.2305224192,27.230972,4.47388,4.5106956824,6.5718177956,21,5,23.826,1213.2305224192,44.947508,4.47388,4.5106956824,-2.684328,3.579104,-1.789552,125.1, -13.4, 0,0,0,1457,1024,1180,1024,66,0,24,0,0,0,0,97,,,,,,,20.364,91.4,1213.2305224192,44.947508,6,P-GPS,
9800,2024-04-10 20:20:42,39.0994959823583,-96.6134571735484,44.947508,,,1213.2305224192,27.230972,4.9660068,5.2787403264,7.349409684,21,5,23.826,1213.2305224192,44.947508,4.9660068,5.2787403264,-2.908022,4.026492,-1.565858,125.2, -13.9, 0,0,0,1434,1024,1164,1024,62,0,21,0,0,0,0,97,,,,,,,20.364,91.4,1213.2305224192,44.947508,6,P-GPS,
9900,2024-04-10 20:20:43,39.0994946071688,-96.6134548159721,45.275592,,,1213.5586064192,27.230972,5.59235,6.1114175184,8.1844490808,21,5,24.12,1213.5586064192,45.275592,5.59235,6.1114175184,-3.35541,4.47388,-1.342164,125.2, -13.8, 0,0,0,1439,1024,1152,1024,63,0,19,0,0,0,0,97,,,,,,,20.006,91.4,1213.5586064192,45.275592,6,P-GPS,
10000,2024-04-10 20:20:43,39.0994929955461,-96.6134521806904,45.603676,,,1213.8866904192,27.230972,6.0844768,7.0578742416,9.1344491112,21,5,24.12,1213.8866904192,45.603676,6.0844768,7.0578742416,-3.579104,4.921268,-1.11847,125.2, -13, 0,0,0,1445,1024,1136,1024,64,0,17,0,0,0,0,97,,,,,,,20.006,91.4,1213.8866904192,45.603676,6,P-GPS,
10100,2024-04-10 20:20:43,39.0994913531909,-96.6134493482014,45.603676,,,1213.8866904192,27.230972,6.71082,8.0576774232,10.1355974372,21,5,24.12,1213.8866904192,45.603676,6.71082,8.0576774232,-4.026492,5.368656,-0.894776,125.2, -12.1, 0,0,0,1439,1024,1133,1024,63,0,17,0,0,0,0,97,,,,,,,20.006,91.4,1213.8866904192,45.603676,6,P-GPS,
10200,2024-04-10 20:20:43,39.099489489114,-96.6134462185742,45.603676,,,1213.8866904192,27.230972,6.71082,9.172900556,11.252625032,21,5,24.12,1213.8866904192,45.603676,6.71082,9.172900556,-4.250186,5.816044,-0.894776,125.3, -11.6, 0,0,0,1444,1024,1102,1024,64,0,12,0,0,0,0,97,,,,,,,20.006,91.4,1213.8866904192,45.603676,6,P-GPS,
10300,2024-04-10 20:20:43,39.0994876058063,-96.6134429623186,45.93176,,,1214.2147744192,27.230972,7.82929,10.3219819576,12.4024938352,21,5,24.12,1214.2147744192,45.93176,7.82929,10.3219819576,-4.697574,6.263432,-0.671082,125.3, -11.5, 0,0,0,1442,1024,1098,1024,63,0,11,0,0,0,0,97,,,,,,,20.006,91.4,1214.2147744192,45.93176,6,P-GPS,
10400,2024-04-10 20:20:43,39.099485411176,-96.6134393363127,45.93176,,,1214.2147744192,27.230972,8.3214168,11.6221132328,13.7044951892,21,5,24.12,1214.2147744192,45.93176,8.3214168,11.6221132328,-4.921268,6.71082,-0.447388,125.3, -11.4, -0.1,0,0,1437,1024,1062,1024,63,0,6,0,0,0,0,97,,,,,,,20.006,91.4,1214.2147744192,45.93176,6,P-GPS,
10500,2024-04-10 20:20:43,39.0994832968647,-96.6134356653215,45.93176,,,1214.2147744192,27.230972,8.8135436,12.9161093372,14.9988849944,21,5,24.12,1214.2147744192,45.93176,8.8135436,12.9161093372,-5.144962,7.158208,-0.447388,125.3, -11.3, -0.1,0,0,1426,1024,1024,1024,61,0,0,0,0,0,0,97,,,,,,,20.006,91.4,1214.2147744192,45.93176,6,P-GPS,
10600,2024-04-10 20:20:43,39.0994810839331,-96.6134318618087,45.93176,,,1214.2147744192,27.230972,9.1267152,14.2615818212,16.3448496044,21,5,24.12,1214.2147744192,45.93176,9.1267152,14.2615818212,-5.368656,7.381902,-0.223694,125.4, -11, -0.1,0,0,1426,1024,1024,1024,61,0,0,0,0,0,0,97,,,,,,,20.006,91.4,1214.2147744192,45.93176,6,P-GPS,
10700,2024-04-10 20:20:43,39.0994787710811,-96.613427825996,45.93176,,,1214.2147744192,27.230972,9.618842,15.6818574572,17.7653548992,21,5,24.12,1214.2147744192,45.93176,9.618842,15.6818574572,-5.59235,7.82929,-0.223694,125.4, -10.7, 0,0,0,1418,1024,1024,1024,60,0,0,0,0,0,0,97,,,,,,,20.006,91.4,1214.2147744192,45.93176,6,P-GPS,
10800,2024-04-10 20:20:43,39.0994761628287,-96.6134235754016,46.259844,,,1214.5428584192,27.230972,9.9320136,17.214403438,19.2996397252,21,5,24.12,1214.5428584192,46.259844,9.9320136,17.214403438,-5.816044,8.052984,0,125.4, -10.2, 0,0,0,1397,1024,1024,1024,57,0,0,0,0,0,0,97,,,,,,,20.006,91.4,1214.5428584192,46.259844,6,P-GPS,
10900,2024-04-10 20:20:44,39.0994736478232,-96.6134191950371,45.93176,,,1214.2147744192,27.230972,10.4241404,18.757054406,20.8424547352,21,5,24.06,1214.5428584192,46.259844,10.4241404,18.757054406,-6.039738,8.500372,0,125.3, -9.8, 0,0,0,1411,1024,1024,981,59,0,0,-7,0,0,0,97,,,,,,,17.01,91.4,1214.2147744192,45.93176,6,P-GPS,
11000,2024-04-10 20:20:44,39.0994710861557,-96.6134146005338,45.93176,,,1214.2147744192,27.230972,10.737312,20.3588917276,22.4442920568,21,5,24.06,1214.5428584192,46.259844,10.737312,20.3588917276,-6.263432,8.724066,0,125.3, -9.1, 0,0,0,1416,1024,1024,979,59,0,0,-7,0,0,0,97,,,,,,,17.01,91.4,1214.2147744192,45.93176,6,P-GPS,
11100,2024-04-10 20:20:44,39.0994684079509,-96.613409911424,45.93176,,,1214.2147744192,27.230972,11.0504836,22.0073169772,24.0927829232,21,5,24.06,1214.5428584192,46.259844,11.0504836,22.0073169772,-6.487126,8.94776,0,125.2, -8.7, -0.4,0,0,1419,1024,1024,982,60,0,0,-6,0,0,0,97,,,,,,,17.01,91.4,1214.2147744192,45.93176,6,P-GPS,
11200,2024-04-10 20:20:44,39.0994655291131,-96.6134050820461,45.93176,,,1214.2147744192,27.230972,11.5426104,23.7308406544,25.8170283852,21,5,24.06,1214.5428584192,46.259844,11.5426104,23.7308406544,-6.71082,9.395148,0,125, -8.6, -1.1,0,0,1406,1024,1024,1004,58,0,0,-3,0,0,0,97,,,,,,,17.01,91.4,1214.2147744192,45.93176,6,P-GPS,
11300,2024-04-10 20:20:44,39.0994627094745,-96.6134001025482,45.93176,,,1214.2147744192,27.230972,11.7215656,25.4761491092,27.56233684,21,5,24.06,1214.5428584192,46.259844,11.7215656,25.4761491092,-6.71082,9.618842,0,124.8, -8.7, -1,0,0,1355,1024,1024,947,50,0,0,-12,0,0,0,97,,,,,,,17.01,91.4,1214.2147744192,45.93176,6,P-GPS,
11400,2024-04-10 20:20:44,39.0994596832277,-96.6133950901386,45.93176,,,1214.2147744192,27.230972,12.0347372,27.2733604528,29.3604996272,21,5,24.06,1214.5428584192,46.259844,12.0347372,27.2733604528,-6.934514,9.842536,0,124.6, -8.5, -1.4,0,0,1344,1024,1024,863,48,0,0,-24,0,0,0,97,,,,,,,17.01,91.4,1214.2147744192,45.93176,6,P-GPS,
11500,2024-04-10 20:20:44,39.0994567319983,-96.61338982963,45.93176,,,1214.2147744192,27.230972,12.3479088,29.1112542124,31.1983933868,21,5,24.06,1214.5428584192,46.259844,12.3479088,29.1112542124,-7.158208,10.06623,0,124.2, -7.5, -3,0,0,1343,1024,1024,981,48,0,0,-7,0,0,0,97,,,,,,,17.01,91.4,1214.2147744192,45.93176,6,P-GPS,
11600,2024-04-10 20:20:44,39.0994537108229,-96.6133843746205,45.93176,,,1214.2147744192,27.230972,12.7281886,31.008695218,33.095801584,21,5,24.06,1214.5428584192,46.259844,12.7281886,31.008695218,-7.158208,10.513618,0,123.4, -6.1, -6.2,0,0,1340,1024,1024,963,48,0,0,-9,0,0,0,97,,,,,,,17.01,91.4,1214.2147744192,45.93176,6,P-GPS,
11700,2024-04-10 20:20:44,39.0994507607413,-96.6133788137892,45.93176,,,1214.2147744192,27.230972,12.7729274,32.9150273,35.00328196,21,5,24.06,1214.5428584192,46.259844,12.7729274,32.9150273,-6.934514,10.737312,0,122.4, -5.3, -5.5,0,0,1330,1024,1024,1024,46,0,0,0,0,0,0,97,,,,,,,17.01,91.4,1214.2147744192,45.93176,6,P-GPS,
11800,2024-04-10 20:20:45,39.0994479179901,-96.6133728930981,45.93176,,,1214.2147744192,27.230972,12.974252,34.881562796,36.974410632,21,5,24.06,1214.5428584192,46.259844,12.974252,34.881562796,-6.934514,10.961006,0,121.8, -4.9, -3.5,0,0,1297,1024,1024,1024,41,0,0,0,0,0,0,97,,,,,,,17.01,91.4,1214.2147744192,45.93176,6,P-GPS,
11900,2024-04-10 20:20:45,39.0994450181257,-96.6133670801275,45.93176,,,1214.2147744192,27.230972,13.1532072,36.8356311,38.931103608,21,5,24.054,1214.5428584192,46.259844,13.1532072,36.8356311,-6.934514,11.1847,0,121.4, -4.7, -0.9,0,0,1278,1024,1024,1024,38,0,0,0,0,0,0,97,,,,,,,17.936,91.58,1214.2147744192,45.93176,6,P-GPS,
12000,2024-04-10 20:20:45,39.0994420703229,-96.6133610475653,45.93176,,,1214.2147744192,27.230972,13.1532072,38.850723028,40.949476376,21,5,24.054,1214.5428584192,46.259844,13.1532072,38.850723028,-6.934514,11.1847,0,121.3, -4.1, 0,0,0,1256,1024,1024,988,35,0,0,-5,0,0,0,97,,,,,,,17.936,91.58,1214.2147744192,45.93176,6,P-GPS,
12100,2024-04-10 20:20:45,39.0994391117604,-96.6133551037206,45.93176,,,1214.2147744192,27.230972,13.4663788,40.84809842,42.948820272,21,5,24.054,1214.5428584192,46.259844,13.4663788,40.84809842,-7.158208,11.408394,0,121.3, -3.1, 0.2,0,0,1252,1024,1024,937,35,0,0,-13,0,0,0,97,,,,,,,17.936,91.58,1214.2147744192,45.93176,6,P-GPS,
12200,2024-04-10 20:20:45,39.0994362759696,-96.6133492710902,45.93176,,,1214.2147744192,27.230972,13.4663788,42.793964624,44.897639232,21,5,24.054,1214.5428584192,46.259844,13.4663788,42.793964624,-7.158208,11.408394,0,121.2, -2.1, -0.3,0,0,1237,1024,1024,1002,32,0,0,-3,0,0,0,97,,,,,,,17.936,91.58,1214.2147744192,45.93176,6,P-GPS,
12300,2024-04-10 20:20:45,39.0994333175313,-96.6133432873961,45.93176,,,1214.2147744192,27.230972,13.3545318,44.800854452,46.906497564,20,5,24.054,1214.5428584192,46.259844,13.4663788,44.800854452,-6.934514,11.408394,0,120.9, -1.3, -2.7,0,0,1247,1024,1024,1011,34,0,0,-2,0,0,0,97,,,,,,,17.936,91.58,1214.2147744192,45.93176,6,P-GPS,
12400,2024-04-10 20:20:45,39.0994304510679,-96.613337384582,45.93176,,,1214.2147744192,27.230972,13.3545318,46.77001462,48.878282404,20,5,24.054,1214.5428584192,46.259844,13.4663788,46.77001462,-6.934514,11.408394,0,120.5, -0.9, -2.4,0,0,1225,1024,1024,1024,30,0,0,0,0,0,0,97,,,,,,,17.936,91.58,1214.2147744192,45.93176,6,P-GPS,
12500,2024-04-10 20:20:45,39.0994275656981,-96.6133313651558,45.93176,,,1214.2147744192,27.230972,13.2426848,48.770342768,50.881563308,20,5,24.054,1214.5428584192,46.259844,13.4663788,48.770342768,-6.71082,11.408394,0,120.2, -0.6, -1.6,0,0,1239,1024,1024,866,33,0,0,-24,0,0,0,97,,,,,,,17.936,91.58,1214.2147744192,45.93176,6,P-GPS,
12600,2024-04-10 20:20:45,39.0994242899932,-96.6133246629343,45.93176,,,1214.2147744192,27.230972,13.2426848,51.011156488,53.124017448,20,5,24.054,1214.5428584192,46.259844,13.4663788,51.011156488,-6.71082,11.408394,0,120, -0.3, -2,0,0,1241,1024,1024,874,33,0,0,-23,0,0,0,97,,,,,,,17.936,91.58,1214.2147744192,45.93176,6,P-GPS,
12700,2024-04-10 20:20:45,39.0994214164366,-96.6133185864493,45.93176,,,1214.2147744192,27.230972,13.2426848,53.022639492,55.138781292,20,5,24.054,1214.5428584192,46.259844,13.4663788,53.022639492,-6.71082,11.408394,0,119.4, 0, -4.9,0,0,1235,1024,1024,898,32,0,0,-19,0,0,0,97,,,,,,,17.936,91.58,1214.2147744192,45.93176,6,P-GPS,
12800,2024-04-10 20:20:46,39.0994190166106,-96.6133132710345,45.93176,,,1214.2147744192,27.230972,13.309793,54.759188104,56.87992308,20,5,24.054,1214.5428584192,46.259844,13.4663788,54.759188104,-6.487126,11.632088,0,118.4, 0, -7.1,0,0,1229,1024,1024,972,31,0,0,-8,0,0,0,97,,,,,,,17.936,91.58,1214.2147744192,45.93176,6,P-GPS,
12900,2024-04-10 20:20:46,39.0994163669238,-96.6133071981812,45.93176,,,1214.2147744192,27.230972,13.1084684,56.724411264,58.852692172,21,5,24.024,1214.5428584192,46.259844,13.4663788,56.724411264,-6.039738,11.632088,0,117.2, 0, -6.9,0,0,1239,1024,1024,1018,33,0,0,-1,0,0,0,97,,,,,,,19.402,91.58,1214.2147744192,45.93176,6,P-GPS,
13000,2024-04-10 20:20:46,39.0994136018198,-96.6133006761767,45.93176,,,1214.2147744192,27.230972,13.1084684,58.819227604,60.957022948,21,5,24.024,1214.5428584192,46.259844,13.4663788,58.819227604,-5.816044,11.632088,0,116.4, 0, -3.9,0,0,1247,1024,1024,1024,34,0,0,0,0,0,0,97,,,,,,,19.402,91.58,1214.2147744192,45.93176,6,P-GPS,
13100,2024-04-10 20:20:46,39.0994110909883,-96.6132945259094,45.93176,,,1214.2147744192,27.230972,12.9966214,60.775592496,62.924542696,21,5,24.024,1214.5428584192,46.259844,13.4663788,60.775592496,-5.816044,11.632088,0,116, 0, -1.2,0,0,1254,1024,1024,1024,35,0,0,0,0,0,0,97,,,,,,,19.402,91.58,1214.2147744192,45.93176,6,P-GPS,
13200,2024-04-10 20:20:46,39.0994088785557,-96.6132888075179,45.93176,,,1214.2147744192,27.230972,12.9966214,62.57054006,64.733925956,21,5,24.024,1214.5428584192,46.259844,13.4663788,62.57054006,-5.816044,11.632088,0,115.8, 0, -0.2,0,0,1208,1024,1024,1024,28,0,0,0,0,0,0,97,,,,,,,19.402,91.58,1214.2147744192,45.93176,6,P-GPS,
13300,2024-04-10 20:20:46,39.0994064203999,-96.6132827426786,45.93176,,,1214.2147744192,27.230972,12.9966214,64.497705476,66.670933892,21,5,24.024,1214.5428584192,46.259844,13.4663788,64.497705476,-5.816044,11.632088,0,115.8, -0.4, 0,0,0,1201,1024,1024,1024,27,0,0,0,0,0,0,97,,,,,,,19.402,91.58,1214.2147744192,45.93176,6,P-GPS,
13400,2024-04-10 20:20:46,39.0994039491716,-96.6132767470958,45.93176,,,1214.2147744192,27.230972,12.7952968,66.411419448,68.593178048,21,5,24.024,1214.5428584192,46.259844,13.4663788,66.411419448,-5.816044,11.408394,0,115.8, -0.3, -0.2,0,0,1226,1024,1024,1024,31,0,0,0,0,0,0,97,,,,,,,19.402,91.58,1214.2147744192,45.93176,6,P-GPS,
13500,2024-04-10 20:20:46,39.099401516904,-96.6132707244573,45.93176,,,1214.2147744192,27.230972,12.7058192,68.324477252,70.515750288,21,5,24.024,1214.5428584192,46.259844,13.4663788,68.324477252,-5.59235,11.408394,0,115.9, 0.2, -0.4,0,0,1230,1024,1024,984,31,0,0,-6,0,0,0,97,,,,,,,19.402,91.58,1214.2147744192,45.93176,6,P-GPS,
13600,2024-04-10 20:20:46,39.0993991215326,-96.6132647787139,45.93176,,,1214.2147744192,27.230972,12.7058192,70.212272588,72.412403892,21,5,24.024,1214.5428584192,46.259844,13.4663788,70.212272588,-5.59235,11.408394,0,115.9, 0.8, -0.6,0,0,1223,1024,1024,1024,30,0,0,0,0,0,0,97,,,,,,,19.402,91.58,1214.2147744192,45.93176,6,P-GPS,
13700,2024-04-10 20:20:46,39.0993967218436,-96.6132588344277,45.93176,,,1214.2147744192,27.230972,12.5044946,72.10138026,74.309713664,21,5,24.024,1214.5428584192,46.259844,13.4663788,72.10138026,-5.59235,11.1847,0,115.7, 0.9, -1.8,0,0,1180,1024,1024,1024,24,0,0,0,0,0,0,97,,,,,,,19.402,91.58,1214.2147744192,45.93176,6,P-GPS,
13800,2024-04-10 20:20:46,39.09939436539,-96.6132532524738,45.93176,,,1214.2147744192,27.230972,12.415017,73.895671656,76.10892632,21,5,24.024,1214.5428584192,46.259844,13.4663788,73.895671656,-5.368656,11.1847,0,115.6, 0.7, -0.8,0,0,1117,1024,1024,1024,14,0,0,0,0,0,0,97,,,,,,,19.402,91.58,1214.2147744192,45.93176,6,P-GPS,
13900,2024-04-10 20:20:47,39.099392025744,-96.6132474016627,45.93176,,,1214.2147744192,27.230972,12.415017,75.75131476,77.97244344,21,5,23.928,1214.5428584192,46.259844,13.4663788,75.75131476,-5.368656,11.1847,0,115.6, 0.8, -0.3,0,0,1074,1024,1024,1024,8,0,0,0,0,0,0,97,,,,,,,19.704,91.58,1214.2147744192,45.93176,6,P-GPS,
14000,2024-04-10 20:20:47,39.0993896345787,-96.613241366396,45.93176,,,1214.2147744192,27.230972,12.415017,77.661091724,79.891078672,21,5,23.928,1214.5428584192,46.259844,13.4663788,77.661091724,-5.368656,11.1847,0,115.6, 2, -0.2,0,0,1042,1024,1024,1024,3,0,0,0,0,0,0,97,,,,,,,19.704,91.58,1214.2147744192,45.93176,6,P-GPS,
14100,2024-04-10 20:20:47,39.099387327023,-96.6132356033863,45.93176,,,1214.2147744192,27.230972,12.2136924,79.490160024,81.72736482,21,5,23.928,1214.5428584192,46.259844,13.4663788,79.490160024,-5.368656,10.961006,0,115.6, 3.9, -0.3,0,0,1054,1024,1024,1024,5,0,0,0,0,0,0,97,,,,,,,19.704,91.58,1214.2147744192,45.93176,6,P-GPS,
14200,2024-04-10 20:20:47,39.0993850595759,-96.6132298651252,45.93176,,,1214.2147744192,27.230972,12.0123678,81.30577688,83.550527608,21,5,23.928,1214.5428584192,46.259844,13.4663788,81.30577688,-5.368656,10.737312,0,115.6, 6.6, -0.5,0,0,1045,1024,1024,1024,3,0,0,0,0,0,0,97,,,,,,,19.704,91.58,1214.2147744192,45.93176,6,P-GPS,
14300,2024-04-10 20:20:47,39.0993828496447,-96.6132243280102,45.93176,,,1214.2147744192,27.230972,11.6991962,83.062338616,85.31332294,21,5,23.928,1214.5428584192,46.259844,13.4663788,83.062338616,-5.144962,10.513618,0,115.7, 18.4, -0.3,0,0,1026,1024,1024,1024,0,0,0,0,0,0,0,97,,,,,,,19.704,91.58,1214.2147744192,45.93176,6,P-GPS,
14400,2024-04-10 20:20:47,39.0993807202904,-96.6132189466062,45.93176,,,1214.2147744192,27.230972,11.0057448,84.766078828,87.023624832,21,5,23.928,1214.5428584192,46.259844,13.4663788,84.766078828,-4.921268,9.842536,0.447388,116.3, 23.5, 2.3,0,0,1038,1024,1024,1024,2,0,0,0,0,0,0,97,,,,,,,19.704,91.58,1214.2147744192,45.93176,6,P-GPS,
14500,2024-04-10 20:20:47,39.0993787702513,-96.6132141953981,45.93176,,,1214.2147744192,27.230972,9.7977972,86.284123496,88.545606508,21,5,23.928,1214.5428584192,46.259844,13.4663788,86.284123496,-4.47388,8.724066,0.223694,116.2, 24.3, 0.2,0,0,1044,1024,1024,1024,3,0,0,0,0,0,0,97,,,,,,,19.704,91.58,1214.2147744192,45.93176,6,P-GPS,
14600,2024-04-10 20:20:47,39.0993769747699,-96.6132101151629,45.93176,,,1214.2147744192,27.230972,8.8135436,87.611223276,89.87369054,21,5,23.928,1214.5428584192,46.259844,13.4663788,87.611223276,-4.026492,7.82929,0,115.7, 23.7, -1.5,0,0,1041,1024,1024,1024,3,0,0,0,0,0,0,97,,,,,,,19.704,91.58,1214.2147744192,45.93176,6,P-GPS,
14700,2024-04-10 20:20:47,39.0993753910794,-96.6132063279373,45.93176,,,1214.2147744192,27.230972,7.8069206,88.82710258,91.091866432,21,5,23.928,1214.5428584192,46.259844,13.4663788,88.82710258,-3.579104,6.934514,0,115.4, 22.1, -2,0,0,1034,1024,1024,1024,2,0,0,0,0,0,0,97,,,,,,,19.704,91.58,1214.2147744192,45.93176,6,P-GPS,
14800,2024-04-10 20:20:47,39.0993738958643,-96.6132034126541,45.93176,,,1214.2147744192,27.230972,6.8002976,89.815947756,92.081039692,21,5,23.928,1214.5428584192,46.259844,13.4663788,89.815947756,-3.131716,6.039738,0,115.2, 21.6, -1.8,0,0,1054,1024,1024,1024,5,0,0,0,0,0,0,97,,,,,,,19.704,91.58,1214.2147744192,45.93176,6,P-GPS,
14900,2024-04-10 20:20:48,39.0993726736311,-96.613200516291,45.93176,,,1214.2147744192,27.230972,5.9949992,90.7480344,93.014766756,21,5,23.934,1214.5428584192,46.259844,13.4663788,90.7480344,-2.684328,5.368656,-0.223694,115.2, 21.4, -1.2,0,0,1077,1024,1024,1024,8,0,0,0,0,0,0,97,,,,,,,18.812,91.58,1214.2147744192,45.93176,6,P-GPS,
15000,2024-04-10 20:20:48,39.0993716266267,-96.6131982014215,45.93176,,,1214.2147744192,27.230972,5.0107456,91.506236524,93.773296964,21,5,23.934,1214.5428584192,46.259844,13.4663788,91.506236524,-2.23694,4.47388,-0.223694,115.3, 19.9, -0.6,0,0,1063,1024,1024,1024,6,0,0,0,0,0,0,97,,,,,,,18.812,91.58,1214.2147744192,45.93176,6,P-GPS,
15100,2024-04-10 20:20:48,39.0993706987746,-96.6131960693961,45.93176,,,1214.2147744192,27.230972,4.2949248,92.197837596,94.465554204,21,5,23.934,1214.5428584192,46.259844,13.4663788,92.197837596,-2.013246,3.802798,0,115.4, 15.3, -0.3,0,0,1084,1024,1024,1024,9,0,0,0,0,0,0,97,,,,,,,18.812,91.58,1214.2147744192,45.93176,6,P-GPS,
15200,2024-04-10 20:20:48,39.0993699461856,-96.6131938681364,45.93176,,,1214.2147744192,27.230972,3.802798,92.8723783,95.146656588,21,5,23.934,1214.5428584192,46.259844,13.4663788,92.8723783,-1.789552,3.35541,0,115.5, 10.4, -0.4,0,0,1088,1024,1024,1024,10,0,0,0,0,0,0,97,,,,,,,18.812,91.58,1214.2147744192,45.93176,6,P-GPS,
15300,2024-04-10 20:20:48,39.0993691823059,-96.6131921360853,45.93176,,,1214.2147744192,27.230972,3.5119958,93.436026612,95.710632984,21,5,23.934,1214.5428584192,46.259844,13.4663788,93.436026612,-1.565858,3.131716,0,115.6, 7.3, -0.7,0,0,1074,1024,1024,1024,8,0,0,0,0,0,0,97,,,,,,,18.812,91.58,1214.2147744192,45.93176,6,P-GPS,
15400,2024-04-10 20:20:48,39.0993684827782,-96.6131905813368,45.93176,,,1214.2147744192,27.230972,3.5119958,93.944556812,96.219491268,21,5,23.934,1214.5428584192,46.259844,13.4663788,93.944556812,-1.565858,3.131716,0,115.6, 6.1, -0.8,0,0,1068,1024,1024,1024,7,0,0,0,0,0,0,97,,,,,,,18.812,91.58,1214.2147744192,45.93176,6,P-GPS,
15500,2024-04-10 20:20:48,39.099367797351,-96.6131890481577,45.93176,,,1214.2147744192,27.230972,3.1988242,94.44554108,96.720475536,21,5,23.934,1214.5428584192,46.259844,13.4663788,94.44554108,-1.342164,2.908022,0,115.6, 6.2, -0.8,0,0,1091,1024,1024,1024,10,0,0,0,0,0,0,97,,,,,,,18.812,91.58,1214.2147744192,45.93176,6,P-GPS,
15600,2024-04-10 20:20:48,39.0993673171014,-96.6131877331023,45.93176,,,1214.2147744192,27.230972,2.9974996,94.854333744,97.131892872,21,5,23.934,1214.5428584192,46.259844,13.4663788,94.854333744,-1.342164,2.684328,0,115.6, 6.7, -0.8,0,0,1166,1024,1024,1024,22,0,0,0,0,0,0,97,,,,,,,18.812,91.58,1214.2147744192,45.93176,6,P-GPS,
15700,2024-04-10 20:20:48,39.0993667094071,-96.6131863792129,45.93176,,,1214.2147744192,27.230972,2.7066974,95.29691906,97.574806272,21,5,23.934,1214.5428584192,46.259844,13.4663788,95.29691906,-1.11847,2.460634,0,115.6, 6.5, -0.7,0,0,1221,1024,1024,1024,30,0,0,0,0,0,0,97,,,,,,,18.812,91.58,1214.2147744192,45.93176,6,P-GPS,
15800,2024-04-10 20:20:49,39.099366038406,-96.6131847719867,45.93176,,,1214.2147744192,27.230972,2.5053728,95.812995192,98.091538572,21,5,23.934,1214.5428584192,46.259844,13.4663788,95.812995192,-1.11847,2.23694,0,115.6, 5.6, -0.7,0,0,1277,1024,1024,1024,38,0,0,0,0,0,0,97,,,,,,,18.812,91.58,1214.2147744192,45.93176,6,P-GPS,
15900,2024-04-10 20:20:49,39.0993654700665,-96.613183523428,45.93176,,,1214.2147744192,27.230972,2.3040482,96.222772108,98.501315488,21,5,23.928,1214.5428584192,46.259844,13.4663788,96.222772108,-1.11847,2.013246,0,115.6, 3.8, -0.8,0,0,1311,1024,1024,1024,43,0,0,0,0,0,0,97,,,,,,,24.43,91.76,1214.2147744192,45.93176,6,P-GPS,
16000,2024-04-10 20:20:49,39.0993649696084,-96.6131825242323,45.93176,,,1214.2147744192,27.230972,2.3040482,96.559386292,98.837929672,21,5,23.928,1214.5428584192,46.259844,13.4663788,96.559386292,-1.11847,2.013246,0,115.7, 1.2, -0.9,0,0,1318,1024,1024,1024,45,0,0,0,0,0,0,97,,,,,,,24.43,91.76,1214.2147744192,45.93176,6,P-GPS,
16100,2024-04-10 20:20:49,39.0993644103666,-96.6131812982587,45.93176,,,1214.2147744192,27.230972,2.5053728,96.96194536,99.240816824,21,5,23.928,1214.5428584192,46.259844,13.4663788,96.96194536,-1.11847,2.23694,0,115.7, -1.7, -1,0,0,1338,1024,1024,1024,48,0,0,0,0,0,0,97,,,,,,,24.43,91.76,1214.2147744192,45.93176,6,P-GPS,
16200,2024-04-10 20:20:49,39.0993640010052,-96.6131801366184,45.93176,,,1214.2147744192,27.230972,2.5053728,97.320213088,99.602037308,21,5,23.928,1214.5428584192,46.259844,13.4663788,97.320213088,-1.11847,2.23694,0,115.7, -4.3, -1,0,0,1350,1024,1024,1024,49,0,0,0,0,0,0,97,,,,,,,24.43,91.76,1214.2147744192,45.93176,6,P-GPS,
16300,2024-04-10 20:20:49,39.0993633940477,-96.6131787351746,45.93176,,,1214.2147744192,27.230972,2.9974996,97.774281344,100.056433648,21,5,23.928,1214.5428584192,46.259844,13.4663788,97.774281344,-1.342164,2.684328,0,115.8, -6, -0.8,0,0,1425,1024,1024,1024,61,0,0,0,0,0,0,97,,,,,,,24.43,91.76,1214.2147744192,45.93176,6,P-GPS,
16400,2024-04-10 20:20:49,39.0993627096742,-96.6131772029451,45.93176,,,1214.2147744192,27.230972,3.3106712,98.274609444,100.557089832,21,5,23.928,1214.5428584192,46.259844,13.4663788,98.274609444,-1.565858,2.908022,0,115.8, -6.8, -0.7,0,0,1447,1024,1024,1024,64,0,0,0,0,0,0,97,,,,,,,24.43,91.76,1214.2147744192,45.93176,6,P-GPS,
16500,2024-04-10 20:20:49,39.0993619858689,-96.6131755054891,45.93176,,,1214.2147744192,27.230972,3.6014734,98.822509724,101.105318196,21,5,23.928,1214.5428584192,46.259844,13.4663788,98.822509724,-1.789552,3.131716,0,115.9, -7.5, -0.8,0,0,1435,1024,1024,1024,62,0,0,0,0,0,0,97,,,,,,,24.43,91.76,1214.2147744192,45.93176,6,P-GPS,
16600,2024-04-10 20:20:49,39.0993612109727,-96.6131734479527,45.93176,,,1214.2147744192,27.230972,4.0041226,99.4668667,101.752956012,21,5,23.928,1214.5428584192,46.259844,13.4663788,99.4668667,-1.789552,3.579104,0,116.1, -8.8, -1.1,0,0,1420,1024,1024,1024,60,0,0,0,0,0,0,97,,,,,,,24.43,91.76,1214.2147744192,45.93176,6,P-GPS,
16700,2024-04-10 20:20:49,39.0993603602025,-96.6131713744323,45.93176,,,1214.2147744192,27.230972,4.0041226,100.12959638,102.416998028,21,5,23.928,1214.5428584192,46.259844,13.4663788,100.12959638,-2.013246,3.802798,0,116.1, -10, -1.3,0,0,1439,1024,1024,1024,63,0,0,0,0,0,0,97,,,,,,,24.43,91.76,1214.2147744192,45.93176,6,P-GPS,
16800,2024-04-10 20:20:49,39.0993593577871,-96.6131689782304,45.93176,,,1214.2147744192,27.230972,4.809421,100.899281444,103.187667344,21,5,23.928,1214.5428584192,46.259844,13.4663788,100.899281444,-2.23694,4.250186,0,116.2, -10.5, -1.4,0,0,1484,1024,1024,1024,70,0,0,0,0,0,0,97,,,,,,,24.43,91.76,1214.2147744192,45.93176,6,P-GPS,
16900,2024-04-10 20:20:50,39.0993583573506,-96.6131664484389,45.93176,,,1214.2147744192,27.230972,5.2120702,101.700790656,103.991801228,21,5,23.91,1214.5428584192,46.259844,13.4663788,101.700790656,-2.23694,4.697574,0,116.1, -10.4, -1.4,0,0,1514,1024,1024,1024,74,0,0,0,0,0,0,97,,,,,,,19.658,91.76,1214.2147744192,45.93176,6,P-GPS,
17000,2024-04-10 20:20:50,39.0993574332592,-96.6131636559718,45.93176,,,1214.2147744192,27.230972,5.704197,102.551184384,104.851381308,21,5,23.91,1214.5428584192,46.259844,13.4663788,102.551184384,-2.460634,5.144962,0,116, -10.6, -1.3,0,0,1533,1024,1024,1024,77,0,0,0,0,0,0,97,,,,,,,19.658,91.76,1214.2147744192,45.93176,6,P-GPS,
17100,2024-04-10 20:20:50,39.0993563040674,-96.6131606820736,46.259844,,,1214.5428584192,27.230972,6.1963238,103.484583364,105.788717296,21,5,23.91,1214.5428584192,46.259844,13.4663788,103.484583364,-2.684328,5.59235,0,116, -11.7, -1.2,0,0,1525,1024,1024,1024,76,0,0,0,0,0,0,97,,,,,,,19.658,91.76,1214.5428584192,46.259844,6,P-GPS,
17200,2024-04-10 20:20:50,39.0993548533728,-96.6131573946781,46.259844,,,1214.5428584192,27.230972,6.71082,104.555121456,106.859583472,21,5,23.91,1214.5428584192,46.259844,13.4663788,104.555121456,-2.908022,6.039738,0,115.9, -13.2, -1.1,0,0,1510,1024,1024,1024,74,0,0,0,0,0,0,97,,,,,,,19.658,91.76,1214.5428584192,46.259844,6,P-GPS,
17300,2024-04-10 20:20:50,39.0993535363336,-96.6131539139959,46.259844,,,1214.5428584192,27.230972,7.2029468,105.646656924,107.955712116,21,5,23.91,1214.5428584192,46.259844,13.4663788,105.646656924,-3.131716,6.487126,0,115.9, -14.6, -1.3,0,0,1495,1024,1024,1024,71,0,0,0,0,0,0,97,,,,,,,19.658,91.76,1214.5428584192,46.259844,6,P-GPS,
17400,2024-04-10 20:20:50,39.0993522368216,-96.6131500425017,46.259844,,,1214.5428584192,27.230972,7.2029468,106.830055912,109.15026596,21,5,23.91,1214.5428584192,46.259844,13.4663788,106.830055912,-3.35541,7.158208,0,115.8, -15, -1.3,0,0,1489,1024,1024,1024,70,0,0,0,0,0,0,97,,,,,,,19.658,91.76,1214.5428584192,46.259844,6,P-GPS,
17500,2024-04-10 20:20:50,39.0993507400218,-96.6131459742327,46.259844,,,1214.5428584192,27.230972,8.612219,108.098428656,110.4248723,21,5,23.91,1214.5428584192,46.259844,13.4663788,108.098428656,-3.579104,7.82929,0,115.7, -14.4, -1.2,0,0,1487,1024,1024,1024,70,0,0,0,0,0,0,97,,,,,,,19.658,91.76,1214.5428584192,46.259844,6,P-GPS,
17600,2024-04-10 20:20:50,39.0993490824106,-96.6131414389188,46.259844,,,1214.5428584192,27.230972,9.1043458,109.510502192,111.844491768,21,5,23.91,1214.5428584192,46.259844,13.4663788,109.510502192,-3.802798,8.276678,0,115.6, -13.4, -0.9,0,0,1392,1024,1024,1024,56,0,0,0,0,0,0,97,,,,,,,19.658,91.76,1214.5428584192,46.259844,6,P-GPS,
17700,2024-04-10 20:20:50,39.0993474027663,-96.6131368324939,46.259844,,,1214.5428584192,27.230972,9.1043458,110.944229272,113.285436696,21,5,23.91,1214.5428584192,46.259844,13.4663788,110.944229272,-4.026492,8.724066,0,115.6, -12.5, -0.5,0,0,1351,1024,1024,1024,50,0,0,0,0,0,0,97,,,,,,,19.658,91.76,1214.5428584192,46.259844,6,P-GPS,
17800,2024-04-10 20:20:50,39.0993454947205,-96.6131317528204,46.259844,,,1214.5428584192,27.230972,10.1109688,112.535764756,114.88353386,21,5,23.91,1214.5428584192,46.259844,13.4663788,112.535764756,-4.250186,9.171454,0,115.6, -11.6, -0.4,0,0,1269,1024,1024,1024,37,0,0,0,0,0,0,97,,,,,,,19.658,91.76,1214.5428584192,46.259844,6,P-GPS,
17900,2024-04-10 20:20:51,39.0993436384166,-96.6131266905437,46.259844,,,1214.5428584192,27.230972,10.6030956,114.113848796,116.468835748,21,5,23.898,1214.5428584192,46.259844,13.4663788,114.113848796,-4.47388,9.618842,0,115.7, -9.9, -0.2,0,0,1148,1024,1024,1024,19,0,0,0,0,0,0,97,,,,,,,20.034,91.76,1214.5428584192,46.259844,6,P-GPS,
18000,2024-04-10 20:20:51,39.0993418647286,-96.6131214168771,46.259844,,,1214.5428584192,27.230972,11.1175918,115.728022076,118.096132388,21,5,23.898,1214.5428584192,46.259844,13.4663788,115.728022076,-4.697574,10.06623,0,115.7, -7.3, -0.2,0,0,1114,1024,1024,1024,14,0,0,0,0,0,0,97,,,,,,,20.034,91.76,1214.5428584192,46.259844,6,P-GPS,
18100,2024-04-10 20:20:51,39.0993398991327,-96.6131160650789,46.259844,,,1214.5428584192,27.230972,11.3189164,117.397313468,119.772641628,21,5,23.898,1214.5428584192,46.259844,13.4663788,117.397313468,-4.697574,10.289924,0,115.7, -3.5, -0.3,0,0,1074,1024,1024,1024,8,0,0,0,0,0,0,97,,,,,,,20.034,91.76,1214.5428584192,46.259844,6,P-GPS,
18200,2024-04-10 20:20:51,39.0993379312238,-96.6131105028401,46.259844,,,1214.5428584192,27.230972,11.3189164,119.118442132,121.503284728,21,5,23.898,1214.5428584192,46.259844,13.4663788,119.118442132,-4.921268,10.289924,0,115.7, 0.4, -0.4,0,0,1070,1024,1024,1024,7,0,0,0,0,0,0,97,,,,,,,20.034,91.76,1214.5428584192,46.259844,6,P-GPS,
18300,2024-04-10 20:20:51,39.0993359460961,-96.6131051183233,46.259844,,,1214.5428584192,27.230972,11.3189164,120.799544548,123.191276908,21,5,23.898,1214.5428584192,46.259844,13.4663788,120.799544548,-4.697574,10.289924,0,115.8, 3.5, -0.4,0,0,1072,1024,1024,1024,7,0,0,0,0,0,0,97,,,,,,,20.034,91.76,1214.5428584192,46.259844,6,P-GPS,
18400,2024-04-10 20:20:51,39.0993338436237,-96.6130997058346,46.259844,,,1214.5428584192,27.230972,11.1175918,122.509518356,124.905187724,21,5,23.898,1214.5428584192,46.259844,13.4663788,122.509518356,-4.697574,10.06623,0,115.8, 5.2, -0.5,0,0,1078,1024,1024,1024,8,0,0,0,0,0,0,97,,,,,,,20.034,91.76,1214.5428584192,46.259844,6,P-GPS,
18500,2024-04-10 20:20:51,39.0993319080792,-96.6130944952206,46.259844,,,1214.5428584192,27.230972,10.9162672,124.139439668,126.540686464,21,5,23.898,1214.5428584192,46.259844,13.4663788,124.139439668,-4.697574,9.842536,0,115.8, 5.5, -0.6,0,0,1087,1024,1024,1024,10,0,0,0,0,0,0,97,,,,,,,20.034,91.76,1214.5428584192,46.259844,6,P-GPS,
