time(millisecond),datetime(utc),latitude,longitude,height_above_takeoff(feet),height_above_ground_at_drone_location(feet),ground_elevation_at_drone_location(feet),altitude_above_seaLevel(feet),height_sonar(feet),speed(mph),distance(feet),mileage(feet),satellites,gpslevel,voltage(v),max_altitude(feet),max_ascent(feet),max_speed(mph),max_distance(feet), xSpeed(mph), ySpeed(mph), zSpeed(mph), compass_heading(degrees), pitch(degrees), roll(degrees),isPhoto,isVideo,rc_elevator,rc_aileron,rc_throttle,rc_rudder,rc_elevator(percent),rc_aileron(percent),rc_throttle(percent),rc_rudder(percent),gimbal_heading(degrees),gimbal_pitch(degrees),gimbal_roll(degrees),battery_percent,voltageCell1,voltageCell2,voltageCell3,voltageCell4,voltageCell5,voltageCell6,current(A),battery_temperature(f),altitude(feet),ascent(feet),flycStateRaw,flycState,message
0,2024-04-08 17:27:07,39.1016948516283,-96.5962284861281,0,Available with any HD 360 subscription,Available with any HD 360 subscription,1112.3357212903,0.656168,0,0,0,15,4,0,1112.3357212903,0,0,0,0,0,0,259.8, -1.9, 1.2,0,0,364,393,364,1635,-100,-96,-100,93,0,0,0,100,,,,,,,0,96.44,1112.3357212903,0,41,Motors_Started,"Your aircraft is flying in an Altitude Zone (1640ft). Please fly with caution."
100,2024-04-08 17:27:07,39.1016948047874,-96.5962284947854,0,,,1112.3357212903,0.656168,0,0.017264764332,0.017264764332,15,4,0,1112.3357212903,0,0,0.017264764332,0,0,0,259.8, -1.9, 1.2,0,0,364,385,364,1644,-100,-97,-100,94,0,0,0,100,,,,,,,0,96.44,1112.3357212903,0,41,Motors_Started,
200,2024-04-08 17:27:07,39.1016949185977,-96.5962287905629,0,,,1112.3357212903,0.656168,0,0.089591866384,0.110738520604,15,4,0,1112.3357212903,0,0,0.089591866384,0,0,0,259.8, -1.9, 1.2,0,0,364,364,364,1647,-100,-100,-100,94,0,0,0,100,,,,,,,0,96.44,1112.3357212903,0,41,Motors_Started,
300,2024-04-08 17:27:07,39.1016948873526,-96.5962288249809,0,,,1112.3357212903,0.656168,0,0.096821853492,0.125735896412,15,4,0,1112.3357212903,0,0,0.096821853492,0,0,0,259.8, -1.8, 1.2,0,0,364,364,364,1647,-100,-100,-100,94,0,0,0,100,,,,,,,0,96.44,1112.3357212903,0,41,Motors_Started,
400,2024-04-08 17:27:07,39.1016948114938,-96.5962289196905,0,,,1112.3357212903,0.656168,0,0.123626316292,0.164272643052,15,4,0,1112.3357212903,0,0,0.123626316292,0,0,0,259.8, -1.8, 1.2,0,0,364,375,364,1654,-100,-98,-100,95,0,0,0,100,,,,,,,0,96.44,1112.3357212903,0,41,Motors_Started,
500,2024-04-08 17:27:07,39.1016947783546,-96.5962289608676,0,,,1112.3357212903,0.656168,0,0.13704724848,0.181068903432,15,4,0,1112.3357212903,0,0,0.13704724848,0,0,0,259.8, -1.9, 1.2,0,0,364,464,459,1603,-100,-85,-86,88,0,0,0,100,,,,,,,0,96.44,1112.3357212903,0,41,Motors_Started,
600,2024-04-08 17:27:07,39.1016947033234,-96.5962290425914,0,,,1112.3357212903,0.656168,0,0.166585635252,0.2169127366,15,4,0,1112.3357212903,0,0,0.166585635252,0,0,0,259.8, -1.9, 1.2,0,0,1024,1024,1024,1024,0,0,0,0,0,0,0,100,,,,,,,0,96.44,1112.3357212903,0,41,Motors_Started,"Setting new Return-To-Home altitude to 61m (200 ft). Data Recorder File Index is 33. Setting new Maximum Flight Altitude to 61m (200 ft)"
700,2024-04-08 17:27:07,39.1016946679339,-96.5962290882923,0,,,1112.3357212903,0.656168,0,0.183192591164,0.235192592828,16,4,0,1112.3357212903,0,0,0.183192591164,0,0,0,259.8, -1.8, 1.2,0,0,1024,1024,1024,1024,0,0,0,0,0,0,0,100,,,,,,,0,96.44,1112.3357212903,0,41,Motors_Started,
800,2024-04-08 17:27:07,39.1016945944926,-96.5962293149993,0,,,1112.3357212903,0.656168,0,0.252738197064,0.3047490255,16,4,0,1112.3357212903,0,0,0.252738197064,0,0,0,259.8, -1.8, 1.2,0,0,1024,1024,1024,1024,0,0,0,0,0,0,0,100,,,,,,,0,96.44,1112.3357212903,0,41,Motors_Started,
900,2024-04-08 17:27:08,39.1016945570414,-96.596229378488,0,,,1112.3357212903,0.656168,0,0.274567594088,0.327328422548,16,4,0,1112.3357212903,0,0,0.274567594088,0,0,0,259.8, -1.8, 1.2,0,0,1024,1024,1024,1024,0,0,0,0,0,0,0,100,,,,,,,0,96.44,1112.3357212903,0,41,Motors_Started,
1000,2024-04-08 17:27:08,39.1016944931128,-96.5962292405056,0,,,1112.3357212903,0.656168,0,0.250459981768,0.37282809592,16,4,0,1112.3357212903,0,0,0.274567594088,0,0,0,259.7, -1.8, 1.2,0,0,1024,1024,1024,1024,0,0,0,0,0,0,0,100,,,,,,,0,96.44,1112.3357212903,0,41,Motors_Started,
1100,2024-04-08 17:27:08,39.1016944542409,-96.5962292884682,0,,,1112.3357212903,0.656168,0,0.269493775028,0.39246392332,16,4,0,1112.3357212903,0,0,0.274567594088,0,0,0,259.7, -1.8, 1.2,0,0,1024,1024,1024,1024,0,0,0,0,0,0,0,100,,,,,,,0,96.44,1112.3357212903,0,41,Motors_Started,
1200,2024-04-08 17:27:08,39.10169437048,-96.5962293633869,0,,,1112.3357212903,0.656168,0,0.304154209208,0.42966536808,16,4,0,1112.3357212903,0,0,0.304154209208,0,0,0,259.7, -1.8, 1.2,0,0,1024,1024,1024,1024,0,0,0,0,0,0,0,100,,,,,,,0,96.44,1112.3357212903,0,41,Motors_Started,
1300,2024-04-08 17:27:08,39.1016943279238,-96.5962294153276,0,,,1112.3357212903,0.656168,0,0.325152241376,0.4510498832,16,4,25.332,1112.3357212903,0,0,0.325152241376,0,0,0,259.7, -1.8, 1.2,0,0,1024,1024,1024,1024,0,0,0,0,0,0,0,100,,,,,,,4.278,96.44,1112.3357212903,0,41,Motors_Started,
1400,2024-04-08 17:27:08,39.1016942661255,-96.5962294628609,0,,,1112.3357212903,0.656168,0,0.34944554924,0.47730972656,16,4,25.332,1112.3357212903,0,0,0.34944554924,0,0,0,259.7, -1.8, 1.2,0,0,1024,1024,1024,1024,0,0,0,0,0,0,0,100,,,,,,,4.278,96.44,1112.3357212903,0,41,Motors_Started,
1500,2024-04-08 17:27:08,39.1016942222222,-96.5962295164549,0,,,1112.3357212903,0.656168,0,0.3712598544,0.49937337556,16,4,25.332,1112.3357212903,0,0,0.3712598544,0,0,0,259.7, -1.8, 1.2,0,0,1024,1024,1024,1024,0,0,0,0,0,0,0,100,,,,,,,4.278,96.44,1112.3357212903,0,41,Motors_Started,
1600,2024-04-08 17:27:08,39.1016941574348,-96.5962295621143,0,,,1112.3357212903,0.656168,0,0.39618111504,0.52631563364,16,4,25.332,1112.3357212903,0,0,0.39618111504,0,0,0,259.7, -1.8, 1.2,0,0,1024,1024,1024,1024,0,0,0,0,0,0,0,100,,,,,,,4.278,96.44,1112.3357212903,0,41,Motors_Started,
1700,2024-04-08 17:27:08,39.1016941108582,-96.5962296106819,0,,,1112.3357212903,0.656168,0,0.41764108948,0.54817587056,16,4,25.332,1112.3357212903,0,0,0.41764108948,0,0,0,259.7, -1.8, 1.2,0,0,1024,1024,1024,1024,0,0,0,0,0,0,0,100,,,,,,,4.278,96.44,1112.3357212903,0,41,Motors_Started,
1800,2024-04-08 17:27:08,39.1016940453507,-96.5962294962896,0,,,1112.3357212903,0.656168,0,0.41028872704,0.58842849652,16,4,25.332,1112.3357212903,0,0,0.41764108948,0,0,0,259.7, -1.8, 1.2,0,0,1024,1024,1024,1024,0,0,0,0,0,0,0,100,,,,,,,4.278,96.44,1112.3357212903,0,41,Motors_Started,
1900,2024-04-08 17:27:09,39.1016939979221,-96.5962295376421,0,,,1112.3357212903,0.656168,0,0.4308727172,0.60932088564,16,4,25.332,1112.3357212903,0,0,0.4308727172,0,0,0,259.7, -1.8, 1.2,0,0,1024,1024,1024,1024,0,0,0,0,0,0,0,100,,,,,,,4.278,96.44,1112.3357212903,0,41,Motors_Started,
2000,2024-04-08 17:27:09,39.1016937835416,-96.5962296042283,0,,,1112.3357212903,0.656168,0,0.50207350688,0.68977692496,16,4,25.332,1112.3357212903,0,0,0.50207350688,0,0,0,259.7, -1.8, 1.2,0,0,1024,1024,1024,1024,0,0,0,0,0,0,0,100,,,,,,,4.278,96.44,1112.3357212903,0,10,Assisted_Takeoff,
2100,2024-04-08 17:27:09,39.1016937202564,-96.5962296441575,0,,,1112.3357212903,0.656168,0,0.52715224784,0.7154855872,16,4,25.332,1112.3357212903,0,0,0.52715224784,0,0,0,259.7, -1.8, 1.2,0,0,1024,1024,1024,1024,0,0,0,0,0,0,0,100,,,,,,,4.278,96.44,1112.3357212903,0,10,Assisted_Takeoff,
2200,2024-04-08 17:27:09,39.1016936914528,-96.5962295629632,0,,,1112.3357212903,0.656168,0,0.52166012168,0.74076117856,16,4,25.332,1112.3357212903,0,0,0.52715224784,0,0,0,259.7, -1.8, 1.2,0,0,1024,1024,1024,1024,0,0,0,0,0,0,0,100,,,,,,,4.278,96.44,1112.3357212903,0,10,Assisted_Takeoff,
2300,2024-04-08 17:27:09,39.1016936292757,-96.5962295900046,0,,,1112.3357212903,0.656168,0,0.54458991244,0.76470474888,16,4,25.074,1112.3357212903,0,0,0.54458991244,0,0,0,259.7, -1.8, 1.2,0,0,1024,1024,1024,1024,0,0,0,0,0,0,0,100,,,,,,,5.128,96.44,1112.3357212903,0,10,Assisted_Takeoff,
2400,2024-04-08 17:27:09,39.1016935946745,-96.5962296683181,0,,,1112.3357212903,0.656168,0,0.56775592368,0.79021984156,16,4,25.074,1112.3357212903,0,0,0.56775592368,0,0,0,259.7, -1.8, 1.2,0,0,1024,1024,1024,1024,0,0,0,0,0,0,0,100,,,,,,,5.128,96.44,1112.3357212903,0,10,Assisted_Takeoff,
2500,2024-04-08 17:27:09,39.1016935347573,-96.5962296987389,0,,,1112.3357212903,0.656168,0,0.59052167244,0.81371721764,16,4,25.074,1112.3357212903,0,0,0.59052167244,0,0,0,259.7, -1.8, 1.2,0,0,1024,1024,1024,1024,0,0,0,0,0,0,0,100,,,,,,,5.128,96.44,1112.3357212903,0,10,Assisted_Takeoff,
2600,2024-04-08 17:27:09,39.10169350175,-96.5962296207323,0,,,1112.3357212903,0.656168,0,0.58801182984,0.83887141792,16,4,25.074,1112.3357212903,0,0,0.59052167244,0,0,0,259.7, -1.8, 1.2,0,0,1024,1024,1024,1024,0,0,0,0,0,0,0,100,,,,,,,5.128,96.44,1112.3357212903,0,10,Assisted_Takeoff,
2700,2024-04-08 17:27:09,39.1016934438273,-96.5962296390522,0,,,1112.3357212903,0.656168,0,0.60858597748,0.86063322964,16,4,25.074,1112.3357212903,0,0,0.60858597748,0,0,0,259.7, -1.8, 1.2,0,0,1024,1024,1024,1024,0,0,0,0,0,0,0,100,,,,,,,5.128,96.44,1112.3357212903,0,10,Assisted_Takeoff,
2800,2024-04-08 17:27:10,39.1016932512043,-96.5962297387086,0,,,1112.3357212903,0.656168,0,0.68317587488,0.93636485936,16,5,25.074,1112.3357212903,0,0,0.68317587488,0,0,0,259.7, -1.8, 1.2,0,0,1024,1024,1026,1024,0,0,0,0,0,0,0,100,,,,,,,5.128,96.44,1112.3357212903,0,10,Assisted_Takeoff,
2900,2024-04-08 17:27:10,39.1016931801009,-96.5962297586135,0,,,1112.3357212903,0.656168,0,0.70832679432,0.9629101358,16,5,25.074,1112.3357212903,0,0,0.70832679432,0,0,0,259.7, -1.8, 1.2,0,0,1024,1024,1051,1024,0,0,4,0,0,0,0,100,,,,,,,5.128,96.44,1112.3357212903,0,10,Assisted_Takeoff,
3000,2024-04-08 17:27:10,39.1016931774136,-96.596229687051,0,,,1112.3357212903,0.656168,0,0.69909451056,0.98319556952,16,5,25.074,1112.3357212903,0,0,0.70832679432,0,0,0,259.7, -1.8, 1.2,0,0,1024,1024,1157,1043,0,0,20,3,0,0,0,100,,,,,,,5.128,96.44,1112.3357212903,0,10,Assisted_Takeoff,
3100,2024-04-08 17:27:10,39.1016931089934,-96.5962296953481,0,,,1112.3357212903,0.656168,0,0.72211944568,1.00827102964,16,5,25.074,1112.3357212903,0,0,0.72211944568,0,0,0,259.7, -1.8, 1.2,0,0,1024,1024,1253,1028,0,0,35,1,0,0,0,100,,,,,,,5.128,96.44,1112.3357212903,0,10,Assisted_Takeoff,
3200,2024-04-08 17:27:10,39.1016930736896,-96.5962298081035,0,,,1112.3357212903,0.656168,0,0.74892062764,1.04269360292,16,5,25.074,1112.3357212903,0,0,0.74892062764,0,0,0,259.7, -1.8, 1.2,0,0,1024,1024,1370,1024,0,0,52,0,0,0,0,100,,,,,,,5.128,96.44,1112.3357212903,0,10,Assisted_Takeoff,
3300,2024-04-08 17:27:10,39.1016930077149,-96.5962298225789,0,,,1112.3357212903,0.656168,0,0.77186354176,1.06711289504,16,5,25.242,1112.3357212903,0,0,0.77186354176,0,0,0,259.7, -1.8, 1.2,0,0,1024,1024,1389,1033,0,0,55,1,0,0,0,100,,,,,,,4.036,96.44,1112.3357212903,0,10,Assisted_Takeoff,
3400,2024-04-08 17:27:10,39.1016929836838,-96.5962297719429,0,,,1112.3357212903,0.656168,0,0.77266078588,1.08391735752,16,5,25.242,1112.3357212903,0,0,0.77266078588,0,0,0,259.7, -1.8, 1.2,0,0,1024,1024,1458,1095,0,0,66,11,0,0,0,100,,,,,,,4.036,96.44,1112.3357212903,0,10,Assisted_Takeoff,
3500,2024-04-08 17:27:10,39.1016929207174,-96.5962297761294,0,,,1112.3357212903,0.656168,0,0.79354333248,1.1069226076,16,5,25.242,1112.3357212903,0,0,0.79354333248,0,0,0,259.6, -1.8, 1.2,0,0,1024,1024,1539,1105,0,0,78,12,0,0,0,100,,,,,,,4.036,96.44,1112.3357212903,0,10,Assisted_Takeoff,
3600,2024-04-08 17:27:10,39.1016927353758,-96.5962299002211,0,,,1112.3357212903,0.656168,0,0.86974740316,1.18312667828,16,5,25.242,1112.3357212903,0,0,0.86974740316,0,0,0,259.7, -1.8, 1.2,0,0,1024,1024,1616,1111,0,0,90,13,0,0,0,100,,,,,,,4.036,96.44,1112.3357212903,0,10,Assisted_Takeoff,
3700,2024-04-08 17:27:10,39.1016926602026,-96.5962299145044,0,,,1112.3357212903,0.656168,0,0.89600396568,1.21084977628,16,5,25.242,1112.3357212903,0,0,0.89600396568,0,0,0,259.7, -1.9, 1.2,0,0,1024,1024,1644,1134,0,0,94,17,0,0,0,100,,,,,,,4.036,96.44,1112.3357212903,0,10,Assisted_Takeoff,
3800,2024-04-08 17:27:10,39.101692654573,-96.5962298735401,0,,,1112.3357212903,0.656168,0,0.89267063224,1.22262799188,16,5,25.242,1112.3357212903,0,0,0.89600396568,0,0,0,259.8, -2, 1.2,0,0,1024,1024,1667,1148,0,0,97,19,0,0,0,100,,,,,,,4.036,96.44,1112.3357212903,0,10,Assisted_Takeoff,
3900,2024-04-08 17:27:11,39.1016925896044,-96.596229899964,0,,,1112.3357212903,0.656168,0,0.9172572472,1.24748363572,16,5,25.242,1112.3357212903,0,0,0.9172572472,0,0,0,259.8, -2.1, 1.1,0,0,1024,1024,1684,1162,0,0,100,21,0,0,0,100,,,,,,,4.036,96.44,1112.3357212903,0,10,Assisted_Takeoff,
4000,2024-04-08 17:27:11,39.1016924248317,-96.5962299370982,0,,,1112.3357212903,0.656168,0,0.97607942756,1.3085138214,16,5,25.242,1112.3357212903,0,0,0.97607942756,0,0,-0.447388,259.4, -1.6, 1.4,0,0,1024,1024,1684,1161,0,0,100,21,0,0,0,100,,,,,,,4.036,96.44,1112.3357212903,0,6,P-GPS,
4100,2024-04-08 17:27:11,39.1016923526346,-96.5962300466735,0.328084,,,1112.6638052903,0.656168,0,1.01317588544,1.3492126416,16,5,25.242,1112.6638052903,0.328084,0,1.01317588544,0,0,-1.11847,259.4, -1.2, 1.2,0,0,1024,1024,1684,1160,0,0,100,21,0,0,0,100,,,,,,,4.036,96.44,1112.6638052903,0.328084,6,P-GPS,
4200,2024-04-08 17:27:11,39.1016923741943,-96.5962303419302,0.328084,,,1112.6638052903,0.984252,0.223694,1.04551512532,1.43317917972,16,5,25.242,1112.6638052903,0.328084,0.223694,1.04551512532,0,-0.223694,-1.565858,259.8, -0.5, 0.3,0,0,1024,1024,1684,1167,0,0,100,22,0,0,0,100,,,,,,,4.036,96.44,1112.6638052903,0.328084,6,P-GPS,
4300,2024-04-08 17:27:11,39.1016923144215,-96.5962305445854,0.656168,,,1112.9918892903,1.312336,0.223694,1.09388783028,1.49456369612,16,5,25.254,1112.9918892903,0.656168,0.223694,1.09388783028,0,-0.223694,-2.23694,260.3, 0.5, -0.9,0,0,1024,1024,1684,1167,0,0,100,22,0,0,0,100,,,,,,,3.254,96.44,1112.9918892903,0.656168,6,P-GPS,
4400,2024-04-08 17:27:11,39.1016922523734,-96.5962307051601,0.984252,,,1113.3199732903,1.64042,0.223694,1.13757549572,1.54535109932,16,5,25.254,1113.3199732903,0.984252,0.223694,1.13757549572,0,-0.223694,-2.684328,260.8, 1.4, -1,0,0,1024,1024,1684,1170,0,0,100,22,0,0,0,100,,,,,,,3.254,96.44,1113.3199732903,0.984252,6,P-GPS,
4500,2024-04-08 17:27:11,39.101692110085,-96.5962308416019,1.312336,,,1113.6480572903,1.968504,0,1.20219492036,1.61006238748,16,5,25.254,1113.6480572903,1.312336,0.223694,1.20219492036,0,0,-3.131716,261.2, 1.7, 0.2,0,0,1024,1024,1684,1170,0,0,100,22,0,0,0,100,,,,,,,3.254,96.44,1113.6480572903,1.312336,6,P-GPS,
4600,2024-04-08 17:27:11,39.1016918407466,-96.5962314397489,1.968504,,,1114.3042252903,2.624672,0.223694,1.3806102804,1.80586291868,16,5,25.254,1114.3042252903,1.968504,0.223694,1.3806102804,-0.223694,0,-3.802798,261.5, 1.8, 2,0,0,1024,1024,1677,1177,0,0,99,23,0,0,0,100,,,,,,,3.254,96.44,1114.3042252903,1.968504,6,P-GPS,
4700,2024-04-08 17:27:11,39.1016917047038,-96.596231521429,2.624672,,,1114.9603932903,2.952756,0,1.43416015088,1.86062013828,16,5,25.254,1114.9603932903,2.624672,0.223694,1.43416015088,0,0,-4.47388,262.1, 1.6, 3.1,0,0,1024,1024,1668,1181,0,0,98,24,0,0,0,100,,,,,,,3.254,96.44,1114.9603932903,2.624672,6,P-GPS,
4800,2024-04-08 17:27:11,39.1016916444626,-96.5962311241803,3.28084,,,1115.6165612903,3.608924,0,1.38819886332,1.97521987948,16,5,25.254,1115.6165612903,3.28084,0.223694,1.43416015088,0,0,-4.921268,262.8, 0.7, 2.8,0,0,1024,1024,1657,1206,0,0,96,28,0,0,0,100,,,,,,,3.254,96.44,1115.6165612903,3.28084,6,P-GPS,
4900,2024-04-08 17:27:12,39.1016916305527,-96.5962311178577,3.937008,,,1116.2727292903,4.593176,0,1.39152235424,1.98060373792,16,5,25.254,1116.2727292903,3.937008,0.223694,1.43416015088,0,0,-5.816044,263.6, -0.5, 1.6,0,0,1024,1024,1650,1257,0,0,95,35,0,0,0,100,,,,,,,3.254,96.44,1116.2727292903,3.937008,6,P-GPS,
5000,2024-04-08 17:27:12,39.1016917185238,-96.5962309791504,4.92126,,,1117.2569812903,5.577428,0,1.34348101412,2.03132224348,16,5,25.254,1117.2569812903,4.92126,0.223694,1.43416015088,0,0,-6.487126,264.5, -1.2, 0,0,0,1024,1024,1599,1378,0,0,87,54,0,0,0,100,,,,,,,3.254,96.44,1117.2569812903,4.92126,6,P-GPS,
5100,2024-04-08 17:27:12,39.1016917215708,-96.5962310159974,5.905512,,,1118.2412332903,6.56168,0,1.3480479434,2.0418143698,16,5,25.254,1118.2412332903,5.905512,0.223694,1.43416015088,0,0,-7.158208,265.7, -0.8, -1.1,0,0,1024,1024,1599,1378,0,0,87,54,0,0,0,100,,,,,,,3.254,96.44,1118.2412332903,5.905512,6,P-GPS,
5200,2024-04-08 17:27:12,39.101691305197,-96.5962313153431,7.217848,,,1119.5535692903,7.545932,0,1.52180451064,2.21577106828,16,5,25.254,1119.5535692903,7.217848,0.223694,1.52180451064,0,0,-7.82929,267.8, 0.6, -1,0,0,1024,1024,1542,1430,0,0,78,62,0,0,0,100,,,,,,,3.254,96.44,1119.5535692903,7.217848,6,P-GPS,
5300,2024-04-08 17:27:12,39.1016911968587,-96.5962313883327,8.530184,,,1120.8659052903,8.858268,0,1.56629270104,2.26037408808,16,5,25.266,1120.8659052903,8.530184,0.223694,1.56629270104,0,0,-8.276678,270.6, 2, 0.1,0,0,1024,1024,1479,1468,0,0,69,67,0,0,0,100,,,,,,,22.292,96.44,1120.8659052903,8.530184,6,P-GPS,
5400,2024-04-08 17:27:12,39.1016909514161,-96.5962315734427,9.84252,,,1122.1782412903,10.170604,0,1.67002630016,2.36413393392,16,5,25.266,1122.1782412903,9.84252,0.223694,1.67002630016,0,0,-8.724066,274.5, 2.4, 1.6,0,0,1024,1024,1423,1505,0,0,60,73,0,0,0,100,,,,,,,22.292,96.44,1122.1782412903,9.84252,6,P-GPS,
5500,2024-04-08 17:27:12,39.101690838996,-96.5962315425273,11.154856,,,1123.4905772903,11.154856,0,1.7006398182,2.40607619248,14,5,25.266,1123.4905772903,11.154856,0.223694,1.7006398182,0,0,-8.724066,279.1, 1.8, 2.2,0,0,1024,1024,1373,1534,0,0,53,77,0,0,0,100,,,,,,,22.292,96.44,1123.4905772903,11.154856,6,P-GPS,
5600,2024-04-08 17:27:12,39.1016909803963,-96.5962312414352,12.467192,,,1124.8029132903,12.467192,0,1.61354007788,2.50571858412,14,5,25.266,1124.8029132903,12.467192,0.223694,1.7006398182,0,0,-8.500372,284.5, 0.7, 1.9,0,0,1024,1024,1322,1506,0,0,45,73,0,0,0,100,,,,,,,22.292,96.44,1124.8029132903,12.467192,6,P-GPS,
5700,2024-04-08 17:27:12,39.1016909315332,-96.5962311255688,13.779528,,,1126.1152492903,13.451444,0,1.6137139624,2.54305454332,16,5,25.266,1126.1152492903,13.779528,0.223694,1.7006398182,0,0,-8.276678,290.5, -0.5, 0.8,0,0,1024,1024,1278,1514,0,0,38,74,0,0,0,100,,,,,,,22.292,96.44,1126.1152492903,13.779528,6,P-GPS,
5800,2024-04-08 17:27:12,39.1016909219686,-96.5962313852209,14.76378,,,1127.0995012903,14.435696,0,1.65207682452,2.61665362704,16,5,25.266,1127.0995012903,14.76378,0.223694,1.7006398182,0,0,-7.82929,296.5, -1, 0,0,0,1044,1024,1262,1510,3,0,36,74,0,0,0,100,,,,,,,22.292,96.44,1127.0995012903,14.76378,6,P-GPS,
5900,2024-04-08 17:27:13,39.1016908743889,-96.5962313281107,16.076116,,,1128.4118372903,15.419948,0,1.65926186412,2.64037738108,16,5,25.266,1128.4118372903,16.076116,0.223694,1.7006398182,0,0,-7.158208,302.5, -0.7, -0.1,0,0,1178,1024,1255,1510,23,0,35,74,0,0,0,100,,,,,,,22.292,96.44,1128.4118372903,16.076116,6,P-GPS,
6000,2024-04-08 17:27:13,39.1016911558124,-96.5962316585559,17.060368,,,1129.3960892903,16.4042,0,1.6201936214,2.77928814668,16,5,25.266,1129.3960892903,17.060368,0.223694,1.7006398182,0,0,-6.487126,308.3, 0, 0.1,0,0,1280,1024,1271,1518,39,0,37,75,0,0,0,100,,,,,,,22.292,96.44,1129.3960892903,17.060368,6,P-GPS,
6100,2024-04-08 17:27:13,39.1016911384959,-96.5962316459966,18.04462,,,1130.3803412903,17.388452,0,1.62349414644,2.78653880308,17,5,25.266,1130.3803412903,18.04462,0.223694,1.7006398182,0,0,-5.816044,314.1, 0, 0.3,0,0,1265,1024,1274,1549,37,0,38,80,0,0,0,100,,,,,,,22.292,96.44,1130.3803412903,18.04462,6,P-GPS,
6200,2024-04-08 17:27:13,39.1016911485402,-96.5962316882959,18.700788,,,1131.0365092903,18.04462,0,1.62708010456,2.79906176936,17,5,25.266,1131.0365092903,18.700788,0.223694,1.7006398182,0,0,-5.144962,319.7, -1.3, 0.3,0,0,1272,1024,1279,1512,38,0,39,74,0,0,0,100,,,,,,,22.292,96.44,1131.0365092903,18.700788,6,P-GPS,
6300,2024-04-08 17:27:13,39.101691144465,-96.5962316863301,19.356956,,,1131.6926772903,18.700788,0,1.62800530144,2.80064969592,17,5,25.266,1131.6926772903,19.356956,0.223694,1.7006398182,0,0,-4.47388,325.5, -3, 0,0,0,1271,1024,1279,1489,37,0,39,70,0,0,0,100,,,,,,,22.292,96.44,1131.6926772903,19.356956,6,P-GPS,
6400,2024-04-08 17:27:13,39.1016910789873,-96.5962315960281,20.013124,,,1132.3488452903,19.356956,0.223694,1.63398627276,2.83564313536,17,5,25.032,1132.3488452903,20.013124,0.223694,1.7006398182,0.223694,0,-3.802798,331.1, -4.2, 0,0,0,1278,1024,1249,1458,38,0,34,66,0,0,0,100,,,,,,,29.814,96.44,1132.3488452903,20.013124,6,P-GPS,
6500,2024-04-08 17:27:13,39.1016911388381,-96.5962316676435,20.669292,,,1133.0050132903,19.68504,0.223694,1.62677498644,2.86543972424,17,5,25.032,1133.0050132903,20.669292,0.223694,1.7006398182,0.223694,0,-3.35541,336.4, -4.8, 0.7,0,0,1267,1024,1240,1447,37,0,33,64,0,0,0,100,,,,,,,29.814,96.44,1133.0050132903,20.669292,6,P-GPS,
6600,2024-04-08 17:27:13,39.1016908524101,-96.596231611526,20.997376,,,1133.3330972903,20.341208,0.447388,1.70647643256,2.9711451082,17,5,25.032,1133.3330972903,20.997376,0.447388,1.70647643256,0.447388,0,-2.908022,341.2, -5, 1.6,0,0,1238,1024,1228,1480,32,0,31,69,0,0,0,100,,,,,,,29.814,96.44,1133.3330972903,20.997376,6,P-GPS,
6700,2024-04-08 17:27:13,39.1016910009839,-96.5962317003431,21.653544,,,1133.9892652903,20.669292,0.447388,1.67390425304,3.03090232796,17,5,25.032,1133.9892652903,21.653544,0.447388,1.70647643256,0.671082,0,-2.460634,345.7, -5, 2.4,0,0,1247,1024,1219,1513,34,0,30,74,0,0,0,100,,,,,,,29.814,96.44,1133.9892652903,21.653544,6,P-GPS,
6800,2024-04-08 17:27:14,39.1016910576598,-96.5962317238762,21.981628,,,1134.3173492903,20.997376,0.894776,1.66025595864,3.0526247696,17,5,25.032,1134.3173492903,21.981628,0.894776,1.70647643256,0.894776,0,-2.23694,350.3, -4.7, 2.9,0,0,1263,1024,1206,1425,36,0,28,61,0,0,0,100,,,,,,,29.814,96.44,1134.3173492903,21.981628,6,P-GPS,
6900,2024-04-08 17:27:14,39.1016913342715,-96.596231764975,22.309712,,,1134.6454332903,21.32546,0.894776,1.5838911268,3.1542159802,17,5,25.032,1134.6454332903,22.309712,0.894776,1.70647643256,1.11847,0,-2.013246,355.1, -4.1, 3.3,0,0,1307,1024,1201,1277,43,0,27,38,0,0,0,100,,,,,,,29.814,96.44,1134.6454332903,22.309712,6,P-GPS,
7000,2024-04-08 17:27:14,39.1016916867385,-96.5962317354457,22.309712,,,1134.6454332903,21.653544,1.11847,1.47639112336,3.2830709712,17,5,25.032,1134.6454332903,22.309712,1.11847,1.70647643256,1.11847,0,-1.789552,0, -3.7, 3.5,0,0,1341,1024,1195,1210,48,0,26,28,0,0,0,100,,,,,,,29.814,96.44,1134.6454332903,22.309712,6,P-GPS,
7100,2024-04-08 17:27:14,39.1016920716264,-96.5962316718595,22.637796,,,1134.9735172903,21.981628,1.3645334,1.3573327206,3.4246720256,17,5,25.032,1134.9735172903,22.637796,1.3645334,1.70647643256,1.342164,0.223694,-1.565858,3.5, -4.2, 2.9,0,0,1377,1024,1220,1024,53,0,30,0,0,0,0,100,,,,,,,29.814,96.44,1134.9735172903,22.637796,6,P-GPS,
7200,2024-04-08 17:27:14,39.1016927452977,-96.5962311221325,22.96588,,,1135.3016012903,22.309712,1.3645334,1.07126315764,3.7155841084,17,5,25.032,1135.3016012903,22.96588,1.3645334,1.70647643256,1.342164,0.223694,-1.342164,5.9, -6.5, 1.8,0,0,1431,1024,1172,1024,62,0,22,0,0,0,0,100,,,,,,,29.814,96.44,1135.3016012903,22.96588,6,P-GPS,
7300,2024-04-08 17:27:14,39.101693281082,-96.5962309299646,22.96588,,,1135.3016012903,22.309712,1.8119214,0.89839569804,3.9185040624,17,5,24.426,1135.3016012903,22.96588,1.8119214,1.70647643256,1.789552,0.223694,-1.342164,7.1, -9.7, 0.8,0,0,1444,1024,1142,1024,64,0,18,0,0,0,0,100,,,,,,,17.962,96.44,1135.3016012903,22.96588,6,P-GPS,
7400,2024-04-08 17:27:14,39.1016942607585,-96.5962308451523,23.293964,,,1135.6296852903,22.637796,2.0356154,0.70184713532,4.276738982,17,5,24.426,1135.6296852903,23.293964,2.0356154,1.70647643256,2.013246,0.223694,-1.342164,7.4, -12.6, 0.1,0,0,1433,1024,1090,1024,62,0,10,0,0,0,0,100,,,,,,,17.962,96.44,1135.6296852903,23.293964,6,P-GPS,
7500,2024-04-08 17:27:14,39.1016951400925,-96.5962306092552,23.622048,,,1135.9577692903,22.96588,2.7290668,0.61027232924,4.6044292812,17,5,24.426,1135.9577692903,23.622048,2.7290668,1.70647643256,2.684328,0.447388,-1.11847,7.2, -14.7, 0,0,0,1414,1024,1101,1024,59,0,12,0,0,0,0,100,,,,,,,17.962,96.44,1135.9577692903,23.622048,6,P-GPS,
7600,2024-04-08 17:27:14,39.1016962745392,-96.5962301838697,23.622048,,,1135.9577692903,23.293964,3.1540854,0.707513146,5.0354988488,17,5,24.426,1135.9577692903,23.622048,3.1540854,1.70647643256,3.131716,0.447388,-0.894776,7.1, -15.8, -0.1,0,0,1388,1024,1079,1134,55,0,8,17,0,0,0,100,,,,,,,17.962,96.44,1135.9577692903,23.622048,6,P-GPS,
7700,2024-04-08 17:27:14,39.1016975647188,-96.5962298741604,23.622048,,,1135.9577692903,23.622048,3.6014734,1.06502956164,5.5143374468,17,5,24.426,1135.9577692903,23.622048,3.6014734,1.70647643256,3.579104,0.447388,-0.671082,7, -15.7, 0,0,0,1360,1024,1064,1166,51,0,6,22,0,0,0,100,,,,,,,17.962,96.44,1135.9577692903,23.622048,6,P-GPS,
7800,2024-04-08 17:27:14,39.1016990553108,-96.59623000068,23.950132,,,1136.2858532903,23.950132,4.0488614,1.59253285936,6.0593505876,17,5,24.426,1136.2858532903,23.950132,4.0488614,1.70647643256,4.026492,0.447388,-0.447388,7, -14.6, 0.3,0,0,1345,1024,1060,1200,49,0,5,27,0,0,0,100,,,,,,,17.962,96.44,1136.2858532903,23.950132,6,P-GPS,
7900,2024-04-08 17:27:15,39.1017007608249,-96.5962296720089,23.950132,,,1136.2858532903,24.278216,4.5186188,2.1819554504,6.6885172744,17,5,24.426,1136.2858532903,23.950132,4.5186188,2.1819554504,4.47388,0.671082,-0.447388,7.3, -13.2, 1.1,0,0,1323,1024,1043,1230,45,0,3,31,0,0,0,100,,,,,,,17.962,96.44,1136.2858532903,23.950132,6,P-GPS,
8000,2024-04-08 17:27:15,39.101702990175,-96.5962291011745,23.950132,,,1136.2858532903,24.6063,4.9660068,2.97444563324,7.5178152012,17,5,24.426,1136.2858532903,23.950132,4.9660068,2.97444563324,4.921268,0.671082,-0.223694,8.1, -12, 2.2,0,0,1300,1024,1030,1221,42,0,1,30,0,0,0,100,,,,,,,17.962,96.44,1136.2858532903,23.950132,6,P-GPS,
8100,2024-04-08 17:27:15,39.1017050448997,-96.5962286481766,23.950132,,,1136.2858532903,24.6063,5.4357642,3.7192914576,8.2783467216,17,5,24.426,1136.2858532903,23.950132,5.4357642,3.7192914576,5.368656,0.894776,0,9.4, -11.1, 4,0,0,1295,1024,1030,1268,41,0,1,37,0,0,0,100,,,,,,,17.962,96.44,1136.2858532903,23.950132,6,P-GPS,
8200,2024-04-08 17:27:15,39.1017075140826,-96.5962279367979,23.950132,,,1136.2858532903,24.6063,5.704197,4.6225067096,9.2014766724,17,5,24.426,1136.2858532903,23.950132,5.704197,4.6225067096,5.59235,1.11847,0,11.3, -10.3, 5.5,0,0,1298,1024,1030,1287,42,0,1,40,0,0,0,100,,,,,,,17.962,96.44,1136.2858532903,23.950132,6,P-GPS,
8300,2024-04-08 17:27:15,39.1017098243095,-96.596227234112,23.950132,,,1136.2858532903,24.6063,5.9726298,5.4742783904,10.0675200072,17,5,24.576,1136.2858532903,23.950132,5.9726298,5.4742783904,5.816044,1.342164,0,13.3, -9.8, 7.3,0,0,1290,1024,1048,1260,40,0,4,36,0,0,0,100,,,,,,,19.922,96.44,1136.2858532903,23.950132,6,P-GPS,
8400,2024-04-08 17:27:15,39.1017120855037,-96.5962263528562,23.950132,,,1136.2858532903,24.934384,6.2410626,6.3166996772,10.9294294836,17,5,24.576,1136.2858532903,23.950132,6.2410626,6.3166996772,6.039738,1.565858,0,15.6, -9.3, 8.7,0,0,1302,1024,1055,1246,42,0,5,34,0,0,0,100,,,,,,,19.922,96.44,1136.2858532903,23.950132,6,P-GPS,
8500,2024-04-08 17:27:15,39.1017145139127,-96.5962252643295,23.950132,,,1136.2858532903,24.934384,6.5766036,7.2315291028,11.8675200648,17,5,24.576,1136.2858532903,23.950132,6.5766036,7.2315291028,6.263432,2.013246,0,18, -8.8, 9,0,0,1309,1024,1053,1237,43,0,4,32,0,0,0,100,,,,,,,19.922,96.44,1136.2858532903,23.950132,6,P-GPS,
8600,2024-04-08 17:27:15,39.1017171664143,-96.5962238869154,23.950132,,,1136.2858532903,24.934384,6.7331894,8.2450133872,12.9108928016,17,5,24.576,1136.2858532903,23.950132,6.7331894,8.2450133872,6.263432,2.460634,0,20.3, -8.4, 8.4,0,0,1296,1024,1060,1190,41,0,5,25,0,0,0,100,,,,,,,19.922,96.44,1136.2858532903,23.950132,6,P-GPS,
8700,2024-04-08 17:27:15,39.1017196730849,-96.5962223691439,23.950132,,,1136.2858532903,24.934384,6.822667,9.2202102688,13.9213915216,17,5,24.576,1136.2858532903,23.950132,6.822667,9.2202102688,6.263432,2.684328,0,22.1, -8.6, 6.7,0,0,1282,1024,1065,1084,39,0,6,9,0,0,0,100,,,,,,,19.922,96.44,1136.2858532903,23.950132,6,P-GPS,
8800,2024-04-08 17:27:15,39.101722216233,-96.5962206698615,23.950132,,,1136.2858532903,24.934384,7.2029468,10.2262798548,14.9665687204,17,5,24.576,1136.2858532903,23.950132,7.2029468,10.2262798548,6.487126,3.131716,0,23.7, -9.2, 4.2,0,0,1286,1024,1061,1034,40,0,6,2,0,0,0,100,,,,,,,19.922,96.44,1136.2858532903,23.950132,6,P-GPS,
8900,2024-04-08 17:27:16,39.1017248193311,-96.5962188383882,23.950132,,,1136.2858532903,24.934384,7.493749,11.2697510168,16.0486553692,17,5,24.576,1136.2858532903,23.950132,7.493749,11.2697510168,6.71082,3.35541,0,24.8, -9.5, 1.6,0,0,1299,1024,1029,1024,42,0,1,0,0,0,0,100,,,,,,,19.922,96.44,1136.2858532903,23.950132,6,P-GPS,
9000,2024-04-08 17:27:16,39.1017272174267,-96.5962168396952,23.950132,,,1136.2858532903,24.934384,7.6950736,12.2604006548,17.0906501532,17,5,24.576,1136.2858532903,23.950132,7.6950736,12.2604006548,6.934514,3.35541,0,25.4, -9.4, -0.6,0,0,1288,1024,1024,1013,40,0,0,-2,0,0,0,100,,,,,,,19.922,96.44,1136.2858532903,23.950132,6,P-GPS,
9100,2024-04-08 17:27:16,39.1017299688358,-96.5962148578444,23.622048,,,1135.9577692903,24.934384,7.6950736,13.38090594,18.2406829984,17,5,24.576,1136.2858532903,23.950132,7.6950736,13.38090594,7.158208,3.579104,0,25.5, -9, -1.6,0,0,1288,1024,1024,1013,40,0,0,-2,0,0,0,100,,,,,,,19.922,96.44,1135.9577692903,23.622048,6,P-GPS,
9200,2024-04-08 17:27:16,39.1017329844939,-96.5962128274122,23.622048,,,1135.9577692903,25.262468,8.2095698,14.6020673964,19.4820872376,17,5,24.576,1136.2858532903,23.950132,8.2095698,14.6020673964,7.381902,3.579104,0,25.5, -8.7, -1.5,0,0,1274,1024,1024,858,38,0,0,-25,0,0,0,100,,,,,,,19.922,96.44,1135.9577692903,23.622048,6,P-GPS,
9300,2024-04-08 17:27:16,39.1017359287088,-96.5962107961418,23.622048,,,1135.9577692903,25.262468,8.4108944,15.8017393508,20.7005584052,17,5,24.636,1136.2858532903,23.950132,8.4108944,15.8017393508,7.605596,3.579104,0,25.5, -8.2, -1.4,0,0,1277,1024,1024,750,38,0,0,-42,0,0,0,100,,,,,,,20.542,96.44,1135.9577692903,23.622048,6,P-GPS,
9400,2024-04-08 17:27:16,39.1017388986407,-96.5962089558324,23.622048,,,1135.9577692903,24.934384,8.4108944,16.9952761344,21.90288784,17,5,24.636,1136.2858532903,23.950132,8.4108944,16.9952761344,7.605596,3.579104,0,25.3, -7.8, -2.5,0,0,1276,1024,1024,677,38,0,0,-53,0,0,0,100,,,,,,,20.542,96.44,1135.9577692903,23.622048,6,P-GPS,
9500,2024-04-08 17:27:16,39.1017419879349,-96.5962068968444,23.622048,,,1135.9577692903,25.262468,8.7016966,18.2516738124,23.1718511352,17,5,24.636,1136.2858532903,23.950132,8.7016966,18.2516738124,7.82929,3.802798,0,24.4, -7.7, -6,0,0,1286,1024,1024,936,40,0,0,-13,0,0,0,100,,,,,,,20.542,96.44,1135.9577692903,23.622048,6,P-GPS,
9600,2024-04-08 17:27:16,39.1017451646703,-96.5962049509152,23.622048,,,1135.9577692903,25.262468,8.8135436,19.5287407824,24.4551845096,17,5,24.636,1136.2858532903,23.950132,8.8135436,19.5287407824,8.052984,3.579104,0,22.5, -7.6, -11.9,0,0,1294,1024,1024,1024,41,0,0,0,0,0,0,100,,,,,,,20.542,96.44,1135.9577692903,23.622048,6,P-GPS,
9700,2024-04-08 17:27:16,39.101748472907,-96.5962031263212,23.622048,,,1135.9577692903,25.262468,9.059607,20.8396988296,25.7680782524,19,5,24.636,1136.2858532903,23.950132,9.059607,20.8396988296,8.500372,3.131716,0,19.4, -7.5, -11.8,0,0,1292,1024,1024,1024,41,0,0,0,0,0,0,100,,,,,,,20.542,96.44,1135.9577692903,23.622048,6,P-GPS,
9800,2024-04-08 17:27:17,39.1017517390775,-96.5962018266488,23.622048,,,1135.9577692903,25.590552,9.1267152,22.0852697356,27.01525677,19,5,24.636,1136.2858532903,23.950132,9.1267152,22.0852697356,8.724066,2.684328,0.223694,17.1, -9.8, -2.2,0,0,1293,1024,1024,1024,41,0,0,0,0,0,0,100,,,,,,,20.542,96.44,1135.9577692903,23.622048,6,P-GPS,
9900,2024-04-08 17:27:17,39.1017552434245,-96.5962002926416,23.622048,,,1135.9577692903,25.590552,9.4175174,23.4353025872,28.3655848972,19,5,24.636,1136.2858532903,23.950132,9.4175174,23.4353025872,8.94776,2.908022,0,16.9, -9.9, 1.1,0,0,1292,1024,1024,1024,41,0,0,0,0,0,0,100,,,,,,,20.542,96.44,1135.9577692903,23.622048,6,P-GPS,
10000,2024-04-08 17:27:17,39.1017587141477,-96.5961987869757,23.622048,,,1135.9577692903,25.590552,9.4175174,24.7710965932,29.7017069872,19,5,24.636,1136.2858532903,23.950132,9.4175174,24.7710965932,9.171454,3.131716,0,17.2, -7.6, 0.1,0,0,1285,1024,1024,1024,40,0,0,0,0,0,0,100,,,,,,,20.542,96.44,1135.9577692903,23.622048,6,P-GPS,
10100,2024-04-08 17:27:17,39.1017623577402,-96.5961970920819,23.622048,,,1135.9577692903,25.590552,9.6859502,26.1844168484,31.1150272424,19,5,24.636,1136.2858532903,23.950132,9.6859502,26.1844168484,9.171454,3.131716,0,17.3, -5.6, -1.8,0,0,1282,1024,1024,1024,39,0,0,0,0,0,0,100,,,,,,,20.542,96.44,1135.9577692903,23.622048,6,P-GPS,
10200,2024-04-08 17:27:17,39.1017662795366,-96.5961952227855,23.622048,,,1135.9577692903,25.590552,9.618842,27.7100074484,32.6406506508,19,5,24.636,1136.2858532903,23.950132,9.6859502,27.7100074484,9.171454,2.908022,0,17.2, -4.9, -3.1,0,0,1280,1024,1024,1024,39,0,0,0,0,0,0,100,,,,,,,20.542,96.44,1135.9577692903,23.622048,6,P-GPS,
10300,2024-04-08 17:27:17,39.1017699927154,-96.596193658657,23.622048,,,1135.9577692903,25.590552,9.5517338,29.1346466016,34.065945972,19,5,24.474,1136.2858532903,23.950132,9.6859502,29.1346466016,9.171454,2.684328,0,17, -5.8, -2.8,0,0,1284,1024,1024,1024,39,0,0,0,0,0,0,100,,,,,,,21.664,96.44,1135.9577692903,23.622048,6,P-GPS,
10400,2024-04-08 17:27:17,39.1017735056034,-96.5961923772596,23.622048,,,1135.9577692903,25.918636,9.7754278,30.4636164604,35.397967012,19,5,24.474,1136.2858532903,23.950132,9.7754278,30.4636164604,9.395148,2.684328,0,16.9, -7.1, -1.5,0,0,1280,1024,1024,981,39,0,0,-7,0,0,0,100,,,,,,,21.664,96.44,1135.9577692903,23.622048,6,P-GPS,
10500,2024-04-08 17:27:17,39.1017772969522,-96.5961908628205,23.622048,,,1135.9577692903,25.590552,9.7754278,31.9106309424,36.846129788,19,5,24.474,1136.2858532903,23.950132,9.7754278,31.9106309424,9.618842,2.684328,0,16.8, -7.9, -0.1,0,0,1286,1024,1024,967,40,0,0,-9,0,0,0,100,,,,,,,21.664,96.44,1135.9577692903,23.622048,6,P-GPS,
10600,2024-04-08 17:27:17,39.1017815580364,-96.5961891893423,23.622048,,,1135.9577692903,25.918636,9.9767524,33.534449892,38.471457924,19,5,24.474,1136.2858532903,23.950132,9.9767524,33.534449892,9.618842,2.684328,0,16.8, -8, 0.2,0,0,1288,1024,1024,980,40,0,0,-7,0,0,0,100,,,,,,,21.664,96.44,1135.9577692903,23.622048,6,P-GPS,
10700,2024-04-08 17:27:17,39.1017854968803,-96.5961875916166,23.622048,,,1135.9577692903,25.918636,10.2675546,35.040027368,39.978019652,19,5,24.474,1136.2858532903,23.950132,10.2675546,35.040027368,9.842536,2.908022,0,16.7, -7.5, -0.9,0,0,1287,1024,1024,973,40,0,0,-8,0,0,0,100,,,,,,,21.664,96.44,1135.9577692903,23.622048,6,P-GPS,
10800,2024-04-08 17:27:17,39.10178948099,-96.596186066442,23.622048,,,1135.9577692903,25.918636,10.4241404,36.554791196,41.4944239,19,5,24.474,1136.2858532903,23.950132,10.4241404,36.554791196,10.06623,2.684328,0,16.4, -7, -1.4,0,0,1298,1024,1024,995,42,0,0,-4,0,0,0,100,,,,,,,21.664,96.44,1135.9577692903,23.622048,6,P-GPS,
10900,2024-04-08 17:27:18,39.1017935249372,-96.5961844934133,23.622048,,,1135.9577692903,25.918636,10.4241404,38.094817492,43.035762532,19,5,24.474,1136.2858532903,23.950132,10.4241404,38.094817492,10.06623,2.684328,0,16.1, -6.9, -1.4,0,0,1301,1024,1024,980,42,0,0,-7,0,0,0,100,,,,,,,21.664,96.44,1135.9577692903,23.622048,6,P-GPS,
11000,2024-04-08 17:27:18,39.1017977934572,-96.5961828731377,23.622048,,,1135.9577692903,25.918636,10.625465,39.716536704,44.659122164,19,5,24.474,1136.2858532903,23.950132,10.625465,39.716536704,10.289924,2.684328,0,15.9, -7, -1.1,0,0,1300,1024,1024,937,42,0,0,-13,0,0,0,100,,,,,,,21.664,96.44,1135.9577692903,23.622048,6,P-GPS,
11100,2024-04-08 17:27:18,39.1018019501235,-96.5961813073451,23.622048,,,1135.9577692903,25.918636,10.625465,41.294948828,46.239174708,19,5,24.474,1136.2858532903,23.950132,10.625465,41.294948828,10.289924,2.684328,0,15.7, -7.2, -0.9,0,0,1299,1024,1024,932,42,0,0,-14,0,0,0,100,,,,,,,21.664,96.44,1135.9577692903,23.622048,6,P-GPS,
11200,2024-04-08 17:27:18,39.1018062075412,-96.5961795958154,23.622048,,,1135.9577692903,25.918636,10.625465,42.9215893,47.866471348,19,5,24.474,1136.2858532903,23.950132,10.625465,42.9215893,10.513618,2.684328,0,15.5, -7.4, -1.7,0,0,1287,1024,1024,903,40,0,0,-18,0,0,0,100,,,,,,,21.664,96.44,1135.9577692903,23.622048,6,P-GPS,
11300,2024-04-08 17:27:18,39.1018104766695,-96.5961780266062,23.622048,,,1135.9577692903,25.918636,11.072853,44.539371504,49.485893972,19,5,24.42,1136.2858532903,23.950132,11.072853,44.539371504,10.737312,2.684328,0,15.1, -7.6, -2.8,0,0,1292,1024,1024,892,41,0,0,-20,0,0,0,100,,,,,,,23.188,96.44,1135.9577692903,23.622048,6,P-GPS,
11400,2024-04-08 17:27:18,39.1018143465524,-96.5961768132258,23.622048,,,1135.9577692903,25.918636,11.2741776,45.986878112,50.939306092,19,5,24.42,1136.2858532903,23.950132,11.2741776,45.986878112,10.961006,2.684328,0,14.4, -7.5, -4.2,0,0,1293,1024,1024,847,41,0,0,-27,0,0,0,100,,,,,,,23.188,96.44,1135.9577692903,23.622048,6,P-GPS,
11500,2024-04-08 17:27:18,39.1018187085424,-96.5961753912577,23.622048,,,1135.9577692903,25.918636,11.2741776,47.624017272,52.580710344,19,5,24.42,1136.2858532903,23.950132,11.2741776,47.624017272,10.961006,2.460634,0,13.4, -7.2, -5.7,0,0,1289,1024,1024,880,40,0,0,-22,0,0,0,100,,,,,,,23.188,96.44,1135.9577692903,23.622048,6,P-GPS,
11600,2024-04-08 17:27:18,39.101823758874,-96.5961740069436,23.622048,,,1135.9577692903,25.918636,11.408394,49.496720744,54.464568672,19,5,24.42,1136.2858532903,23.950132,11.408394,49.496720744,11.1847,2.23694,0,12.2, -6.8, -7.2,0,0,1292,1024,1024,865,41,0,0,-24,0,0,0,100,,,,,,,23.188,96.44,1135.9577692903,23.622048,6,P-GPS,
11700,2024-04-08 17:27:18,39.1018283054652,-96.5961728198305,23.622048,,,1135.9577692903,26.24672,11.5873492,51.17782316,56.157154028,19,5,24.42,1136.2858532903,23.950132,11.5873492,51.17782316,11.408394,2.013246,0,10.8, -6.7, -7.4,0,0,1289,1024,1024,886,40,0,0,-21,0,0,0,100,,,,,,,23.188,96.44,1135.9577692903,23.622048,6,P-GPS,
11800,2024-04-08 17:27:18,39.1018329662488,-96.5961718331802,23.622048,,,1135.9577692903,26.24672,11.7663044,52.882547624,57.880251196,19,5,24.42,1136.2858532903,23.950132,11.7663044,52.882547624,11.632088,1.789552,0,9.3, -6.5, -7.5,0,0,1285,1024,1059,991,40,0,5,-5,0,0,0,100,,,,,,,23.188,96.44,1135.9577692903,23.622048,6,P-GPS,
11900,2024-04-08 17:27:19,39.1018376379034,-96.5961709570636,23.622048,,,1135.9577692903,26.24672,11.6991962,54.582678912,59.602692196,19,5,24.42,1136.2858532903,23.950132,11.7663044,54.582678912,11.632088,1.342164,0,8, -6.5, -6,0,0,1285,1024,1035,1024,40,0,2,0,0,0,0,100,,,,,,,23.188,96.44,1135.9577692903,23.622048,6,P-GPS,
12000,2024-04-08 17:27:19,39.101842213878,-96.5961702337766,23.622048,,,1135.9577692903,26.24672,11.9005208,56.237862692,61.284778864,19,5,24.42,1136.2858532903,23.950132,11.9005208,56.237862692,11.855782,1.11847,0,7.1, -6.4, -3.6,0,0,1257,1024,1024,1024,35,0,0,0,0,0,0,100,,,,,,,23.188,96.44,1135.9577692903,23.622048,6,P-GPS,
12100,2024-04-08 17:27:19,39.101846964328,-96.5961695793288,23.622048,,,1135.9577692903,26.24672,11.9005208,57.950133088,63.027889156,19,5,24.42,1136.2858532903,23.950132,11.9005208,57.950133088,11.855782,1.11847,0,6.7, -6.2, -0.3,0,0,1292,1024,1024,1024,41,0,0,0,0,0,0,100,,,,,,,23.188,96.44,1135.9577692903,23.622048,6,P-GPS,
12200,2024-04-08 17:27:19,39.1018518165318,-96.5961689893213,23.622048,,,1135.9577692903,26.24672,11.9005208,59.694555716,64.806104436,19,5,24.42,1136.2858532903,23.950132,11.9005208,59.694555716,11.855782,1.11847,0,6.7, -5.9, 1.4,0,0,1273,1024,1024,1024,38,0,0,0,0,0,0,100,,,,,,,23.188,96.44,1135.9577692903,23.622048,6,P-GPS,
12300,2024-04-08 17:27:19,39.1018566210455,-96.5961683073147,23.622048,,,1135.9577692903,26.24672,12.1242148,61.431760496,66.569555936,19,5,24.36,1136.2858532903,23.950132,12.1242148,61.431760496,12.079476,1.11847,0,6.8, -5.4, 1.9,0,0,1253,1024,1024,1024,35,0,0,0,0,0,0,100,,,,,,,22.458,96.44,1135.9577692903,23.622048,6,P-GPS,
12400,2024-04-08 17:27:19,39.1018609723015,-96.5961676534409,23.622048,,,1135.9577692903,25.918636,12.1242148,63.008860284,68.167981184,19,5,24.36,1136.2858532903,23.950132,12.1242148,63.008860284,12.079476,1.342164,0,6.9, -5.1, 1.5,0,0,1253,1024,1024,1024,35,0,0,0,0,0,0,100,,,,,,,22.458,96.44,1135.9577692903,23.622048,6,P-GPS,
12500,2024-04-08 17:27:19,39.1018657504473,-96.5961669095275,23.622048,,,1135.9577692903,25.918636,11.9228902,64.743768476,69.923886752,19,5,24.36,1136.2858532903,23.950132,12.1242148,64.743768476,11.855782,1.342164,0,6.8, -4.9, 0.7,0,0,1246,1024,1024,1024,34,0,0,0,0,0,0,100,,,,,,,22.458,96.44,1135.9577692903,23.622048,6,P-GPS,
12600,2024-04-08 17:27:19,39.1018709687609,-96.5961659689541,23.622048,,,1135.9577692903,25.918636,11.9228902,66.649608432,71.846458992,19,5,24.36,1136.2858532903,23.950132,12.1242148,66.649608432,11.855782,1.342164,0,6.7, -4.7, 0,0,0,1243,1024,1024,1024,33,0,0,0,0,0,0,100,,,,,,,22.458,96.44,1135.9577692903,23.622048,6,P-GPS,
12700,2024-04-08 17:27:19,39.101875791984,-96.5961651917029,23.622048,,,1135.9577692903,26.24672,11.9228902,68.405185916,73.619753012,19,5,24.36,1136.2858532903,23.950132,12.1242148,68.405185916,11.855782,1.342164,0,6.6, -4.5, -0.3,0,0,1222,1024,1024,1024,30,0,0,0,0,0,0,100,,,,,,,22.458,96.44,1135.9577692903,23.622048,6,P-GPS,
12800,2024-04-08 17:27:20,39.1018800855185,-96.5961644704029,23.622048,,,1135.9577692903,26.24672,11.9228902,69.970802764,75.199477472,19,5,24.36,1136.2858532903,23.950132,12.1242148,69.970802764,11.855782,1.342164,0,6.6, -4.2, -0.3,0,0,1226,1024,1024,1024,31,0,0,0,0,0,0,100,,,,,,,22.458,96.44,1135.9577692903,23.622048,6,P-GPS,
12900,2024-04-08 17:27:20,39.1018848627562,-96.5961637069504,23.622048,,,1135.9577692903,26.574804,11.9228902,71.710632216,76.956039208,19,5,24.36,1136.2858532903,23.950132,12.1242148,71.710632216,11.855782,1.342164,0,6.5, -3.9, -0.2,0,0,1226,1024,1024,1024,31,0,0,0,0,0,0,100,,,,,,,22.458,96.44,1135.9577692903,23.622048,6,P-GPS,
13000,2024-04-08 17:27:20,39.1018900718179,-96.596163120812,23.622048,,,1135.9577692903,26.574804,11.9228902,73.591209704,78.863519584,19,5,24.36,1136.2858532903,23.950132,12.1242148,73.591209704,11.855782,1.342164,0,6.5, -3.4, -0.1,0,0,1194,1024,1024,1024,26,0,0,0,0,0,0,100,,,,,,,22.458,96.44,1135.9577692903,23.622048,6,P-GPS,
13100,2024-04-08 17:27:20,39.1018948698038,-96.5961623840298,23.622048,,,1135.9577692903,26.574804,11.9228902,75.338257004,80.626643,19,5,24.36,1136.2858532903,23.950132,12.1242148,75.338257004,11.855782,1.342164,0,6.5, -3, 0,0,0,1147,1024,1024,1024,19,0,0,0,0,0,0,100,,,,,,,22.458,96.44,1135.9577692903,23.622048,6,P-GPS,
13200,2024-04-08 17:27:20,39.1018994395933,-96.596161698706,23.622048,,,1135.9577692903,26.574804,11.9228902,77.001642884,82.305120744,19,5,24.36,1136.2858532903,23.950132,12.1242148,77.001642884,11.855782,1.342164,0,6.6, -2.7, 0.1,0,0,1149,1024,1024,1024,19,0,0,0,0,0,0,100,,,,,,,22.458,96.44,1135.9577692903,23.622048,6,P-GPS,
13300,2024-04-08 17:27:20,39.1019041730215,-96.5961609714614,23.622048,,,1135.9577692903,26.574804,11.9228902,78.726708556,84.044294028,19,5,24.318,1136.2858532903,23.950132,12.1242148,78.726708556,11.855782,1.342164,0,6.7, -2.2, 0.3,0,0,1150,1024,1024,1024,19,0,0,0,0,0,0,100,,,,,,,22.502,96.44,1135.9577692903,23.622048,6,P-GPS,
13400,2024-04-08 17:27:20,39.1019085076927,-96.5961602804304,23.622048,,,1135.9577692903,26.574804,11.6991962,80.308729604,85.637798016,19,5,24.318,1136.2858532903,23.950132,12.1242148,80.308729604,11.632088,1.342164,0,6.7, -1.1, 0.4,0,0,1157,1024,1024,1024,20,0,0,0,0,0,0,100,,,,,,,22.502,96.44,1135.9577692903,23.622048,6,P-GPS,
13500,2024-04-08 17:27:20,39.1019131229193,-96.5961595599197,23.622048,,,1135.9577692903,26.574804,11.6991962,81.992456692,87.333992296,19,5,24.318,1136.2858532903,23.950132,12.1242148,81.992456692,11.632088,1.342164,0,6.8, -0.1, 0.3,0,0,1155,1024,1024,1024,20,0,0,0,0,0,0,100,,,,,,,22.502,96.44,1135.9577692903,23.622048,6,P-GPS,
13600,2024-04-08 17:27:20,39.1019178576839,-96.5961587635323,23.622048,,,1135.9577692903,26.902888,11.6991962,83.724084044,89.076118336,19,5,24.318,1136.2858532903,23.950132,12.1242148,83.724084044,11.408394,1.342164,0,6.8, 0.4, 0.2,0,0,1154,1024,1024,1024,20,0,0,0,0,0,0,100,,,,,,,22.502,96.44,1135.9577692903,23.622048,6,P-GPS,
13700,2024-04-08 17:27:20,39.1019223438293,-96.5961580531775,23.622048,,,1135.9577692903,26.902888,11.2741776,85.36253554,90.725396604,19,5,24.318,1136.2858532903,23.950132,12.1242148,85.36253554,11.1847,1.342164,0,6.8, 0.7, 0.1,0,0,1159,1024,1024,1024,20,0,0,0,0,0,0,100,,,,,,,22.502,96.44,1135.9577692903,23.622048,6,P-GPS,
13800,2024-04-08 17:27:21,39.1019266064555,-96.5961572804246,23.622048,,,1135.9577692903,26.902888,11.0281142,86.9258558,92.295934712,19,5,24.318,1136.2858532903,23.950132,12.1242148,86.9258558,10.961006,1.11847,0,6.9, 0.6, 0.2,0,0,1170,1024,1024,1024,22,0,0,0,0,0,0,100,,,,,,,22.502,96.44,1135.9577692903,23.622048,6,P-GPS,
13900,2024-04-08 17:27:21,39.1019309289793,-96.5961565904257,23.622048,,,1135.9577692903,27.230972,11.0281142,88.505252176,93.884845524,19,5,24.318,1136.2858532903,23.950132,12.1242148,88.505252176,10.737312,1.11847,0,6.9, 0.4, 0.3,0,0,1173,1024,1024,922,23,0,0,-15,0,0,0,100,,,,,,,22.502,96.44,1135.9577692903,23.622048,6,P-GPS,
14000,2024-04-08 17:27:21,39.1019355842289,-96.5961559325504,23.622048,,,1135.9577692903,27.230972,10.8044202,90.201446456,95.593506996,19,5,24.318,1136.2858532903,23.950132,12.1242148,90.201446456,10.737312,1.11847,0,7, 0, 0.4,0,0,1165,1024,1024,872,21,0,0,-23,0,0,0,100,,,,,,,22.502,96.44,1135.9577692903,23.622048,6,P-GPS,
14100,2024-04-08 17:27:21,39.1019397985911,-96.5961552411826,23.622048,,,1135.9577692903,27.230972,10.5807262,91.743441256,97.143703896,19,5,24.318,1136.2858532903,23.950132,12.1242148,91.743441256,10.513618,1.11847,0,6.9, -0.2, -0.8,0,0,1165,1024,1024,851,21,0,0,-26,0,0,0,100,,,,,,,22.502,96.44,1135.9577692903,23.622048,6,P-GPS,
14200,2024-04-08 17:27:21,39.1019438841633,-96.5961544132679,23.622048,,,1135.9577692903,27.230972,10.5807262,93.248362564,98.652562212,19,5,24.318,1136.2858532903,23.950132,12.1242148,93.248362564,10.289924,1.11847,0,6.5, -0.3, -2.9,0,0,1157,1024,1024,826,20,0,0,-30,0,0,0,100,,,,,,,22.502,96.44,1135.9577692903,23.622048,6,P-GPS,
14300,2024-04-08 17:27:21,39.1019479769485,-96.5961537700799,23.622048,,,1135.9577692903,27.559056,10.3570322,94.744425604,100.156827352,19,5,24.324,1136.2858532903,23.950132,12.1242148,94.744425604,10.289924,1.11847,0,5.6, -0.4, -5.6,0,0,1146,1024,1024,797,18,0,0,-34,0,0,0,100,,,,,,,21.672,96.44,1135.9577692903,23.622048,6,P-GPS,
14400,2024-04-08 17:27:21,39.1019516306624,-96.5961534345547,23.622048,,,1135.9577692903,27.559056,10.0885994,96.065291788,101.493441568,19,5,24.324,1136.2858532903,23.950132,12.1242148,96.065291788,10.06623,0.671082,0,4.3, -0.4, -7.8,0,0,1136,1024,1024,812,17,0,0,-32,0,0,0,100,,,,,,,21.672,96.44,1135.9577692903,23.622048,6,P-GPS,
14500,2024-04-08 17:27:21,39.1019555891923,-96.5961530747933,23.622048,,,1135.9577692903,27.559056,9.842536,97.49672228,102.94127626,19,5,24.324,1136.2858532903,23.950132,12.1242148,97.49672228,9.842536,0.447388,0,2.7, -0.3, -9.5,0,0,1108,1024,1024,831,13,0,0,-29,0,0,0,100,,,,,,,21.672,96.44,1135.9577692903,23.622048,6,P-GPS,
14600,2024-04-08 17:27:21,39.1019593011076,-96.5961528966734,23.622048,,,1135.9577692903,27.88714,9.842536,98.829399488,104.29626318,19,5,24.324,1136.2858532903,23.950132,12.1242148,98.829399488,9.842536,0,0,0.7, -0.3, -9.6,0,0,1093,1024,1024,829,10,0,0,-30,0,0,0,100,,,,,,,21.672,96.44,1135.9577692903,23.622048,6,P-GPS,
14700,2024-04-08 17:27:21,39.1019631235316,-96.5961529221735,23.622048,,,1135.9577692903,27.88714,9.618842,100.189963836,105.690948264,19,5,24.324,1136.2858532903,23.950132,12.1242148,100.189963836,9.618842,0,0,358.9, 0, -8.6,0,0,1054,1024,1024,840,5,0,0,-28,0,0,0,100,,,,,,,21.672,96.44,1135.9577692903,23.622048,6,P-GPS,
14800,2024-04-08 17:27:21,39.1019674521891,-96.5961531711143,23.622048,,,1135.9577692903,27.88714,9.395148,101.718507192,107.27198506,19,5,24.324,1136.2858532903,23.950132,12.1242148,101.718507192,9.395148,-0.447388,0,357.1, 0.2, -7.7,0,0,1072,1024,1024,843,7,0,0,-27,0,0,0,100,,,,,,,21.672,96.44,1135.9577692903,23.622048,6,P-GPS,
14900,2024-04-08 17:27:22,39.1019711898212,-96.5961535099898,23.622048,,,1135.9577692903,28.215224,9.1938234,103.032483612,108.638783004,19,5,24.324,1136.2858532903,23.950132,12.1242148,103.032483612,9.171454,-0.671082,0,355.4, 0.6, -7,0,0,1075,1024,1024,838,8,0,0,-28,0,0,0,100,,,,,,,21.672,96.44,1135.9577692903,23.622048,6,P-GPS,
15000,2024-04-08 17:27:22,39.1019743908086,-96.5961541046724,23.622048,,,1135.9577692903,28.215224,9.2161928,104.141407532,109.818901152,19,5,24.324,1136.2858532903,23.950132,12.1242148,104.141407532,9.171454,-0.894776,0,353.7, 1.3, -6.9,0,0,1024,1024,1024,853,0,0,0,-26,0,0,0,100,,,,,,,21.672,96.44,1135.9577692903,23.622048,6,P-GPS,
15100,2024-04-08 17:27:22,39.1019779328315,-96.5961547162446,23.622048,,,1135.9577692903,28.215224,8.7911742,105.372706784,111.122706968,19,5,24.324,1136.2858532903,23.950132,12.1242148,105.372706784,8.724066,-1.11847,0,352, 2.1, -7.1,0,0,1025,1024,1024,844,0,0,0,-27,0,0,0,100,,,,,,,21.672,96.44,1135.9577692903,23.622048,6,P-GPS,
15200,2024-04-08 17:27:22,39.1019813699138,-96.5961553253055,23.622048,,,1135.9577692903,28.215224,8.612219,106.568572964,112.38845504,19,5,24.324,1136.2858532903,23.950132,12.1242148,106.568572964,8.500372,-1.342164,0,349.9, 3, -5,0,0,1029,1024,1024,830,1,0,0,-29,0,0,0,100,,,,,,,21.672,96.44,1135.9577692903,23.622048,6,P-GPS,
15300,2024-04-08 17:27:22,39.1019847119927,-96.5961562055562,23.622048,,,1135.9577692903,28.543308,8.4332638,107.717195048,113.633205736,19,5,24.336,1136.2858532903,23.950132,12.1242148,107.717195048,8.276678,-1.565858,0,347.5, 11.8, 0.7,0,0,1034,1024,1024,815,2,0,0,-32,0,0,0,100,,,,,,,21.22,96.62,1135.9577692903,23.622048,6,P-GPS,
15400,2024-04-08 17:27:22,39.1019876894952,-96.5961569967166,23.622048,,,1135.9577692903,28.543308,7.717443,108.742129464,114.74245774,19,5,24.336,1136.2858532903,23.950132,12.1242148,108.742129464,7.605596,-1.342164,0,346.4, 20.7, 1.9,0,0,1029,1024,1024,834,1,0,0,-29,0,0,0,100,,,,,,,21.22,96.62,1135.9577692903,23.622048,6,P-GPS,
15500,2024-04-08 17:27:22,39.1019904525421,-96.5961576191181,23.622048,,,1135.9577692903,28.543308,6.5542342,109.700462828,115.765751736,19,5,24.336,1136.2858532903,23.950132,12.1242148,109.700462828,6.487126,-0.894776,0,344.9, 25.6, 0,0,0,1029,1024,1024,834,1,0,0,-29,0,0,0,100,,,,,,,21.22,96.62,1135.9577692903,23.622048,6,P-GPS,
15600,2024-04-08 17:27:22,39.1019927920059,-96.5961582100584,23.622048,,,1135.9577692903,28.543308,5.4133948,110.509517972,116.63550242,19,5,24.336,1136.2858532903,23.950132,12.1242148,110.509517972,5.368656,-0.671082,0,343.2, 27, -2.8,0,0,1024,1024,1024,807,0,0,0,-33,0,0,0,100,,,,,,,21.22,96.62,1135.9577692903,23.622048,6,P-GPS,
15700,2024-04-08 17:27:22,39.1019945797822,-96.5961585996858,23.622048,,,1135.9577692903,28.871392,4.0712308,111.131237152,117.296919764,19,5,24.336,1136.2858532903,23.950132,12.1242148,111.131237152,4.026492,-0.671082,0,341.6, 22.5, -4.2,0,0,1024,1024,1024,789,0,0,0,-36,0,0,0,100,,,,,,,21.22,96.62,1135.9577692903,23.622048,6,P-GPS,
15800,2024-04-08 17:27:23,39.1019958796747,-96.596158359074,23.622048,,,1135.9577692903,28.871392,2.9527608,111.610239792,117.776250488,19,5,24.336,1136.2858532903,23.950132,12.1242148,111.610239792,2.908022,-0.447388,0,340.2, 14.3, -3.8,0,0,1024,1024,1024,771,0,0,0,-38,0,0,0,100,,,,,,,21.22,96.62,1135.9577692903,23.622048,6,P-GPS,
15900,2024-04-08 17:27:23,39.1019969301085,-96.5961586170833,23.622048,,,1135.9577692903,29.199476,2.5053728,111.974413032,118.166342364,19,5,24.336,1136.2858532903,23.950132,12.1242148,111.974413032,2.460634,-0.447388,0,338.5, 6.9, -2.4,0,0,1024,1024,1024,734,0,0,0,-44,0,0,0,100,,,,,,,21.22,96.62,1135.9577692903,23.622048,6,P-GPS,
16000,2024-04-08 17:27:23,39.1019978000273,-96.5961588343973,23.622048,,,1135.9577692903,29.52756,2.2816788,112.275922228,118.489505104,19,5,24.336,1136.2858532903,23.950132,12.1242148,112.275922228,2.23694,-0.447388,0,336.2, 2.8, -1.1,0,0,1024,1024,1024,744,0,0,0,-42,0,0,0,100,,,,,,,21.22,96.62,1135.9577692903,23.622048,6,P-GPS,
16100,2024-04-08 17:27:23,39.10199864805,-96.5961590985498,23.622048,,,1135.9577692903,29.52756,2.0579848,112.567588904,118.808074668,19,5,24.336,1136.2858532903,23.950132,12.1242148,112.567588904,2.013246,-0.447388,0,333.3, 2.3, -0.6,0,0,1024,1024,1024,719,0,0,0,-46,0,0,0,100,,,,,,,21.22,96.62,1135.9577692903,23.622048,6,P-GPS,
16200,2024-04-08 17:27:23,39.1019992148833,-96.5961597753957,23.622048,,,1135.9577692903,29.52756,1.8342908,112.7378645,119.089898824,19,5,24.336,1136.2858532903,23.950132,12.1242148,112.7378645,1.789552,-0.447388,0,330.2, 3.9, -0.8,0,0,1024,1024,1024,732,0,0,0,-44,0,0,0,100,,,,,,,21.22,96.62,1135.9577692903,23.622048,6,P-GPS,
16300,2024-04-08 17:27:23,39.1019998993186,-96.5961600630999,23.622048,,,1135.9577692903,29.52756,1.6329662,112.969819888,119.352694108,19,5,24.324,1136.2858532903,23.950132,12.1242148,112.969819888,1.565858,-0.447388,0,326.7, 5.3, -1.1,0,0,1024,1024,1024,746,0,0,0,-42,0,0,0,100,,,,,,,23.67,96.62,1135.9577692903,23.622048,6,P-GPS,
16400,2024-04-08 17:27:23,39.1020009350178,-96.5961604604932,23.622048,,,1135.9577692903,29.199476,1.6329662,113.323166356,119.746722992,19,5,24.324,1136.2858532903,23.950132,12.1242148,113.323166356,1.342164,-0.447388,0,323.1, 5.5, -1.3,0,0,1024,1024,1024,783,0,0,0,-37,0,0,0,100,,,,,,,23.67,96.62,1135.9577692903,23.622048,6,P-GPS,
16500,2024-04-08 17:27:23,39.1020014686128,-96.5961606974732,23.622048,,,1135.9577692903,29.199476,1.1408394,113.503612556,119.952759744,19,5,24.324,1136.2858532903,23.950132,12.1242148,113.503612556,1.11847,-0.223694,0,319.8, 4.6, -1.4,0,0,1024,1024,1024,821,0,0,0,-31,0,0,0,100,,,,,,,23.67,96.62,1135.9577692903,23.622048,6,P-GPS,
16600,2024-04-08 17:27:23,39.1020018883066,-96.5961608266793,23.622048,,,1135.9577692903,29.199476,0.9171454,113.6482976,120.110240064,19,5,24.324,1136.2858532903,23.950132,12.1242148,113.6482976,0.894776,-0.223694,0,317, 3.6, -1.5,0,0,1024,1024,1024,1024,0,0,0,0,0,0,0,100,,,,,,,23.67,96.62,1135.9577692903,23.622048,6,P-GPS,
16700,2024-04-08 17:27:23,39.1020022811013,-96.5961610179302,23.622048,,,1135.9577692903,29.199476,0.9171454,113.780515452,120.263455292,19,5,24.324,1136.2858532903,23.950132,12.1242148,113.780515452,0.894776,-0.223694,0,314.5, 2.9, -1.5,0,0,1024,1024,1024,1024,0,0,0,0,0,0,0,100,,,,,,,23.67,96.62,1135.9577692903,23.622048,6,P-GPS,
16800,2024-04-08 17:27:23,39.1020025044148,-96.5961612787986,23.622048,,,1135.9577692903,29.199476,0.7158208,113.84842884,120.373363432,19,5,24.324,1136.2858532903,23.950132,12.1242148,113.84842884,0.671082,-0.223694,0,313, 2.6, -1.3,0,0,1024,1024,1024,1024,0,0,0,0,0,0,0,100,,,,,,,23.67,96.62,1135.9577692903,23.622048,6,P-GPS,
16900,2024-04-08 17:27:24,39.1020027786139,-96.596161462714,23.622048,,,1135.9577692903,29.199476,0.7158208,113.938323856,120.486224328,19,5,24.324,1136.2858532903,23.950132,12.1242148,113.938323856,0.671082,-0.223694,0,312.2, 2.6, -1,0,0,1024,1024,1024,1024,0,0,0,0,0,0,0,100,,,,,,,23.67,96.62,1135.9577692903,23.622048,6,P-GPS,
17000,2024-04-08 17:27:24,39.1020029555308,-96.59616162358,23.622048,,,1135.9577692903,29.199476,0.7158208,113.99442622,120.564964488,19,5,24.324,1136.2858532903,23.950132,12.1242148,113.99442622,0.447388,-0.223694,0,311.7, 2.6, -0.7,0,0,1024,1024,1024,1024,0,0,0,0,0,0,0,100,,,,,,,23.67,96.62,1135.9577692903,23.622048,6,P-GPS,
17100,2024-04-08 17:27:24,39.1020031321051,-96.5961617798372,23.622048,,,1135.9577692903,28.871392,0.4921268,114.050528584,120.643376564,19,5,24.324,1136.2858532903,23.950132,12.1242148,114.050528584,0.447388,-0.223694,0,311.3, 3, -0.3,0,0,1024,1024,1024,1024,0,0,0,0,0,0,0,100,,,,,,,23.67,96.62,1135.9577692903,23.622048,6,P-GPS,
17200,2024-04-08 17:27:24,39.102003245698,-96.596161919028,23.622048,,,1135.9577692903,28.871392,0.4921268,114.084977404,120.70046318,19,5,24.324,1136.2858532903,23.950132,12.1242148,114.084977404,0.223694,0,0,311, 3.1, -0.1,0,0,1024,1024,1024,1024,0,0,0,0,0,0,0,100,,,,,,,23.67,96.62,1135.9577692903,23.622048,6,P-GPS,
17300,2024-04-08 17:27:24,39.1020033372918,-96.5961620179762,23.622048,,,1135.9577692903,28.871392,0.223694,114.113192628,120.744098352,19,5,24.324,1136.2858532903,23.950132,12.1242148,114.113192628,0.223694,0,0,310.7, 2.7, 0,0,0,1024,1024,1024,1024,0,0,0,0,0,0,0,100,,,,,,,23.578,96.62,1135.9577692903,23.622048,6,P-GPS,
17400,2024-04-08 17:27:24,39.1020032222598,-96.5961619643487,23.622048,,,1135.9577692903,28.871392,0.223694,114.074478716,120.788717776,19,5,24.324,1136.2858532903,23.950132,12.1242148,114.113192628,0.223694,0,0,310.4, 2.1, -0.1,0,0,1024,1024,1024,1024,0,0,0,0,0,0,0,100,,,,,,,23.578,96.62,1135.9577692903,23.622048,6,P-GPS,
17500,2024-04-08 17:27:24,39.1020032296613,-96.596162005607,23.622048,,,1135.9577692903,28.871392,0,114.075134884,120.8005288,19,5,24.324,1136.2858532903,23.950132,12.1242148,114.113192628,0,0,0,310.1, 1.5, -0.1,0,0,1024,1024,1024,1024,0,0,0,0,0,0,0,100,,,,,,,23.578,96.62,1135.9577692903,23.622048,6,P-GPS,
17600,2024-04-08 17:27:24,39.1020033166978,-96.5961620746395,23.622048,,,1135.9577692903,28.871392,0,114.103350108,120.837930376,19,5,24.324,1136.2858532903,23.950132,12.1242148,114.113192628,0,0,0,309.7, 1.1, 0,0,0,1024,1024,1024,1024,0,0,0,0,0,0,0,100,,,,,,,23.578,96.62,1135.9577692903,23.622048,6,P-GPS,
17700,2024-04-08 17:27:24,39.102003287777,-96.5961621061724,23.622048,,,1135.9577692903,28.871392,0,114.091539084,120.851709904,19,5,24.324,1136.2858532903,23.950132,12.1242148,114.113192628,0,0,0,309.3, 1.1, 0.2,0,0,1024,1024,1024,1024,0,0,0,0,0,0,0,100,,,,,,,23.578,96.62,1135.9577692903,23.622048,6,P-GPS,
17800,2024-04-08 17:27:24,39.1020032750299,-96.5961621858851,23.622048,,,1135.9577692903,28.871392,0,114.0830089,120.875003868,19,5,24.324,1136.2858532903,23.950132,12.1242148,114.113192628,0,0,0,308.9, 1.1, 0.2,0,0,1024,1024,1024,1024,0,0,0,0,0,0,0,100,,,,,,,23.578,96.62,1135.9577692903,23.622048,6,P-GPS,
17900,2024-04-08 17:27:25,39.1020032167087,-96.5961621987235,23.622048,,,1135.9577692903,28.871392,0,114.061355356,120.896329328,19,5,24.324,1136.2858532903,23.950132,12.1242148,114.113192628,0,0,0,308.5, 1.1, 0,0,0,1024,1024,1024,1024,0,0,0,0,0,0,0,100,,,,,,,23.578,96.62,1135.9577692903,23.622048,6,P-GPS,
18000,2024-04-08 17:27:25,39.1020032021112,-96.5961622031446,23.622048,,,1135.9577692903,28.871392,0,114.056106012,120.901906756,19,5,24.324,1136.2858532903,23.950132,12.1242148,114.113192628,0,0,0,308.1, 1.2, -0.2,0,0,1024,1024,1024,1024,0,0,0,0,0,0,0,100,,,,,,,23.578,96.62,1135.9577692903,23.622048,6,P-GPS,
18100,2024-04-08 17:27:25,39.1020031099348,-96.5961621988725,23.622048,,,1135.9577692903,28.871392,0,114.022969528,120.935699408,19,5,24.324,1136.2858532903,23.950132,12.1242148,114.113192628,0,0,0,307.9, 1.2, -0.4,0,0,1024,1024,1024,1024,0,0,0,0,0,0,0,100,,,,,,,23.578,96.62,1135.9577692903,23.622048,6,P-GPS,
18200,2024-04-08 17:27:25,39.1020031514999,-96.5961622334136,23.622048,,,1135.9577692903,28.871392,0,114.036420972,120.953744028,19,5,24.324,1136.2858532903,23.950132,12.1242148,114.113192628,0,0,0,307.7, 1.1, 0,0,0,1024,1024,1024,1024,0,0,0,0,0,0,0,100,,,,,,,23.578,96.62,1135.9577692903,23.622048,6,P-GPS,
18300,2024-04-08 17:27:25,39.1020030316706,-96.596162213858,23.622048,,,1135.9577692903,28.871392,0,113.994098136,120.997707284,19,5,24.27,1136.2858532903,23.950132,12.1242148,114.113192628,0,0,0,307.7, 0.7, 0.7,0,0,1024,1024,1024,1024,0,0,0,0,0,0,0,100,,,,,,,21.744,96.62,1135.9577692903,23.622048,6,P-GPS,
18400,2024-04-08 17:27:25,39.1020028101046,-96.5961622795014,23.622048,,,1135.9577692903,28.871392,0,113.911420968,121.080712536,19,5,24.27,1136.2858532903,23.950132,12.1242148,114.113192628,0,0,0,307.7, 0.4, 1,0,0,1024,1024,1024,1024,0,0,0,0,0,0,0,100,,,,,,,21.744,96.62,1135.9577692903,23.622048,6,P-GPS,
