time(millisecond),datetime(utc),latitude,longitude,height_above_takeoff(feet),height_above_ground_at_drone_location(feet),ground_elevation_at_drone_location(feet),altitude_above_seaLevel(feet),height_sonar(feet),speed(mph),distance(feet),mileage(feet),satellites,gpslevel,voltage(v),max_altitude(feet),max_ascent(feet),max_speed(mph),max_distance(feet), xSpeed(mph), ySpeed(mph), zSpeed(mph), compass_heading(degrees), pitch(degrees), roll(degrees),isPhoto,isVideo,rc_elevator,rc_aileron,rc_throttle,rc_rudder,rc_elevator(percent),rc_aileron(percent),rc_throttle(percent),rc_rudder(percent),gimbal_heading(degrees),gimbal_pitch(degrees),gimbal_roll(degrees),battery_percent,voltageCell1,voltageCell2,voltageCell3,voltageCell4,voltageCell5,voltageCell6,current(A),battery_temperature(f),altitude(feet),ascent(feet),flycStateRaw,flycState,message
0,2024-04-08 16:33:11,39.1036597468391,-96.6051069698937,0,Available with any HD 360 subscription,Available with any HD 360 subscription,1086.3459176371,0.656168,0,0,0,23,5,0,1086.3459176371,0,0,0,0,0,0,14.4, -0.6, -1.1,0,0,364,364,364,1651,-100,-100,-100,95,0,0,0,99,,,,,,,0,71.96,1086.3459176371,0,41,Motors_Started,"Your aircraft is flying in an Altitude Zone (1640ft). Please fly with caution."
100,2024-04-08 16:33:11,39.1036597617836,-96.6051069642923,0,,,1086.3459176371,0.656168,0,0.0056784450636,0.0056784450636,23,5,0,1086.3459176371,0,0,0.0056784450636,0,0,0,14.4, -0.6, -1.1,0,0,364,364,364,1651,-100,-100,-100,95,0,0,0,99,,,,,,,0,71.96,1086.3459176371,0,41,Motors_Started,
200,2024-04-08 16:33:11,39.1036597330089,-96.6051069738229,0,,,1086.3459176371,0.656168,0,0.0051670933412,0.0165181107648,23,5,0,1086.3459176371,0,0,0.0056784450636,0,0,0,14.4, -0.6, -1.1,0,0,364,364,364,1651,-100,-100,-100,95,0,0,0,99,,,,,,,0,71.96,1086.3459176371,0,41,Motors_Started,
300,2024-04-08 16:33:11,39.1036597441564,-96.6051069689445,0,,,1086.3459176371,0.656168,0,0.00101500331332,0.0208133536844,23,5,0,1086.3459176371,0,0,0.0056784450636,0,0,0,14.4, -0.6, -1.1,0,0,364,364,364,1644,-100,-100,-100,94,0,0,0,99,,,,,,,0,71.96,1086.3459176371,0,41,Motors_Started,
400,2024-04-08 16:33:12,39.1036597195551,-96.6051069777187,0,,,1086.3459176371,0.656168,0,0.0101980974392,0.0301265429588,23,5,0,1086.3459176371,0,0,0.0101980974392,0,0,0,14.4, -0.6, -1.1,0,0,677,635,755,1160,-53,-59,-41,21,0,0,0,99,,,,,,,0,71.96,1086.3459176371,0,41,Motors_Started,
500,2024-04-08 16:33:12,39.103659727146,-96.6051069740316,0,,,1086.3459176371,0.656168,0,0.0072798886844,0.033086287148,23,5,0,1086.3459176371,0,0,0.0101980974392,0,0,0,14.4, -0.6, -1.1,0,0,1024,1024,1024,1024,0,0,0,0,0,0,0,99,,,,,,,0,71.96,1086.3459176371,0,41,Motors_Started,
600,2024-04-08 16:33:12,39.1036597070178,-96.6051069805854,0,,,1086.3459176371,0.656168,0,0.0148407485064,0.040660762456,23,5,0,1086.3459176371,0,0,0.0148407485064,0,0,0,14.4, -0.6, -1.1,0,0,1024,1024,1024,1024,0,0,0,0,0,0,0,99,,,,,,,0,71.96,1086.3459176371,0,41,Motors_Started,
700,2024-04-08 16:33:12,39.1036597123836,-96.6051069773765,0,,,1086.3459176371,0.656168,0,0.0127483271796,0.042818899008,23,5,0,1086.3459176371,0,0,0.0148407485064,0,0,0,14.4, -0.6, -1.1,0,0,1024,1024,1024,1024,0,0,0,0,0,0,0,99,,,,,,,0,71.96,1086.3459176371,0,41,Motors_Started,
800,2024-04-08 16:33:12,39.103659860065,-96.6051069816355,0,,,1086.3459176371,0.656168,0,0.041443898964,0.096713913856,23,5,0,1086.3459176371,0,0,0.041443898964,0,0,0,14.4, -0.7, -1.1,0,0,1024,1024,1024,1024,0,0,0,0,0,0,0,99,,,,,,,0,71.96,1086.3459176371,0,41,Motors_Started,
900,2024-04-08 16:33:12,39.1036598767746,-96.6051069788087,0,,,1086.3459176371,0.656168,0,0.047474082884,0.102862864184,23,5,0,1086.3459176371,0,0,0.047474082884,0,0,0,14.4, -0.6, -1.1,0,0,1024,1024,1024,1024,0,0,0,0,0,0,0,99,,,,,,,0,71.96,1086.3459176371,0,41,Motors_Started,"Setting new Return-To-Home altitude to 61m (200 ft). Data Recorder File Index is 32. Setting new Maximum Flight Altitude to 61m (200 ft)"
1000,2024-04-08 16:33:12,39.1036598462094,-96.60510698156,0,,,1086.3459176371,0.656168,0,0.036405512976,0.114041670316,23,5,0,1086.3459176371,0,0,0.047474082884,0,0,0,14.5, -0.6, -1.2,0,0,1024,1024,1024,1024,0,0,0,0,0,0,0,99,,,,,,,0,71.96,1086.3459176371,0,41,Motors_Started,
1100,2024-04-08 16:33:12,39.1036598599223,-96.6051069793496,0,,,1086.3459176371,0.656168,0,0.04134514568,0.119083665228,23,5,0,1086.3459176371,0,0,0.047474082884,0,0,0,14.5, -0.6, -1.2,0,0,1024,1024,1024,1024,0,0,0,0,0,0,0,99,,,,,,,0,71.96,1086.3459176371,0,41,Motors_Started,
1200,2024-04-08 16:33:12,39.1036598348458,-96.6051069809593,0,,,1086.3459176371,0.656168,0,0.0322616808224,0.128244098592,23,5,0,1086.3459176371,0,0,0.047474082884,0,0,0,14.6, -0.6, -1.1,0,0,1024,1024,1024,1024,0,0,0,0,0,0,0,99,,,,,,,0,71.96,1086.3459176371,0,41,Motors_Started,
1300,2024-04-08 16:33:12,39.1036598479402,-96.6051069795438,0,,,1086.3459176371,0.656168,0,0.036987862076,0.133038390084,23,5,0,1086.3459176371,0,0,0.047474082884,0,0,0,14.5, -0.6, -1.1,0,0,1024,1024,1024,1024,0,0,0,0,0,0,0,99,,,,,,,0,71.96,1086.3459176371,0,41,Motors_Started,
1400,2024-04-08 16:33:13,39.1036598186943,-96.6051068213324,0,,,1086.3459176371,0.656168,0,0.049562665628,0.179085635652,23,5,0,1086.3459176371,0,0,0.049562665628,0,0,0,14.5, -0.6, -1.2,0,0,1024,1024,1024,1024,0,0,0,0,0,0,0,99,,,,,,,0,71.96,1086.3459176371,0,41,Motors_Started,
1500,2024-04-08 16:33:13,39.1036598255415,-96.6051067950927,0,,,1086.3459176371,0.656168,0,0.057217521516,0.186923562412,23,5,0,1086.3459176371,0,0,0.057217521516,0,0,0,14.5, -0.6, -1.1,0,0,1024,1024,1024,1024,0,0,0,0,0,0,0,99,,,,,,,0,71.96,1086.3459176371,0,41,Motors_Started,
1600,2024-04-08 16:33:13,39.1036599656012,-96.6051068137185,0,,,1086.3459176371,0.656168,0,0.091244753576,0.2382956113,23,5,25.032,1086.3459176371,0,0,0.091244753576,0,0,0,14.5, -0.6, -1.1,0,0,1024,1024,1024,1024,0,0,0,0,0,0,0,99,,,,,,,2.486,71.96,1086.3459176371,0,41,Motors_Started,
1700,2024-04-08 16:33:13,39.1036599846136,-96.6051067924901,0,,,1086.3459176371,0.656168,0,0.100243113444,0.2474737612,23,5,25.032,1086.3459176371,0,0,0.100243113444,0,0,0,14.4, -0.6, -1.1,0,0,1024,1024,1024,1024,0,0,0,0,0,0,0,99,,,,,,,2.486,71.96,1086.3459176371,0,41,Motors_Started,
1800,2024-04-08 16:33:13,39.1036599487917,-96.6051068096704,0,,,1086.3459176371,0.656168,0,0.086526905656,0.261419299704,23,5,25.032,1086.3459176371,0,0,0.100243113444,0,0,0,14.5, -0.6, -1.1,0,0,1024,1024,1024,1024,0,0,0,0,0,0,0,99,,,,,,,2.486,71.96,1086.3459176371,0,41,Motors_Started,
1900,2024-04-08 16:33:13,39.103659961885,-96.6051067918402,0,,,1086.3459176371,0.656168,0,0.093258861252,0.26836943116,23,5,25.032,1086.3459176371,0,0,0.100243113444,0,0,0,14.4, -0.6, -1.1,0,0,1024,1024,1024,1024,0,0,0,0,0,0,0,99,,,,,,,2.486,71.96,1086.3459176371,0,41,Motors_Started,
2000,2024-04-08 16:33:13,39.1036599269518,-96.605106837044,0,,,1086.3459176371,0.656168,0,0.075717194024,0.286431439612,23,5,25.032,1086.3459176371,0,0,0.100243113444,0,0,0,14.4, -0.6, -1.1,0,0,1024,1024,1024,1024,0,0,0,0,0,0,0,99,,,,,,,2.486,71.96,1086.3459176371,0,10,Assisted_Takeoff,
2100,2024-04-08 16:33:13,39.1036599369432,-96.6051068209627,0,,,1086.3459176371,0.656168,0,0.081170934356,0.292264116964,23,5,25.032,1086.3459176371,0,0,0.100243113444,0,0,0,14.4, -0.6, -1.1,0,0,1024,1024,1024,1024,0,0,0,0,0,0,0,99,,,,,,,2.486,71.96,1086.3459176371,0,10,Assisted_Takeoff,
2200,2024-04-08 16:33:13,39.1036599162289,-96.6051068344849,0,,,1086.3459176371,0.656168,0,0.072727036448,0.300736230096,23,5,25.032,1086.3459176371,0,0,0.100243113444,0,0,0,14.4, -0.6, -1.1,0,0,1024,1024,1024,1024,0,0,0,0,0,0,0,99,,,,,,,2.486,71.96,1086.3459176371,0,10,Assisted_Takeoff,
2300,2024-04-08 16:33:13,39.1036599223147,-96.6051068207155,0,,,1086.3459176371,0.656168,0,0.076698821352,0.305222450712,23,5,25.032,1086.3459176371,0,0,0.100243113444,0,0,0,14.4, -0.6, -1.2,0,0,1024,1024,1024,1024,0,0,0,0,0,0,0,99,,,,,,,2.486,71.96,1086.3459176371,0,10,Assisted_Takeoff,
2400,2024-04-08 16:33:14,39.1036600634757,-96.6051068510512,0,,,1086.3459176371,0.656168,0,0.120324807,0.35743767548,23,5,25.032,1086.3459176371,0,0,0.120324807,0,0,0,14.5, -0.6, -1.2,0,0,1024,1024,1024,1024,0,0,0,0,0,0,0,99,,,,,,,2.486,71.96,1086.3459176371,0,10,Assisted_Takeoff,
2500,2024-04-08 16:33:14,39.1036600815446,-96.6051068380026,0,,,1086.3459176371,0.656168,0,0.127698822984,0.36499345,23,5,25.032,1086.3459176371,0,0,0.127698822984,0,0,0,14.4, -0.6, -1.2,0,0,1024,1024,1024,1024,0,0,0,0,0,0,0,99,,,,,,,2.486,71.96,1086.3459176371,0,10,Assisted_Takeoff,
2600,2024-04-08 16:33:14,39.1036600463089,-96.6051068543236,0,,,1086.3459176371,0.656168,0,0.114055777928,0.37865486776,23,5,25.032,1086.3459176371,0,0,0.127698822984,0,0,0,14.5, -0.6, -1.1,0,0,1024,1024,1024,1024,0,0,0,0,0,0,0,99,,,,,,,4.642,71.96,1086.3459176371,0,10,Assisted_Takeoff,
2700,2024-04-08 16:33:14,39.1036600594383,-96.6051068420106,0,,,1086.3459176371,0.656168,0,0.119660764984,0.3845800648,23,5,25.032,1086.3459176371,0,0,0.127698822984,0,0,0,14.5, -0.6, -1.1,0,0,1024,1024,1024,1024,0,0,0,0,0,0,0,99,,,,,,,4.642,71.96,1086.3459176371,0,10,Assisted_Takeoff,
2800,2024-04-08 16:33:14,39.1036600289399,-96.6051068556654,0,,,1086.3459176371,0.656168,0,0.107885830224,0.3963582804,23,5,25.032,1086.3459176371,0,0,0.127698822984,0,0,0,14.5, -0.6, -1.1,0,0,1024,1024,1024,1024,0,0,0,0,0,0,0,99,,,,,,,4.642,71.96,1086.3459176371,0,10,Assisted_Takeoff,
2900,2024-04-08 16:33:14,39.1036600377578,-96.6051068442226,0,,,1086.3459176371,0.656168,0,0.111946525892,0.40092520968,23,5,25.032,1086.3459176371,0,0,0.127698822984,0,0,0,14.5, -0.6, -1.1,0,0,1024,1024,1024,1024,0,0,0,0,0,0,0,99,,,,,,,4.642,71.96,1086.3459176371,0,10,Assisted_Takeoff,
3000,2024-04-08 16:33:14,39.1036600137161,-96.6051068556118,0,,,1086.3459176371,0.656168,0,0.102605318244,0.410269042,23,5,25.032,1086.3459176371,0,0,0.127698822984,0,0,0,14.5, -0.6, -1.1,0,0,1024,1024,1024,1024,0,0,0,0,0,0,0,99,,,,,,,4.642,71.96,1086.3459176371,0,10,Assisted_Takeoff,
3100,2024-04-08 16:33:14,39.1036600187893,-96.6051068446545,0,,,1086.3459176371,0.656168,0,0.105366473188,0.41388124684,23,5,25.032,1086.3459176371,0,0,0.127698822984,0,0,0,14.5, -0.6, -1.1,0,0,1024,1024,1024,1024,0,0,0,0,0,0,0,99,,,,,,,4.642,71.96,1086.3459176371,0,10,Assisted_Takeoff,
3200,2024-04-08 16:33:14,39.1036600026376,-96.6051068595676,0,,,1086.3459176371,0.656168,0,0.098416341732,0.42113190324,23,5,25.032,1086.3459176371,0,0,0.127698822984,0,0,0,14.5, -0.6, -1.1,0,0,1024,1024,1024,1024,0,0,0,0,0,0,0,99,,,,,,,4.642,71.96,1086.3459176371,0,10,Assisted_Takeoff,
3300,2024-04-08 16:33:14,39.1036600061377,-96.6051068517031,0,,,1086.3459176371,0.656168,0,0.100348756492,0.42369752012,23,5,25.032,1086.3459176371,0,0,0.127698822984,0,0,0,14.5, -0.6, -1.1,0,0,1024,1024,1024,1024,0,0,0,0,0,0,0,99,,,,,,,4.642,71.96,1086.3459176371,0,10,Assisted_Takeoff,
3400,2024-04-08 16:33:14,39.1036599971952,-96.6051068593112,0,,,1086.3459176371,0.656168,0,0.096559058208,0.4276082814,23,5,25.032,1086.3459176371,0,0,0.127698822984,0,0,0,14.5, -0.6, -1.1,0,0,1024,1024,1024,1024,0,0,0,0,0,0,0,99,,,,,,,4.642,71.96,1086.3459176371,0,10,Assisted_Takeoff,
3500,2024-04-08 16:33:15,39.1036599984918,-96.605106847974,0,,,1086.3459176371,0.656168,0,0.098089570068,0.43085303216,23,5,25.032,1086.3459176371,0,0,0.127698822984,0,0,0,14.5, -0.6, -1.1,0,0,1024,1024,1024,1024,0,0,0,0,0,0,0,99,,,,,,,4.642,71.96,1086.3459176371,0,10,Assisted_Takeoff,
3600,2024-04-08 16:33:15,39.1036599908243,-96.6051066995792,0,,,1086.3459176371,0.656168,0,0.117394360712,0.47295933272,23,5,24.744,1086.3459176371,0,0,0.127698822984,0,0,0,14.5, -0.6, -1.1,0,0,1024,1024,1024,1024,0,0,0,0,0,0,0,99,,,,,,,2.434,71.96,1086.3459176371,0,10,Assisted_Takeoff,
3700,2024-04-08 16:33:15,39.1036599894668,-96.6051066764912,0,,,1086.3459176371,0.656168,0,0.121395345092,0.47951445104,23,5,24.744,1086.3459176371,0,0,0.127698822984,0,0,0,14.5, -0.6, -1.1,0,0,1024,1024,1024,1024,0,0,0,0,0,0,0,99,,,,,,,2.434,71.96,1086.3459176371,0,10,Assisted_Takeoff,
3800,2024-04-08 16:33:15,39.1036599858453,-96.6051067128853,0,,,1086.3459176371,0.656168,0,0.113573166364,0.48990487132,23,5,24.744,1086.3459176371,0,0,0.127698822984,0,0,0,14.5, -0.6, -1.1,0,0,1024,1024,1024,1024,0,0,0,0,0,0,0,99,,,,,,,2.434,71.96,1086.3459176371,0,10,Assisted_Takeoff,
3900,2024-04-08 16:33:15,39.1036599858136,-96.6051066983115,0,,,1086.3459176371,0.656168,0,0.116251316056,0.4940288872,23,5,24.744,1086.3459176371,0,0,0.127698822984,0,0,0,14.5, -0.6, -1.1,0,0,1024,1024,1024,1024,0,0,0,0,0,0,0,99,,,,,,,2.434,71.96,1086.3459176371,0,10,Assisted_Takeoff,
4000,2024-04-08 16:33:15,39.1036599877292,-96.6051067354886,0,,,1086.3459176371,0.656168,0,0.11013123712,0.50458006864,23,5,24.744,1086.3459176371,0,0,0.127698822984,0,0,0,14.5, -0.6, -1.1,0,0,1024,1024,1024,1024,0,0,0,0,0,0,0,99,,,,,,,2.434,71.96,1086.3459176371,0,10,Assisted_Takeoff,
4100,2024-04-08 16:33:15,39.1036599881267,-96.6051067218511,0,,,1086.3459176371,0.656168,0,0.112613520664,0.50844161732,23,5,24.744,1086.3459176371,0,0,0.127698822984,0,0,0,14.5, -0.6, -1.1,0,0,1024,1024,1024,1024,0,0,0,0,0,0,0,99,,,,,,,2.434,71.96,1086.3459176371,0,10,Assisted_Takeoff,
4200,2024-04-08 16:33:15,39.1036601494478,-96.6051067509188,0,,,1086.3459176371,0.656168,0,0.15943898148,0.56787403392,23,5,24.744,1086.3459176371,0,0,0.15943898148,0,0,0,14.5, -0.6, -1.1,0,0,1024,1024,1024,1024,0,0,0,0,0,0,0,99,,,,,,,2.434,71.96,1086.3459176371,0,10,Assisted_Takeoff,
4300,2024-04-08 16:33:15,39.1036601631185,-96.6051067387851,0,,,1086.3459176371,0.656168,0,0.165374677208,0.57393046456,23,5,24.744,1086.3459176371,0,0,0.165374677208,0,0,0,14.5, -0.6, -1.1,0,0,1024,1024,1024,1024,0,0,0,0,0,0,0,99,,,,,,,2.434,71.96,1086.3459176371,0,10,Assisted_Takeoff,
4400,2024-04-08 16:33:16,39.103660139928,-96.6051067536607,0,,,1086.3459176371,0.656168,0,0.155938653284,0.5833825646,23,5,24.744,1086.3459176371,0,0,0.165374677208,0,0,0,14.5, -0.6, -1.1,0,0,1024,1024,1024,1024,0,0,0,0,0,0,0,99,,,,,,,2.434,71.96,1086.3459176371,0,10,Assisted_Takeoff,
4500,2024-04-08 16:33:16,39.1036601521965,-96.6051067450941,0,,,1086.3459176371,0.656168,0,0.161008207252,0.58847114744,23,5,24.744,1086.3459176371,0,0,0.165374677208,0,0,0,14.5, -0.6, -1.1,0,0,1024,1024,1024,1024,0,0,0,0,0,0,0,99,,,,,,,2.434,71.96,1086.3459176371,0,10,Assisted_Takeoff,
4600,2024-04-08 16:33:16,39.1036601305128,-96.60510675635,0,,,1086.3459176371,0.656168,0,0.152481632176,0.59700133144,23,5,24.876,1086.3459176371,0,0,0.165374677208,0,0,0,14.5, -0.6, -1.1,0,0,1024,1024,1024,1024,0,0,0,0,0,0,0,99,,,,,,,1.782,71.96,1086.3459176371,0,10,Assisted_Takeoff,
4700,2024-04-08 16:33:16,39.1036601388754,-96.6051067427615,0,,,1086.3459176371,0.656168,0,0.156825136252,0.60191274892,23,5,24.876,1086.3459176371,0,0,0.165374677208,0,0,0,14.5, -0.6, -1.1,0,0,1024,1024,1024,1024,0,0,0,0,0,0,0,99,,,,,,,1.782,71.96,1086.3459176371,0,10,Assisted_Takeoff,
4800,2024-04-08 16:33:16,39.103660120615,-96.6051067489906,0,,,1086.3459176371,0.656168,0,0.150029860444,0.60880251292,23,5,24.876,1086.3459176371,0,0,0.165374677208,0,0,0,14.5, -0.6, -1.1,0,0,1024,1024,1024,1024,0,0,0,0,0,0,0,99,,,,,,,1.782,71.96,1086.3459176371,0,10,Assisted_Takeoff,
4900,2024-04-08 16:33:16,39.1036601255033,-96.6051067337987,0,,,1086.3459176371,0.656168,0,0.153476710948,0.61346130572,23,5,24.876,1086.3459176371,0,0,0.165374677208,0,0,0,14.5, -0.6, -1.1,0,0,1024,1024,1024,1024,0,0,0,0,0,0,0,99,,,,,,,1.782,71.96,1086.3459176371,0,10,Assisted_Takeoff,
5000,2024-04-08 16:33:16,39.103660109062,-96.6051067411277,0,,,1086.3459176371,0.656168,0,0.14717520156,0.61980645028,23,5,24.876,1086.3459176371,0,0,0.165374677208,0,0,0,14.5, -0.6, -1.1,0,0,1024,1024,1024,1024,0,0,0,0,0,0,0,99,,,,,,,1.782,71.96,1086.3459176371,0,10,Assisted_Takeoff,
5100,2024-04-08 16:33:16,39.1036601129963,-96.6051067284441,0,,,1086.3459176371,0.656168,0,0.150066933936,0.62367456064,23,5,24.876,1086.3459176371,0,0,0.165374677208,0,0,0,14.5, -0.6, -1.1,0,0,1024,1024,1024,1024,0,0,0,0,0,0,0,99,,,,,,,1.782,71.96,1086.3459176371,0,10,Assisted_Takeoff,
5200,2024-04-08 16:33:16,39.1036601005772,-96.6051067365978,0,,,1086.3459176371,0.656168,0,0.144981631936,0.62875986264,23,5,24.876,1086.3459176371,0,0,0.165374677208,0,0,0,14.5, -0.6, -1.1,0,0,1024,1024,1024,1024,0,0,0,0,0,0,0,99,,,,,,,1.782,71.96,1086.3459176371,0,10,Assisted_Takeoff,
5300,2024-04-08 16:33:16,39.103660102065,-96.6051067198907,0,,,1086.3459176371,0.656168,0,0.147672904988,0.63352036148,23,5,24.876,1086.3459176371,0,0,0.165374677208,0,0,0,14.5, -0.6, -1.1,0,0,1024,1024,1024,1024,0,0,0,0,0,0,0,99,,,,,,,1.782,71.96,1086.3459176371,0,10,Assisted_Takeoff,
5400,2024-04-08 16:33:17,39.103660095028,-96.6051065833779,0,,,1086.3459176371,0.656168,0,0.167671593292,0.67225723936,23,5,24.876,1086.3459176371,0,0,0.167671593292,0,0,0,14.5, -0.6, -1.1,0,0,1024,1024,1024,1024,0,0,0,0,0,0,0,99,,,,,,,1.782,71.96,1086.3459176371,0,10,Assisted_Takeoff,
5500,2024-04-08 16:33:17,39.1036600956749,-96.6051065576681,0,,,1086.3459176371,0.656168,0,0.172684388728,0.67954070416,23,5,24.876,1086.3459176371,0,0,0.172684388728,0,0,0,14.5, -0.6, -1.1,0,0,1024,1024,1024,1024,0,0,0,0,0,0,0,99,,,,,,,1.782,71.96,1086.3459176371,0,10,Assisted_Takeoff,
5600,2024-04-08 16:33:17,39.1036600924397,-96.6051066012713,0,,,1086.3459176371,0.656168,0,0.163681435684,0.69194227936,23,5,24.924,1086.3459176371,0,0,0.172684388728,0,0,0,14.5, -0.6, -1.1,0,0,1024,1024,1024,1024,0,0,0,0,0,0,0,99,,,,,,,1.646,71.96,1086.3459176371,0,10,Assisted_Takeoff,
5700,2024-04-08 16:33:17,39.1036600927823,-96.6051065814921,0,,,1086.3459176371,0.656168,0,0.167401908244,0.69754267324,23,5,24.924,1086.3459176371,0,0,0.172684388728,0,0,0,14.5, -0.6, -1.1,0,0,1024,1024,1024,1024,0,0,0,0,0,0,0,99,,,,,,,1.646,71.96,1086.3459176371,0,10,Assisted_Takeoff,
5800,2024-04-08 16:33:17,39.1036600886704,-96.6051066188369,0,,,1086.3459176371,0.656168,0,0.15947835156,0.70822180744,23,5,24.924,1086.3459176371,0,0,0.172684388728,0,0,0,14.5, -0.6, -1.1,0,0,1024,1024,1161,1024,0,0,21,0,0,0,0,99,,,,,,,1.646,71.96,1086.3459176371,0,10,Assisted_Takeoff,
5900,2024-04-08 16:33:17,39.1036600867414,-96.6051065987836,0,,,1086.3459176371,0.656168,0,0.162539703364,0.7139435924,23,5,24.924,1086.3459176371,0,0,0.172684388728,0,0,0,14.5, -0.6, -1.1,0,0,1024,1024,1263,1024,0,0,36,0,0,0,0,99,,,,,,,1.646,71.96,1086.3459176371,0,10,Assisted_Takeoff,
6000,2024-04-08 16:33:17,39.1036600838235,-96.6051066307107,0,,,1086.3459176371,0.656168,0,0.156007550924,0.72304464256,23,5,24.924,1086.3459176371,0,0,0.172684388728,0,0,0,14.5, -0.6, -1.1,0,0,1024,1024,1333,1024,0,0,47,0,0,0,0,99,,,,,,,1.646,71.96,1086.3459176371,0,10,Assisted_Takeoff,
6100,2024-04-08 16:33:17,39.1036600814777,-96.6051066170458,0,,,1086.3459176371,0.656168,0,0.157755254392,0.72700789728,23,5,24.924,1086.3459176371,0,0,0.172684388728,0,0,0,14.5, -0.6, -1.1,0,0,1024,1024,1368,1024,0,0,52,0,0,0,0,99,,,,,,,1.646,71.96,1086.3459176371,0,10,Assisted_Takeoff,
6200,2024-04-08 16:33:17,39.1036600851532,-96.6051066447239,0,,,1086.3459176371,0.656168,0,0.153985897316,0.7349573726,23,5,24.924,1086.3459176371,0,0,0.172684388728,0,0,0,14.5, -0.6, -1.1,0,0,1024,1024,1395,1024,0,0,56,0,0,0,0,99,,,,,,,1.646,71.96,1086.3459176371,0,10,Assisted_Takeoff,
6300,2024-04-08 16:33:17,39.1036600834374,-96.6051066351588,0,,,1086.3459176371,0.656168,0,0.155124020712,0.73773624408,23,5,24.924,1086.3459176371,0,0,0.172684388728,0,0,0,14.5, -0.6, -1.1,0,0,1024,1024,1397,1026,0,0,57,0,0,0,0,99,,,,,,,1.646,71.96,1086.3459176371,0,10,Assisted_Takeoff,
6400,2024-04-08 16:33:17,39.1036600844464,-96.6051066571909,0,,,1086.3459176371,0.656168,0,0.151692262072,0.74398624428,23,5,24.924,1086.3459176371,0,0,0.172684388728,0,0,0,14.5, -0.6, -1.1,0,0,1024,1024,1398,1026,0,0,57,0,0,0,0,99,,,,,,,1.646,71.96,1086.3459176371,0,10,Assisted_Takeoff,
6500,2024-04-08 16:33:18,39.1036600798141,-96.6051066515446,0,,,1086.3459176371,0.656168,0,0.151270346048,0.74631235984,23,5,24.924,1086.3459176371,0,0,0.172684388728,0,0,0,14.5, -0.6, -1.1,0,0,1024,1024,1405,1024,0,0,58,0,0,0,0,99,,,,,,,1.646,71.96,1086.3459176371,0,10,Assisted_Takeoff,
6600,2024-04-08 16:33:18,39.103660080568,-96.6051065159999,0,,,1086.3459176371,0.656168,0,0.177031829812,0.78468834532,23,5,24.924,1086.3459176371,0,0,0.177031829812,0,0,0,14.5, -0.7, -1.1,0,0,1024,1024,1407,1024,0,0,58,0,0,0,0,99,,,,,,,1.804,71.96,1086.3459176371,0,10,Assisted_Takeoff,
6700,2024-04-08 16:33:18,39.1036600806882,-96.6051064955274,0,,,1086.3459176371,0.656168,0,0.181312669844,0.7904855896,23,5,24.924,1086.3459176371,0,0,0.181312669844,0,0,0,14.6, -0.7, -1,0,0,1024,1024,1417,1024,0,0,60,0,0,0,0,99,,,,,,,1.804,71.96,1086.3459176371,0,10,Assisted_Takeoff,
6800,2024-04-08 16:33:18,39.1036600891653,-96.6051065264027,0,,,1086.3459176371,0.656168,0,0.177103352124,0.79975724344,23,5,24.924,1086.3459176371,0,0,0.181312669844,0,0,0,14.5, -1, -1,0,0,1024,1024,1427,1024,0,0,61,0,0,0,0,99,,,,,,,1.804,71.96,1086.3459176371,0,10,Assisted_Takeoff,
6900,2024-04-08 16:33:18,39.1036601054815,-96.6051065158537,0,,,1086.3459176371,0.656168,0,0.183431108232,0.80641734864,23,5,24.924,1086.3459176371,0,0,0.183431108232,0,0,0,14.4, -1.6, -0.7,0,0,1024,1024,1438,1024,0,0,63,0,0,0,0,99,,,,,,,1.804,71.96,1086.3459176371,0,10,Assisted_Takeoff,
7000,2024-04-08 16:33:18,39.1036601683791,-96.6051065607736,0,,,1086.3459176371,0.656168,0,0.192538720072,0.83265422612,23,5,24.924,1086.3459176371,0,0,0.192538720072,0,0,-0.223694,13.8, -2.5, 0.3,0,0,1024,1024,1440,1024,0,0,63,0,0,0,0,99,,,,,,,1.804,71.96,1086.3459176371,0,10,Assisted_Takeoff,
7100,2024-04-08 16:33:18,39.10366027539,-96.6051065689387,0,,,1086.3459176371,0.984252,0,0.223773957292,0.87176511976,23,5,24.924,1086.3459176371,0,0,0.223773957292,0.223694,0,-0.671082,13.2, -2.8, 1.1,0,0,1024,1024,1438,1024,0,0,63,0,0,0,0,99,,,,,,,1.804,71.96,1086.3459176371,0,6,P-GPS,
7200,2024-04-08 16:33:18,39.1036604441857,-96.6051065746845,0.328084,,,1086.6740016371,0.984252,0.447388,0.277944234616,0.93337273328,23,5,24.924,1086.6740016371,0.328084,0.447388,0.277944234616,0.447388,0,-1.11847,12.7, -1, 0.9,0,0,1024,1024,1436,1024,0,0,62,0,0,0,0,99,,,,,,,1.804,71.96,1086.6740016371,0.328084,6,P-GPS,
7300,2024-04-08 16:33:18,39.1036606508293,-96.6051065198648,0.328084,,,1086.6740016371,0.984252,0.447388,0.3535761268,1.01034780136,23,5,24.924,1086.6740016371,0.328084,0.447388,0.3535761268,0.447388,0,-1.565858,12.4, 1.2, 0.1,0,0,1024,1024,1435,1024,0,0,62,0,0,0,0,99,,,,,,,1.804,71.96,1086.6740016371,0.328084,6,P-GPS,
7400,2024-04-08 16:33:19,39.103660730366,-96.6051065375423,0.656168,,,1087.0020856371,1.312336,0.447388,0.37914371292,1.03979334036,23,5,24.924,1087.0020856371,0.656168,0.447388,0.37914371292,0.447388,0,-2.013246,12.5, 3.4, -0.6,0,0,1055,1024,1430,1024,5,0,62,0,0,0,0,99,,,,,,,1.804,71.96,1087.0020856371,0.656168,6,P-GPS,
7500,2024-04-08 16:33:19,39.1036608663954,-96.6051065388724,0.984252,,,1087.3301696371,1.64042,0.223694,0.42630906876,1.08942588788,23,5,24.924,1087.3301696371,0.984252,0.447388,0.42630906876,0.223694,0,-2.684328,12.6, 4.3, -0.8,0,0,1188,1024,1422,1024,25,0,60,0,0,0,0,99,,,,,,,1.804,71.96,1087.3301696371,0.984252,6,P-GPS,
7600,2024-04-08 16:33:19,39.1036609625675,-96.605106581274,1.64042,,,1087.9863376371,2.296588,0,0.45700132696,1.12651250324,23,5,24.924,1087.9863376371,1.64042,0.447388,0.45700132696,0,0,-3.131716,12.7, 2.8, 0,0,0,1234,1024,1420,1024,32,0,60,0,0,0,0,99,,,,,,,12.97,71.96,1087.9863376371,1.64042,6,P-GPS,
7700,2024-04-08 16:33:19,39.1036609641949,-96.6051066885589,1.968504,,,1088.3144216371,2.624672,0,0.45123689108,1.15689308164,23,5,24.924,1088.3144216371,1.968504,0.447388,0.45700132696,0,0,-3.579104,12.6, -0.2, 1.5,0,0,1233,1024,1418,1024,32,0,60,0,0,0,0,99,,,,,,,12.97,71.96,1088.3144216371,1.968504,6,P-GPS,
7800,2024-04-08 16:33:19,39.1036609484167,-96.6051069715963,2.624672,,,1088.9705896371,3.28084,0,0.43839568332,1.23723429156,23,5,24.924,1088.9705896371,2.624672,0.447388,0.45700132696,0,0,-4.026492,12.7, -4, 2.1,0,0,1232,1024,1415,1024,32,0,59,0,0,0,0,99,,,,,,,12.97,71.96,1088.9705896371,2.624672,6,P-GPS,
7900,2024-04-08 16:33:19,39.103661028809,-96.6051069871437,3.28084,,,1089.6267576371,3.937008,0.223694,0.46775263964,1.26689308516,23,5,24.924,1089.6267576371,3.28084,0.447388,0.46775263964,0.223694,0,-4.47388,12.8, -6.7, 1.5,0,0,1230,1024,1408,1024,31,0,58,0,0,0,0,99,,,,,,,12.97,71.96,1089.6267576371,3.28084,6,P-GPS,
8000,2024-04-08 16:33:19,39.1036613696216,-96.605106786223,3.937008,,,1090.2829256371,4.593176,0.447388,0.59435041272,1.40363193468,23,5,24.924,1090.2829256371,3.937008,0.447388,0.59435041272,0.447388,0,-4.697574,13, -7.4, 0.5,0,0,1227,1024,1406,1024,31,0,58,0,0,0,0,99,,,,,,,12.97,71.96,1090.2829256371,3.937008,6,P-GPS,
8100,2024-04-08 16:33:19,39.1036617498861,-96.6051066743958,4.593176,,,1090.9390936371,5.249344,0.9171454,0.73558401304,1.54593836968,23,5,24.924,1090.9390936371,4.593176,0.9171454,0.73558401304,0.894776,0.223694,-5.144962,13.1, -6.5, 0,0,0,1226,1024,1404,1024,31,0,58,0,0,0,0,99,,,,,,,12.97,71.96,1090.9390936371,4.593176,6,P-GPS,
8200,2024-04-08 16:33:19,39.1036625418421,-96.6051065313533,5.249344,,,1091.5952616371,6.233596,1.3645334,1.02728677828,1.83770675172,23,5,24.924,1091.5952616371,5.249344,1.3645334,1.02728677828,1.342164,0.223694,-5.368656,13.1, -4.9, 0,0,0,1225,1024,1403,1024,30,0,57,0,0,0,0,99,,,,,,,12.97,71.96,1091.5952616371,5.249344,6,P-GPS,
8300,2024-04-08 16:33:19,39.1036631582154,-96.6051063916338,6.233596,,,1092.5795136371,6.889764,1.3645334,1.25536093256,2.0660433732,23,5,24.924,1092.5795136371,6.233596,1.3645334,1.25536093256,1.342164,0.223694,-5.59235,13.1, -3.5, 0.3,0,0,1224,1024,1399,1024,30,0,57,0,0,0,0,99,,,,,,,12.97,71.96,1092.5795136371,6.233596,6,P-GPS,
8400,2024-04-08 16:33:20,39.1036636662521,-96.6051062625104,7.217848,,,1093.5637656371,7.874016,1.5882274,1.44395345828,2.2549705446,23,5,24.924,1093.5637656371,7.217848,1.5882274,1.44395345828,1.565858,0.223694,-5.59235,13.3, -3, 0.7,0,0,1223,1024,1399,1024,30,0,57,0,0,0,0,99,,,,,,,12.97,71.96,1093.5637656371,7.217848,6,P-GPS,
8500,2024-04-08 16:33:20,39.1036643712583,-96.60510608791,7.874016,,,1094.2199336371,8.530184,1.5882274,1.70559716744,2.51689968684,23,5,24.924,1094.2199336371,7.874016,1.5882274,1.70559716744,1.565858,0.223694,-5.59235,13.4, -3.3, 0.9,0,0,1220,1024,1396,1024,30,0,56,0,0,0,0,99,,,,,,,12.97,71.96,1094.2199336371,7.874016,6,P-GPS,
8600,2024-04-08 16:33:20,39.1036651239284,-96.6051059065933,8.858268,,,1095.2041856371,9.186352,1.8119214,1.98479008976,2.79626977452,23,5,23.496,1095.2041856371,8.858268,1.8119214,1.98479008976,1.789552,0.223694,-5.59235,13.5, -4.1, 0.8,0,0,1220,1024,1392,1024,30,0,56,0,0,0,0,99,,,,,,,30.952,72.14,1095.2041856371,8.858268,6,P-GPS,
8700,2024-04-08 16:33:20,39.1036659412916,-96.605105677309,9.514436,,,1095.8603536371,10.170604,2.0579848,2.28948170056,3.10146663468,23,5,23.496,1095.8603536371,9.514436,2.0579848,2.28948170056,2.013246,0.447388,-5.59235,13.6, -5.3, 0.6,0,0,1220,1024,1389,1024,30,0,55,0,0,0,0,99,,,,,,,30.952,72.14,1095.8603536371,9.514436,6,P-GPS,
8800,2024-04-08 16:33:20,39.1036667482641,-96.6051055341327,10.498688,,,1096.8446056371,10.826772,2.0579848,2.58660769432,3.3986549644,23,5,23.496,1096.8446056371,10.498688,2.0579848,2.58660769432,2.013246,0.447388,-5.368656,13.7, -5.7, 0.4,0,0,1221,1024,1382,1024,30,0,54,0,0,0,0,99,,,,,,,30.952,72.14,1096.8446056371,10.498688,6,P-GPS,
8900,2024-04-08 16:33:20,39.1036676970068,-96.6051052512283,11.154856,,,1097.5007736371,11.48294,2.2816788,2.94114510724,3.7539699364,23,5,23.496,1097.5007736371,11.154856,2.2816788,2.94114510724,2.23694,0.447388,-5.368656,13.8, -5.6, 0.3,0,0,1220,1024,1382,1024,30,0,54,0,0,0,0,99,,,,,,,30.952,72.14,1097.5007736371,11.154856,6,P-GPS,
9000,2024-04-08 16:33:20,39.1036688405845,-96.6051049664401,12.139108,,,1098.4850256371,12.139108,2.5053728,3.365977798,4.1789043332,23,5,23.496,1098.4850256371,12.139108,2.5053728,3.365977798,2.460634,0.447388,-5.144962,13.9, -5.4, 0.2,0,0,1221,1024,1382,1024,30,0,54,0,0,0,0,99,,,,,,,30.952,72.14,1098.4850256371,12.139108,6,P-GPS,
9100,2024-04-08 16:33:20,39.1036699301915,-96.6051046228601,12.795276,,,1099.1411936371,12.795276,2.7738056,3.7743439528,4.5881891232,23,5,23.496,1099.1411936371,12.795276,2.7738056,3.7743439528,2.684328,0.671082,-4.921268,13.9, -5.3, 0,0,0,1220,1024,1382,1024,30,0,54,0,0,0,0,99,,,,,,,30.952,72.14,1099.1411936371,12.795276,6,P-GPS,
9200,2024-04-08 16:33:20,39.1036709808869,-96.6051041487851,13.451444,,,1099.7973616371,13.451444,2.7738056,4.1758203436,4.9943571152,23,5,23.496,1099.7973616371,13.451444,2.7738056,4.1758203436,2.684328,0.671082,-4.921268,13.9, -5.5, -0.1,0,0,1220,1024,1382,1024,30,0,54,0,0,0,0,99,,,,,,,30.952,72.14,1099.7973616371,13.451444,6,P-GPS,
9300,2024-04-08 16:33:20,39.1036721977465,-96.6051037460435,14.107612,,,1100.4535296371,14.107612,2.7738056,4.6334975236,5.4527232716,23,5,23.496,1100.4535296371,14.107612,2.7738056,4.6334975236,2.908022,0.671082,-4.697574,13.9, -5.6, -0.2,0,0,1220,1024,1383,1024,30,0,54,0,0,0,0,99,,,,,,,30.952,72.14,1100.4535296371,14.107612,6,P-GPS,
9400,2024-04-08 16:33:21,39.1036736025069,-96.6051032923694,15.091864,,,1101.4377816371,14.76378,3.1988242,5.1613518712,5.9811025536,23,5,23.496,1101.4377816371,15.091864,3.1988242,5.1613518712,3.131716,0.671082,-4.697574,13.8, -5.6, -0.2,0,0,1221,1024,1393,1024,30,0,56,0,0,0,0,99,,,,,,,30.952,72.14,1101.4377816371,15.091864,6,P-GPS,
9500,2024-04-08 16:33:21,39.103674974121,-96.6051028418815,15.748032,,,1102.0939496371,15.419948,3.4225182,5.6772639612,6.497539578,23,5,23.496,1102.0939496371,15.748032,3.4225182,5.6772639612,3.35541,0.671082,-4.697574,13.7, -5.5, -0.2,0,0,1221,1024,1396,1024,30,0,56,0,0,0,0,99,,,,,,,30.952,72.14,1102.0939496371,15.748032,6,P-GPS,
9600,2024-04-08 16:33:21,39.1036763981413,-96.605102389494,16.4042,,,1102.7501176371,15.748032,3.4225182,6.2120736896,7.032644582,23,5,23.496,1102.7501176371,16.4042,3.4225182,6.2120736896,3.579104,0.894776,-4.47388,13.7, -5.4, -0.1,0,0,1221,1024,1398,1024,30,0,57,0,0,0,0,99,,,,,,,27.282,72.14,1102.7501176371,16.4042,6,P-GPS,
9700,2024-04-08 16:33:21,39.1036779116,-96.605101884393,17.060368,,,1103.4062856371,16.4042,3.690951,6.781988406,7.6030514244,23,5,23.496,1103.4062856371,17.060368,3.690951,6.781988406,3.579104,0.894776,-4.47388,13.8, -5.2, -0.3,0,0,1221,1024,1400,1024,30,0,57,0,0,0,0,99,,,,,,,27.282,72.14,1103.4062856371,17.060368,6,P-GPS,
9800,2024-04-08 16:33:21,39.1036795071814,-96.6051013938434,17.716536,,,1104.0624536371,17.060368,3.914645,7.3803808136,8.2015422572,23,5,23.496,1104.0624536371,17.716536,3.914645,7.3803808136,3.802798,0.894776,-4.47388,13.8, -5, -0.3,0,0,1219,1024,1400,1024,30,0,57,0,0,0,0,99,,,,,,,27.282,72.14,1104.0624536371,17.716536,6,P-GPS,
9900,2024-04-08 16:33:21,39.1036811561295,-96.605100845385,18.372704,,,1104.7186216371,17.716536,3.914645,8.001312592,8.8228677364,23,5,23.496,1104.7186216371,18.372704,3.914645,8.001312592,4.026492,0.894776,-4.47388,13.7, -4.8, -0.1,0,0,1217,1024,1397,1024,29,0,57,0,0,0,0,99,,,,,,,27.282,72.14,1104.7186216371,18.372704,6,P-GPS,
10000,2024-04-08 16:33:21,39.1036827312763,-96.6051002932971,19.028872,,,1105.3747896371,18.04462,4.1830778,8.5962601176,9.4184386216,23,5,23.496,1105.3747896371,19.028872,4.1830778,8.5962601176,4.026492,1.11847,-4.697574,13.7, -4.5, 0,0,0,1212,1024,1400,1021,28,0,57,-0,0,0,0,99,,,,,,,27.282,72.14,1105.3747896371,19.028872,6,P-GPS,
10100,2024-04-08 16:33:21,39.1036844815994,-96.6050996955999,19.68504,,,1106.0309576371,18.700788,4.3844024,9.2564963592,10.079068564,23,5,23.496,1106.0309576371,19.68504,4.3844024,9.2564963592,4.250186,1.11847,-4.697574,13.7, -4.3, -0.1,0,0,1211,1024,1399,1019,28,0,57,-1,0,0,0,99,,,,,,,27.282,72.14,1106.0309576371,19.68504,6,P-GPS,
10200,2024-04-08 16:33:21,39.1036862202333,-96.6050990787159,20.341208,,,1106.6871256371,19.68504,4.6080964,9.9138454616,10.737041026,23,5,23.496,1106.6871256371,20.341208,4.6080964,9.9138454616,4.47388,1.11847,-4.697574,13.7, -4.4, -0.3,0,0,1211,1024,1398,997,28,0,57,-4,0,0,0,99,,,,,,,27.282,72.14,1106.6871256371,20.341208,6,P-GPS,
10300,2024-04-08 16:33:21,39.1036880630306,-96.605098446048,21.32546,,,1107.6713776371,20.341208,4.6080964,10.6092851164,11.4328087648,23,5,23.496,1107.6713776371,21.32546,4.6080964,10.6092851164,4.47388,1.11847,-4.697574,13.8, -4.4, -0.5,0,0,1211,1024,1374,957,28,0,53,-10,0,0,0,99,,,,,,,27.282,72.14,1107.6713776371,21.32546,6,P-GPS,
10400,2024-04-08 16:33:22,39.1036899590715,-96.6050978227795,21.981628,,,1108.3275456371,20.997376,4.8317904,11.3230646668,12.1467523572,23,5,23.496,1108.3275456371,21.981628,4.8317904,11.3230646668,4.697574,1.11847,-4.697574,13.7, -4.2, -0.9,0,0,1211,1024,1382,961,28,0,54,-10,0,0,0,99,,,,,,,27.282,72.14,1108.3275456371,21.981628,6,P-GPS,
10500,2024-04-08 16:33:22,39.1036918961015,-96.6050971739914,22.637796,,,1108.9837136371,21.653544,4.8317904,12.0530843752,12.8769361076,23,5,23.496,1108.9837136371,22.637796,4.8317904,12.0530843752,4.697574,1.11847,-4.697574,13.5, -4.1, -1.5,0,0,1211,1024,1382,961,28,0,54,-10,0,0,0,99,,,,,,,27.282,72.14,1108.9837136371,22.637796,6,P-GPS,
10600,2024-04-08 16:33:22,39.1036940107769,-96.6050963772996,23.293964,,,1109.6398816371,22.637796,5.0554844,12.8558731148,13.680774716,23,5,23.13,1109.6398816371,23.293964,5.0554844,12.8558731148,4.921268,1.11847,-4.697574,13.1, -4.1, -1.8,0,0,1209,1024,1382,959,28,0,54,-10,0,0,0,99,,,,,,,26.956,72.14,1109.6398816371,23.293964,6,P-GPS,
10700,2024-04-08 16:33:22,39.1036960414034,-96.6050957515344,23.950132,,,1110.2960496371,23.622048,5.0554844,13.6176513544,14.4425529556,23,5,23.13,1110.2960496371,23.950132,5.0554844,13.6176513544,4.921268,1.11847,-4.697574,12.7, -4, -1.9,0,0,1208,1024,1382,952,28,0,54,-11,0,0,0,99,,,,,,,26.956,72.14,1110.2960496371,23.950132,6,P-GPS,
10800,2024-04-08 16:33:22,39.1036980607947,-96.6050952971605,24.6063,,,1110.9522176371,24.278216,5.256809,14.364173688,15.190453242,23,5,23.13,1110.9522176371,24.6063,5.256809,14.364173688,5.144962,1.11847,-4.697574,12.2, -4, -1.7,0,0,1208,1024,1380,940,28,0,54,-13,0,0,0,99,,,,,,,26.956,72.14,1110.9522176371,24.6063,6,P-GPS,
10900,2024-04-08 16:33:22,39.1037001726239,-96.6050947270178,25.262468,,,1111.6083856371,24.934384,5.256809,15.1511487788,15.9776908,23,5,23.13,1111.6083856371,25.262468,5.256809,15.1511487788,5.144962,1.11847,-4.47388,11.7, -4.2, -1.5,0,0,1208,1024,1368,932,28,0,52,-14,0,0,0,99,,,,,,,26.956,72.14,1111.6083856371,25.262468,6,P-GPS,
11000,2024-04-08 16:33:22,39.1037022778868,-96.6050942232877,25.918636,,,1112.2645536371,25.918636,5.480503,15.9315621896,16.7589244208,23,5,23.13,1112.2645536371,25.918636,5.480503,15.9315621896,5.368656,1.11847,-4.47388,11.2, -4.3, -1.6,0,0,1208,1024,1331,905,28,0,47,-18,0,0,0,99,,,,,,,26.956,72.14,1112.2645536371,25.918636,6,P-GPS,
11100,2024-04-08 16:33:22,39.1037044735488,-96.6050936877968,26.574804,,,1112.9207216371,26.574804,5.480503,16.7461947616,17.5742459692,23,5,23.13,1112.9207216371,26.574804,5.480503,16.7461947616,5.368656,0.894776,-4.47388,10.6, -4.3, -1.9,0,0,1204,1024,1254,853,27,0,35,-26,0,0,0,99,,,,,,,26.956,72.14,1112.9207216371,26.574804,6,P-GPS,
11200,2024-04-08 16:33:22,39.1037068813497,-96.605093077052,27.230972,,,1113.5768896371,27.230972,5.6594582,17.6411094884,18.4695872052,23,5,23.13,1113.5768896371,27.230972,5.6594582,17.6411094884,5.59235,0.894776,-4.250186,9.8, -4.2, -2.5,0,0,1201,1024,1223,841,27,0,30,-28,0,0,0,99,,,,,,,26.956,72.14,1113.5768896371,27.230972,6,P-GPS,
11300,2024-04-08 16:33:22,39.1037091713513,-96.6050925883002,27.88714,,,1114.2330576371,32.480316,5.6594582,18.4865163396,19.3164704344,23,5,23.13,1114.2330576371,27.88714,5.6594582,18.4865163396,5.59235,0.894776,-3.802798,8.9, -4.1, -3.6,0,0,1190,1024,1148,806,25,0,19,-33,0,0,0,99,,,,,,,26.956,72.14,1114.2330576371,27.88714,6,P-GPS,
11400,2024-04-08 16:33:23,39.1037113216703,-96.6050922177295,28.543308,,,1114.8892256371,33.136484,5.6370888,19.2750006168,20.1079730844,23,5,23.13,1114.8892256371,28.543308,5.6594582,19.2750006168,5.59235,0.671082,-3.35541,7.6, -4.2, -4.7,0,0,1190,1024,1140,786,25,0,18,-36,0,0,0,99,,,,,,,26.956,72.14,1114.8892256371,28.543308,6,P-GPS,
11500,2024-04-08 16:33:23,39.1037136621591,-96.6050918453221,28.871392,,,1115.2173096371,33.464568,5.8607828,20.1316607492,20.9684061828,23,5,23.13,1115.2173096371,28.871392,5.8607828,20.1316607492,5.816044,0.671082,-2.684328,6.1, -4.1, -6.1,0,0,1192,1024,1140,787,25,0,18,-36,0,0,0,99,,,,,,,26.956,72.14,1115.2173096371,28.871392,6,P-GPS,
11600,2024-04-08 16:33:23,39.103715917663,-96.6050916519693,29.52756,,,1115.8734776371,33.792652,5.8384134,20.9477368908,21.793143742,23,5,23.112,1115.8734776371,29.52756,5.8607828,20.9477368908,5.816044,0.447388,-2.23694,4.2, -4, -7.2,0,0,1192,1024,1145,793,25,0,18,-35,0,0,0,99,,,,,,,24.91,72.14,1115.8734776371,29.52756,6,P-GPS,
11700,2024-04-08 16:33:23,39.1037183062276,-96.6050914885084,29.52756,,,1115.8734776371,34.120736,5.816044,21.8103353436,22.665847182,23,5,23.112,1115.8734776371,29.52756,5.8607828,21.8103353436,5.816044,0.223694,-1.789552,2, -3.8, -7.6,0,0,1193,1024,1157,792,26,0,20,-35,0,0,0,99,,,,,,,24.91,72.14,1115.8734776371,29.52756,6,P-GPS,
11800,2024-04-08 16:33:23,39.1037206427159,-96.6050915645694,29.855644,,,1116.2015616371,34.44882,6.039738,22.64189705,23.5185703064,23,5,23.112,1116.2015616371,29.855644,6.039738,22.64189705,6.039738,0,-1.342164,0, -3.6, -7.6,0,0,1193,1024,1165,791,26,0,21,-35,0,0,0,99,,,,,,,24.91,72.14,1116.2015616371,29.855644,6,P-GPS,
11900,2024-04-08 16:33:23,39.1037230666948,-96.6050916695701,30.183728,,,1116.5296456371,34.44882,6.039738,23.5048563952,24.4034456628,23,5,23.112,1116.5296456371,30.183728,6.039738,23.5048563952,6.039738,0,-1.11847,357.7, -3.5, -7.1,0,0,1193,1024,1167,784,26,0,22,-36,0,0,0,99,,,,,,,24.91,72.14,1116.5296456371,30.183728,6,P-GPS,
12000,2024-04-08 16:33:23,39.1037254660362,-96.6050920266805,30.183728,,,1116.5296456371,34.44882,6.0621074,24.3479994668,25.2846792868,23,5,23.112,1116.5296456371,30.183728,6.0621074,24.3479994668,6.039738,-0.447388,-0.894776,355.6, -3.3, -6.7,0,0,1193,1024,1168,786,26,0,22,-36,0,0,0,99,,,,,,,24.91,72.14,1116.5296456371,30.183728,6,P-GPS,
12100,2024-04-08 16:33:23,39.1037279071141,-96.6050923929672,30.511812,,,1116.8577296371,34.44882,6.0844768,25.2083669484,26.1813328588,23,5,23.112,1116.8577296371,30.511812,6.0844768,25.2083669484,6.039738,-0.671082,-0.671082,353.4, -3.3, -6.6,0,0,1193,1024,1166,786,26,0,22,-36,0,0,0,99,,,,,,,24.91,72.14,1116.8577296371,30.511812,6,P-GPS,
12200,2024-04-08 16:33:23,39.1037298711267,-96.605092886686,30.511812,,,1116.8577296371,34.44882,6.1068462,25.8936359992,26.9113853756,23,5,23.112,1116.8577296371,30.511812,6.1068462,25.8936359992,6.039738,-0.894776,-0.671082,351.2, -3.3, -6.6,0,0,1193,1024,1165,793,26,0,21,-35,0,0,0,99,,,,,,,24.91,72.14,1116.8577296371,30.511812,6,P-GPS,
12300,2024-04-08 16:33:23,39.1037322717831,-96.6050935106993,30.511812,,,1116.8577296371,34.44882,6.151585,26.7336622728,27.8049221496,23,5,23.112,1116.8577296371,30.511812,6.151585,26.7336622728,6.039738,-1.11847,-0.671082,349, -3.3, -6.7,0,0,1192,1024,1160,796,25,0,21,-35,0,0,0,99,,,,,,,24.91,72.14,1116.8577296371,30.511812,6,P-GPS,
12400,2024-04-08 16:33:24,39.1037351701031,-96.6050942358786,30.839896,,,1117.1858136371,34.44882,6.1963238,27.7533145364,28.8821203468,23,5,23.112,1117.1858136371,30.839896,6.1963238,27.7533145364,6.039738,-1.342164,-0.671082,346.9, -3.3, -6.7,0,0,1192,1024,1158,798,25,0,20,-34,0,0,0,99,,,,,,,24.91,72.14,1117.1858136371,30.839896,6,P-GPS,
12500,2024-04-08 16:33:24,39.1037375939107,-96.6050951216279,30.839896,,,1117.1858136371,34.44882,6.2410626,28.5998696816,29.8013132896,23,5,23.112,1117.1858136371,30.839896,6.2410626,28.5998696816,6.039738,-1.565858,-0.671082,344.8, -3.2, -6.5,0,0,1191,1024,1155,809,25,0,20,-33,0,0,0,99,,,,,,,24.91,72.14,1117.1858136371,30.839896,6,P-GPS,
12600,2024-04-08 16:33:24,39.1037399260814,-96.6050960091318,30.839896,,,1117.1858136371,34.44882,6.3081708,29.417487818,30.6885180424,23,5,22.944,1117.1858136371,30.839896,6.3081708,29.417487818,6.039738,-1.789552,-0.671082,342.7, -3.1, -6.3,0,0,1188,1024,1159,827,25,0,20,-30,0,0,0,99,,,,,,,26.068,72.14,1117.1858136371,30.839896,6,P-GPS,
12700,2024-04-08 16:33:24,39.1037423067562,-96.6050971360345,31.16798,,,1117.5138976371,34.44882,6.151585,30.250329052,31.613846156,23,5,22.944,1117.5138976371,31.16798,6.3081708,30.250329052,5.816044,-2.013246,-0.671082,340.8, -3.1, -6,0,0,1180,1024,1171,842,24,0,22,-28,0,0,0,99,,,,,,,26.068,72.14,1117.5138976371,31.16798,6,P-GPS,
12800,2024-04-08 16:33:24,39.1037449781642,-96.6050984611017,31.16798,,,1117.5138976371,34.44882,6.2410626,31.1897647776,32.6582359532,23,5,22.944,1117.5138976371,31.16798,6.3081708,31.1897647776,5.816044,-2.23694,-0.671082,338.9, -3.2, -5.4,0,0,1176,1024,1176,851,23,0,23,-26,0,0,0,99,,,,,,,26.068,72.14,1117.5138976371,31.16798,6,P-GPS,
12900,2024-04-08 16:33:24,39.103747344567,-96.6050998156189,31.16798,,,1117.5138976371,34.44882,6.3081708,32.024115198,33.603019448,23,5,22.944,1117.5138976371,31.16798,6.3081708,32.024115198,5.816044,-2.460634,-0.671082,337.1, -3.1, -4.6,0,0,1172,1024,1175,858,22,0,23,-25,0,0,0,99,,,,,,,26.068,72.14,1117.5138976371,31.16798,6,P-GPS,
13000,2024-04-08 16:33:24,39.1037499606948,-96.6051011978948,31.496064,,,1117.8419816371,34.44882,6.3976484,32.955053548,34.634515544,23,5,22.944,1117.8419816371,31.496064,6.3976484,32.955053548,5.816044,-2.684328,-0.894776,335.6, -2.9, -3.9,0,0,1166,1024,1174,858,22,0,23,-25,0,0,0,99,,,,,,,26.068,72.14,1117.8419816371,31.496064,6,P-GPS,
13100,2024-04-08 16:33:24,39.103752320784,-96.6051027055557,31.496064,,,1117.8419816371,34.44882,6.5094954,33.797245176,35.59547358,23,5,22.944,1117.8419816371,31.496064,6.5094954,33.797245176,5.816044,-2.908022,-0.894776,334.1, -2.6, -3.6,0,0,1154,1024,1167,864,20,0,22,-24,0,0,0,99,,,,,,,26.068,72.14,1117.8419816371,31.496064,6,P-GPS,
13200,2024-04-08 16:33:24,39.103754665205,-96.6051041783917,31.824148,,,1118.1700656371,34.44882,6.3081708,34.639764888,36.547245264,23,5,22.944,1118.1700656371,31.824148,6.5094954,34.639764888,5.59235,-2.908022,-0.894776,332.8, -2.3, -3.6,0,0,1140,1024,1154,881,18,0,20,-22,0,0,0,99,,,,,,,26.068,72.14,1118.1700656371,31.824148,6,P-GPS,
13300,2024-04-08 16:33:24,39.1037569792487,-96.6051057939836,31.824148,,,1118.1700656371,34.44882,6.4200178,35.476707172,37.507547132,23,5,22.944,1118.1700656371,31.824148,6.5094954,35.476707172,5.59235,-3.131716,-0.894776,331.4, -2, -3.7,0,0,1129,1024,1149,890,16,0,19,-20,0,0,0,99,,,,,,,26.068,72.14,1118.1700656371,31.824148,6,P-GPS,
13400,2024-04-08 16:33:25,39.1037592665305,-96.6051074450879,32.152232,,,1118.4981496371,34.44882,6.4200178,36.310040532,38.463911992,23,5,22.944,1118.4981496371,32.152232,6.5094954,36.310040532,5.59235,-3.131716,-0.894776,330.2, -1.7, -3.6,0,0,1126,1024,1149,894,15,0,19,-20,0,0,0,99,,,,,,,26.068,72.14,1118.4981496371,32.152232,6,P-GPS,
13500,2024-04-08 16:33:25,39.103761516616,-96.6051091513334,32.152232,,,1118.4981496371,34.44882,6.2186932,37.13582796,39.416339844,23,5,22.944,1118.4981496371,32.152232,6.5094954,37.13582796,5.368656,-3.131716,-0.894776,329.1, -1.4, -3.2,0,0,1121,1024,1150,893,15,0,19,-20,0,0,0,99,,,,,,,26.068,72.14,1118.4981496371,32.152232,6,P-GPS,
13600,2024-04-08 16:33:25,39.1037636981945,-96.6051108550469,32.152232,,,1118.4981496371,34.44882,6.3305402,37.942586516,40.347114152,23,5,23.292,1118.4981496371,32.152232,6.5094954,37.942586516,5.368656,-3.35541,-0.894776,328.1, -1.1, -3,0,0,1118,1024,1150,885,14,0,19,-21,0,0,0,99,,,,,,,19.428,72.32,1118.4981496371,32.152232,6,P-GPS,
13700,2024-04-08 16:33:25,39.1037658710779,-96.6051126153096,32.480316,,,1118.8262336371,34.44882,6.3305402,38.752297828,41.283465888,23,5,23.292,1118.8262336371,32.480316,6.5094954,38.752297828,5.368656,-3.35541,-0.894776,327.1, -0.8, -2.9,0,0,1111,1024,1148,869,13,0,19,-23,0,0,0,99,,,,,,,19.428,72.32,1118.8262336371,32.480316,6,P-GPS,
13800,2024-04-08 16:33:25,39.1037682137684,-96.6051143913115,32.480316,,,1118.8262336371,34.44882,6.151585,39.629922528,42.27526382,23,5,23.292,1118.8262336371,32.480316,6.5094954,39.629922528,5.144962,-3.35541,-0.894776,326.2, -0.6, -3.1,0,0,1108,1024,1146,869,13,0,18,-23,0,0,0,99,,,,,,,19.428,72.32,1118.8262336371,32.480316,6,P-GPS,
13900,2024-04-08 16:33:25,39.1037703188729,-96.6051161927012,32.8084,,,1119.1543176371,34.44882,6.151585,40.42651048,43.19717986,23,5,23.292,1119.1543176371,32.8084,6.5094954,40.42651048,5.144962,-3.35541,-0.671082,325.1, -0.6, -3.5,0,0,1101,1024,1145,869,12,0,18,-23,0,0,0,99,,,,,,,19.428,72.32,1119.1543176371,32.8084,6,P-GPS,
14000,2024-04-08 16:33:25,39.1037724348912,-96.6051182295394,32.8084,,,1119.1543176371,34.44882,5.9502604,41.237534128,44.160762568,23,5,23.292,1119.1543176371,32.8084,6.5094954,41.237534128,4.921268,-3.35541,-0.671082,323.9, -0.4, -3.8,0,0,1093,1024,1143,871,10,0,18,-23,0,0,0,99,,,,,,,19.428,72.32,1119.1543176371,32.8084,6,P-GPS,
14100,2024-04-08 16:33:25,39.1037744441439,-96.6051201098887,32.8084,,,1119.1543176371,34.44882,5.9502604,42.012140452,45.066930576,23,5,23.292,1119.1543176371,32.8084,6.5094954,42.012140452,4.921268,-3.579104,-0.671082,322.7, -0.1, -3.8,0,0,1072,1024,1132,878,7,0,16,-22,0,0,0,99,,,,,,,19.428,72.32,1119.1543176371,32.8084,6,P-GPS,
14200,2024-04-08 16:33:25,39.1037763921713,-96.6051219708998,33.136484,,,1119.4824016371,34.44882,5.9055216,42.769358324,45.951773124,23,5,23.292,1119.4824016371,33.136484,6.5094954,42.769358324,4.697574,-3.579104,-0.671082,321.5, 0.2, -3.6,0,0,1040,1024,1111,921,2,0,13,-16,0,0,0,99,,,,,,,19.428,72.32,1119.4824016371,33.136484,6,P-GPS,
14300,2024-04-08 16:33:25,39.1037782827424,-96.6051238877466,33.136484,,,1119.4824016371,34.44882,5.9055216,43.5121405,46.829397824,23,5,23.292,1119.4824016371,33.136484,6.5094954,43.5121405,4.47388,-3.579104,-0.671082,320.4, 0.7, -3.1,0,0,1030,1024,1105,939,1,0,12,-13,0,0,0,99,,,,,,,19.428,72.32,1119.4824016371,33.136484,6,P-GPS,
14400,2024-04-08 16:33:26,39.1037800323502,-96.6051256167948,33.136484,,,1119.4824016371,34.44882,5.7265664,44.202429236,47.633859792,23,5,23.292,1119.4824016371,33.136484,6.5094954,44.202429236,4.47388,-3.579104,-0.671082,319.4, 1.5, -2,0,0,1024,1024,1089,967,0,0,10,-9,0,0,0,99,,,,,,,19.428,72.32,1119.4824016371,33.136484,6,P-GPS,
14500,2024-04-08 16:33:26,39.1037818042739,-96.6051275059066,33.464568,,,1119.8104856371,34.44882,5.5476112,44.910434508,48.47277058,23,5,23.292,1119.8104856371,33.464568,6.5094954,44.910434508,4.250186,-3.579104,-0.447388,318.5, 8, 0,0,0,1024,1024,1068,1006,0,0,7,-3,0,0,0,99,,,,,,,19.428,72.32,1119.8104856371,33.464568,6,P-GPS,
14600,2024-04-08 16:33:26,39.1037834182125,-96.6051294117567,33.464568,,,1119.8104856371,34.44882,5.5476112,45.566602508,49.271327036,23,5,23.286,1119.8104856371,33.464568,6.5094954,45.566602508,4.026492,-3.131716,-0.447388,318.1, 17.1, 0.2,0,0,1024,1024,1065,1007,0,0,6,-3,0,0,0,99,,,,,,,23.976,72.32,1119.8104856371,33.464568,6,P-GPS,
14700,2024-04-08 16:33:26,39.103784892961,-96.6051309067102,33.464568,,,1119.8104856371,34.44882,4.2949248,46.15977838,49.956038344,23,5,23.286,1119.8104856371,33.464568,6.5094954,46.15977838,3.35541,-2.684328,-0.223694,317.8, 22.2, -0.2,0,0,1024,1024,1048,1018,0,0,4,-1,0,0,0,99,,,,,,,23.976,72.32,1119.8104856371,33.464568,6,P-GPS,
14800,2024-04-08 16:33:26,39.103786274325,-96.6051320420515,33.464568,,,1119.8104856371,34.44882,3.2211936,46.70603824,50.553807392,23,5,23.286,1119.8104856371,33.464568,6.5094954,46.70603824,2.684328,-1.789552,0,317.6, 21.2, -0.9,0,0,1024,1024,1024,1024,0,0,0,0,0,0,0,99,,,,,,,23.976,72.32,1119.8104856371,33.464568,6,P-GPS,
14900,2024-04-08 16:33:26,39.1037871994234,-96.6051328609859,33.464568,,,1119.8104856371,34.44882,3.2211936,47.07513274,50.963256224,23,5,23.286,1119.8104856371,33.464568,6.5094954,47.07513274,2.013246,-1.342164,0,317.5, 15.5, -1.4,0,0,1024,1024,1024,1024,0,0,0,0,0,0,0,99,,,,,,,23.976,72.32,1119.8104856371,33.464568,6,P-GPS,
15000,2024-04-08 16:33:26,39.1037877491421,-96.6051331178383,33.464568,,,1119.8104856371,34.44882,1.8119214,47.284778416,51.176510824,23,5,23.286,1119.8104856371,33.464568,6.5094954,47.284778416,1.565858,-0.894776,0,317.6, 8.3, -1.6,0,0,1024,1024,1024,1024,0,0,0,0,0,0,0,99,,,,,,,23.976,72.32,1119.8104856371,33.464568,6,P-GPS,
15100,2024-04-08 16:33:26,39.1037883367936,-96.60513355246,33.464568,,,1119.8104856371,34.44882,1.8119214,47.515749552,51.42388616,23,5,23.286,1119.8104856371,33.464568,6.5094954,47.515749552,1.342164,-0.671082,0,317.7, 3.1, -1.6,0,0,1024,1024,1024,1024,0,0,0,0,0,0,0,99,,,,,,,23.976,72.32,1119.8104856371,33.464568,6,P-GPS,
15200,2024-04-08 16:33:26,39.1037888104665,-96.6051340077777,33.464568,,,1119.8104856371,34.44882,1.2974252,47.707022524,51.639437348,23,5,23.286,1119.8104856371,33.464568,6.5094954,47.707022524,1.11847,-0.671082,0,317.8, 1.2, -1.4,0,0,1024,1024,1024,1024,0,0,0,0,0,0,0,99,,,,,,,23.976,72.32,1119.8104856371,33.464568,6,P-GPS,
15300,2024-04-08 16:33:26,39.1037892924662,-96.6051343753823,33.464568,,,1119.8104856371,34.44882,1.2974252,47.897311244,51.84383368,23,5,23.286,1119.8104856371,33.464568,6.5094954,47.897311244,1.11847,-0.671082,0,317.8, 1.9, -1.1,0,0,1024,1024,1024,1024,0,0,0,0,0,0,0,99,,,,,,,23.976,72.32,1119.8104856371,33.464568,6,P-GPS,
15400,2024-04-08 16:33:27,39.1037895527194,-96.6051348053179,33.464568,,,1119.8104856371,34.44882,1.006623,48.010828308,51.99803316,23,5,23.286,1119.8104856371,33.464568,6.5094954,48.010828308,0.894776,-0.447388,0,317.8, 3.4, -0.8,0,0,1024,1024,1024,1024,0,0,0,0,0,0,0,99,,,,,,,23.976,72.32,1119.8104856371,33.464568,6,P-GPS,
15500,2024-04-08 16:33:27,39.1037899209975,-96.6051350799961,33.464568,,,1119.8104856371,34.44882,1.006623,48.15616952,52.153544976,23,5,23.286,1119.8104856371,33.464568,6.5094954,48.15616952,0.671082,-0.223694,0,317.9, 4.1, -0.7,0,0,1024,1024,1024,1024,0,0,0,0,0,0,0,99,,,,,,,23.976,72.32,1119.8104856371,33.464568,6,P-GPS,
15600,2024-04-08 16:33:27,39.1037904855535,-96.6051353995657,33.464568,,,1119.8104856371,34.44882,0.4921268,48.37434538,52.378282516,23,5,22.986,1119.8104856371,33.464568,6.5094954,48.37434538,0.447388,-0.223694,0,317.9, 3.7, -0.7,0,0,1024,1024,1024,1024,0,0,0,0,0,0,0,99,,,,,,,23.238,72.32,1119.8104856371,33.464568,6,P-GPS,
15700,2024-04-08 16:33:27,39.1037907697418,-96.6051355527422,33.464568,,,1119.8104856371,34.44882,0.447388,48.483925436,52.490815328,23,5,22.986,1119.8104856371,33.464568,6.5094954,48.483925436,0.447388,0,0,317.9, 2.4, -0.8,0,0,1024,1024,1024,1024,0,0,0,0,0,0,0,99,,,,,,,23.238,72.32,1119.8104856371,33.464568,6,P-GPS,
15800,2024-04-08 16:33:27,39.1037907790194,-96.6051355828934,33.464568,,,1119.8104856371,34.44882,0.223694,48.488518612,52.50000168,23,5,22.986,1119.8104856371,33.464568,6.5094954,48.488518612,0.223694,0,0,317.9, 1.1, -0.8,0,0,1024,1024,1024,1024,0,0,0,0,0,0,0,99,,,,,,,23.238,72.32,1119.8104856371,33.464568,6,P-GPS,
15900,2024-04-08 16:33:27,39.1037909920022,-96.6051356747876,33.464568,,,1119.8104856371,34.44882,0.223694,48.56955536,52.58202268,23,5,22.986,1119.8104856371,33.464568,6.5094954,48.56955536,0.223694,0,0,317.9, 0.6, -0.8,0,0,1024,1024,1024,1024,0,0,0,0,0,0,0,99,,,,,,,23.238,72.32,1119.8104856371,33.464568,6,P-GPS,
16000,2024-04-08 16:33:27,39.1037911435796,-96.6051355389733,33.464568,,,1119.8104856371,34.44882,0.223694,48.617455624,52.6492799,23,5,22.986,1119.8104856371,33.464568,6.5094954,48.617455624,0.223694,0,0,317.9, 1.1, -1,0,0,1024,1024,1024,1024,0,0,0,0,0,0,0,99,,,,,,,23.238,72.32,1119.8104856371,33.464568,6,P-GPS,
16100,2024-04-08 16:33:27,39.103791319529,-96.605135585035,33.464568,,,1119.8104856371,34.44882,0.223694,48.683072424,52.7148967,23,5,22.986,1119.8104856371,33.464568,6.5094954,48.683072424,0.223694,0,0,317.8, 1.9, -1.1,0,0,1024,1024,1024,1024,0,0,0,0,0,0,0,99,,,,,,,23.238,72.32,1119.8104856371,33.464568,6,P-GPS,
16200,2024-04-08 16:33:27,39.1037914623342,-96.6051357023915,33.464568,,,1119.8104856371,34.44882,0.223694,48.739830956,52.776576492,23,5,22.986,1119.8104856371,33.464568,6.5094954,48.739830956,0.223694,0,0,317.8, 2.4, -1.2,0,0,1024,1024,1024,1024,0,0,0,0,0,0,0,99,,,,,,,23.238,72.32,1119.8104856371,33.464568,6,P-GPS,
16300,2024-04-08 16:33:27,39.1037915650049,-96.6051356944625,33.464568,,,1119.8104856371,34.44882,0,48.776576364,52.813978068,23,5,22.986,1119.8104856371,33.464568,6.5094954,48.776576364,0,0,0,317.8, 2.2, -1.2,0,0,1024,1024,1024,1024,0,0,0,0,0,0,0,99,,,,,,,23.238,72.32,1119.8104856371,33.464568,6,P-GPS,
16400,2024-04-08 16:33:28,39.103791603546,-96.6051355674383,33.464568,,,1119.8104856371,34.44882,0,48.78445038,52.85269198,23,5,22.986,1119.8104856371,33.464568,6.5094954,48.78445038,0,0,0,317.7, 1.3, -1.1,0,0,1024,1024,1024,1024,0,0,0,0,0,0,0,99,,,,,,,23.238,72.32,1119.8104856371,33.464568,6,P-GPS,
16500,2024-04-08 16:33:28,39.1037916430894,-96.6051355044064,33.464568,,,1119.8104856371,34.44882,0,48.795605236,52.87565786,23,5,22.986,1119.8104856371,33.464568,6.5094954,48.795605236,0,0,0,317.7, 0.4, -1,0,0,1024,1024,1024,1024,0,0,0,0,0,0,0,99,,,,,,,23.238,72.32,1119.8104856371,33.464568,6,P-GPS,
16600,2024-04-08 16:33:28,39.1037916159761,-96.6051353133568,33.464568,,,1119.8104856371,34.44882,0,48.776904448,52.930775972,23,5,23.01,1119.8104856371,33.464568,6.5094954,48.795605236,0,0,0,317.7, -0.1, -0.9,0,0,1024,1024,1024,1024,0,0,0,0,0,0,0,99,,,,,,,23.334,72.32,1119.8104856371,33.464568,6,P-GPS,
16700,2024-04-08 16:33:28,39.1037916361933,-96.6051352387501,33.464568,,,1119.8104856371,34.44882,0,48.780841456,52.953085684,23,5,23.01,1119.8104856371,33.464568,6.5094954,48.795605236,0,0,0,317.8, -0.2, -0.9,0,0,1024,1024,1024,1024,0,0,0,0,0,0,0,99,,,,,,,23.334,72.32,1119.8104856371,33.464568,6,P-GPS,
16800,2024-04-08 16:33:28,39.1037916986267,-96.6051351050002,33.464568,,,1119.8104856371,34.44882,0,48.797245656,52.997377024,23,5,23.01,1119.8104856371,33.464568,6.5094954,48.797245656,0,0,0,317.8, 0, -0.9,0,0,1024,1024,1024,1024,0,0,0,0,0,0,0,99,,,,,,,23.334,72.32,1119.8104856371,33.464568,6,P-GPS,
16900,2024-04-08 16:33:28,39.1037917191265,-96.6051350228537,33.464568,,,1119.8104856371,34.44882,0,48.800526496,53.02165524,23,5,23.01,1119.8104856371,33.464568,6.5094954,48.800526496,0,0,0,317.8, 0.1, -1.1,0,0,1024,1024,1024,1024,0,0,0,0,0,0,0,99,,,,,,,23.334,72.32,1119.8104856371,33.464568,6,P-GPS,
17000,2024-04-08 16:33:28,39.1037916173725,-96.6051350292537,33.464568,,,1119.8104856371,34.44882,0,48.764437256,53.058728732,23,5,23.01,1119.8104856371,33.464568,6.5094954,48.800526496,0,0,0,317.8, 0.2, -1.2,0,0,1024,1024,1024,1024,0,0,0,0,0,0,0,99,,,,,,,23.334,72.32,1119.8104856371,33.464568,6,P-GPS,
17100,2024-04-08 16:33:28,39.1037916086688,-96.6051349539516,33.464568,,,1119.8104856371,34.44882,0,48.757875576,53.080382276,23,5,23.01,1119.8104856371,33.464568,6.5094954,48.800526496,0,0,0,317.7, 0.1, -1.3,0,0,1024,1024,1024,1024,0,0,0,0,0,0,0,99,,,,,,,23.334,72.32,1119.8104856371,33.464568,6,P-GPS,
17200,2024-04-08 16:33:28,39.1037915485056,-96.605134795951,33.464568,,,1119.8104856371,34.44882,0,48.7286761,53.130251044,23,5,23.01,1119.8104856371,33.464568,6.5094954,48.800526496,0,0,0,317.7, -0.1, -1.2,0,0,1024,1024,1024,1024,0,0,0,0,0,0,0,99,,,,,,,23.334,72.32,1119.8104856371,33.464568,6,P-GPS,
17300,2024-04-08 16:33:28,39.1037915223004,-96.6051347216231,33.464568,,,1119.8104856371,34.44882,0,48.715880824,53.153216924,23,5,23.01,1119.8104856371,33.464568,6.5094954,48.800526496,0,0,0,317.7, -0.4, -1.1,0,0,1024,1024,1024,1024,0,0,0,0,0,0,0,99,,,,,,,23.334,72.32,1119.8104856371,33.464568,6,P-GPS,
17400,2024-04-08 16:33:29,39.1037914764605,-96.6051347615993,33.464568,,,1119.8104856371,34.44882,0,48.701445128,53.173558132,23,5,23.01,1119.8104856371,33.464568,6.5094954,48.800526496,0,0,0,317.8, -0.6, -1,0,0,1024,1024,1024,1024,0,0,0,0,0,0,0,99,,,,,,,23.334,72.32,1119.8104856371,33.464568,6,P-GPS,
17500,2024-04-08 16:33:29,39.1037914516773,-96.6051347142544,33.464568,,,1119.8104856371,34.44882,0,48.690290272,53.189634248,23,5,23.01,1119.8104856371,33.464568,6.5094954,48.800526496,0,0,0,317.8, -0.6, -1.1,0,0,1024,1024,1024,1024,0,0,0,0,0,0,0,99,,,,,,,23.334,72.32,1119.8104856371,33.464568,6,P-GPS,
17600,2024-04-08 16:33:29,39.1037914734194,-96.6051347500605,33.464568,,,1119.8104856371,34.44882,0,48.699804708,53.202429524,23,5,23.01,1119.8104856371,33.464568,6.5094954,48.800526496,0,0,0,317.8, -0.4, -1.1,0,0,1024,1024,1024,1024,0,0,0,0,0,0,0,99,,,,,,,23.226,72.5,1119.8104856371,33.464568,6,P-GPS,
17700,2024-04-08 16:33:29,39.1037914552153,-96.6051347265963,33.464568,,,1119.8104856371,34.44882,0,48.691930692,53.21194396,23,5,23.01,1119.8104856371,33.464568,6.5094954,48.800526496,0,0,0,317.8, -0.1, -1,0,0,1024,1024,1024,1024,0,0,0,0,0,0,0,99,,,,,,,23.226,72.5,1119.8104856371,33.464568,6,P-GPS,
17800,2024-04-08 16:33:29,39.103791516201,-96.6051348889961,33.464568,,,1119.8104856371,34.44882,0,48.721458252,53.263125064,23,5,23.01,1119.8104856371,33.464568,6.5094954,48.800526496,0,0,0,317.9, 0, -1,0,0,1024,1024,1024,1024,0,0,0,0,0,0,0,99,,,,,,,23.226,72.5,1119.8104856371,33.464568,6,P-GPS,
17900,2024-04-08 16:33:29,39.1037914994276,-96.6051348906962,33.464568,,,1119.8104856371,34.44882,0,48.71555274,53.269030576,23,5,23.01,1119.8104856371,33.464568,6.5094954,48.800526496,0,0,0,317.9, 0.1, -0.9,0,0,1024,1024,985,1024,0,0,-6,0,0,0,0,99,,,,,,,23.226,72.5,1119.8104856371,33.464568,6,P-GPS,
18000,2024-04-08 16:33:29,39.1037915303616,-96.6051349712723,33.464568,,,1119.8104856371,34.44882,0,48.73031652,53.294621128,23,5,23.01,1119.8104856371,33.464568,6.5094954,48.800526496,0,0,0,317.9, 0.1, -0.9,0,0,1024,1024,946,1024,0,0,-12,0,0,0,0,99,,,,,,,23.226,72.5,1119.8104856371,33.464568,6,P-GPS,
18100,2024-04-08 16:33:29,39.1037915082426,-96.605134976171,33.464568,,,1119.8104856371,34.44882,0,48.722770588,53.302823228,23,5,23.01,1119.8104856371,33.464568,6.5094954,48.800526496,0,0,0,317.9, 0, -0.9,0,0,1024,1024,917,1024,0,0,-16,0,0,0,0,99,,,,,,,23.226,72.5,1119.8104856371,33.464568,6,P-GPS,
18200,2024-04-08 16:33:29,39.1037915205185,-96.6051349861479,33.464568,,,1119.8104856371,34.44882,0,48.727363764,53.308072572,23,5,23.01,1119.8104856371,33.464568,6.5094954,48.800526496,0,0,0,318, -0.2, -1.1,0,0,1024,1024,933,1024,0,0,-14,0,0,0,0,99,,,,,,,23.226,72.5,1119.8104856371,33.464568,6,P-GPS,
18300,2024-04-08 16:33:29,39.103791505784,-96.6051349976398,33.464568,,,1119.8104856371,34.44882,0,48.722770588,53.314306168,23,5,23.01,1119.8104856371,33.464568,6.5094954,48.800526496,0,0,0,318.1, -0.3, -1.2,0,0,1024,1024,962,1024,0,0,-9,0,0,0,0,99,,,,,,,23.226,72.5,1119.8104856371,33.464568,6,P-GPS,
18400,2024-04-08 16:33:30,39.1037915350046,-96.6051351531152,33.464568,,,1119.8104856371,34.44882,0,48.740487124,53.35958176,23,5,23.01,1119.8104856371,33.464568,6.5094954,48.800526496,0,0,0,318.1, -0.2, -1.2,0,0,1024,1024,1024,1024,0,0,0,0,0,0,0,99,,,,,,,23.226,72.5,1119.8104856371,33.464568,6,P-GPS,
18500,2024-04-08 16:33:30,39.1037915246134,-96.6051351947583,33.464568,,,1119.8104856371,34.44882,0,48.73851862,53.372048952,23,5,23.01,1119.8104856371,33.464568,6.5094954,48.800526496,0,0,0,318.1, 0, -0.9,0,0,1024,1024,1009,1024,0,0,-2,0,0,0,0,99,,,,,,,23.226,72.5,1119.8104856371,33.464568,6,P-GPS,
18600,2024-04-08 16:33:30,39.1037914117741,-96.6051351863077,33.464568,,,1119.8104856371,34.44882,0,48.69750812,53.413387536,23,5,22.944,1119.8104856371,33.464568,6.5094954,48.800526496,0,0,0,318.2, 0.2, -0.5,0,0,1024,1024,903,1024,0,0,-18,0,0,0,0,98,,,,,,,23.23,72.5,1119.8104856371,33.464568,6,P-GPS,
18700,2024-04-08 16:33:30,39.1037913971766,-96.6051352119521,33.464568,,,1119.8104856371,34.44882,0,48.693571112,53.422245804,23,5,22.944,1119.8104856371,33.464568,6.5094954,48.800526496,0,0,0,318.3, 0.1, -0.2,0,0,1024,1024,914,1024,0,0,-17,0,0,0,0,98,,,,,,,23.23,72.5,1119.8104856371,33.464568,6,P-GPS,
18800,2024-04-08 16:33:30,39.1037914649641,-96.6051353128075,33.464568,,,1119.8104856371,34.44882,0,48.722770588,53.459975464,23,5,22.944,1119.8104856371,33.464568,6.5094954,48.800526496,0,0,0,318.4, 0, -0.3,0,0,1024,1024,1019,1024,0,0,-1,0,0,0,0,98,,,,,,,23.23,72.5,1119.8104856371,33.464568,6,P-GPS,
