time(millisecond),datetime(utc),latitude,longitude,height_above_takeoff(feet),height_above_ground_at_drone_location(feet),ground_elevation_at_drone_location(feet),altitude_above_seaLevel(feet),height_sonar(feet),speed(mph),distance(feet),mileage(feet),satellites,gpslevel,voltage(v),max_altitude(feet),max_ascent(feet),max_speed(mph),max_distance(feet), xSpeed(mph), ySpeed(mph), zSpeed(mph), compass_heading(degrees), pitch(degrees), roll(degrees),isPhoto,isVideo,rc_elevator,rc_aileron,rc_throttle,rc_rudder,rc_elevator(percent),rc_aileron(percent),rc_throttle(percent),rc_rudder(percent),gimbal_heading(degrees),gimbal_pitch(degrees),gimbal_roll(degrees),battery_percent,voltageCell1,voltageCell2,voltageCell3,voltageCell4,voltageCell5,voltageCell6,current(A),battery_temperature(f),altitude(feet),ascent(feet),flycStateRaw,flycState,message
0,,39.1016802666508,-96.5961907593363,0,Available with any HD 360 subscription,Available with any HD 360 subscription,1112.2287895283,0.656168,0,0,0,19,5,0,1112.2287895283,0,0,0,0,0,0,94.2, 1.8, -0.8,0,0,1024,1024,1024,1024,0,0,0,0,0,0,0,66,,,,,,,0,98.78,1112.2287895283,0,41,Motors_Started,
100,2024-04-08 19:03:50,39.1016802883344,-96.5961909442897,0,,,1112.2287895283,0.656168,0,0.052960631616,0.052960631616,19,5,0,1112.2287895283,0,0,0.052960631616,0,0,0,94.2, 1.8, -0.8,0,0,393,364,364,1684,-96,-100,-100,100,0,0,0,66,,,,,,,0,98.78,1112.2287895283,0,41,Motors_Started,"GEO: You are in a Warning Zone (Airport). Fly with caution."
200,2024-04-08 19:03:50,39.1016802959791,-96.5961910539127,0,,,1112.2287895283,0.656168,0,0.0840879292,0.084123690356,19,5,0,1112.2287895283,0,0,0.0840879292,0,0,0,94.2, 1.8, -0.8,0,0,395,364,364,1684,-95,-100,-100,100,0,0,0,66,,,,,,,0,98.78,1112.2287895283,0,41,Motors_Started,
300,2024-04-08 19:03:50,39.1016803126934,-96.5961912357696,0,,,1112.2287895283,0.656168,0,0.135936027972,0.135973429548,19,5,0,1112.2287895283,0,0,0.135936027972,0,0,0,94.2, 1.8, -0.8,0,0,402,364,364,1684,-94,-100,-100,100,0,0,0,66,,,,,,,0,98.78,1112.2287895283,0,41,Motors_Started,
400,2024-04-08 19:03:50,39.10168035278,-96.5961914305864,0,,,1112.2287895283,0.656168,0,0.192633536348,0.193038392004,19,5,0,1112.2287895283,0,0,0.192633536348,0,0,0,94.2, 1.8, -0.8,0,0,397,364,364,1684,-95,-100,-100,100,0,0,0,66,,,,,,,0,98.78,1112.2287895283,0,41,Motors_Started,
500,2024-04-08 19:03:50,39.1016803769233,-96.5961916179683,0,,,1112.2287895283,0.656168,0,0.24641404988,0.246818905536,19,5,0,1112.2287895283,0,0,0.24641404988,0,0,0,94.2, 1.8, -0.8,0,0,397,364,364,1684,-95,-100,-100,100,0,0,0,66,,,,,,,0,98.78,1112.2287895283,0,41,Motors_Started,
600,2024-04-08 19:03:50,39.101680380146,-96.5961918186358,0,,,1112.2287895283,0.656168,0,0.302768054308,0.30364666326,19,5,0,1112.2287895283,0,0,0.302768054308,0,0,0,94.2, 1.8, -0.8,0,0,378,364,364,1684,-98,-100,-100,100,0,0,0,66,,,,,,,0,98.78,1112.2287895283,0,41,Motors_Started,"Setting new Return-To-Home altitude to 61m (200 ft). Data Recorder File Index is 35. Setting new Maximum Flight Altitude to 61m (200 ft)"
700,2024-04-08 19:03:50,39.1016804112949,-96.5961919913082,0,,,1112.2287895283,0.656168,0,0.35278216352,0.353838594,19,5,0,1112.2287895283,0,0,0.35278216352,0,0,0,94.2, 1.8, -0.8,0,0,1024,1024,1024,1024,0,0,0,0,0,0,0,66,,,,,,,0,98.78,1112.2287895283,0,41,Motors_Started,
800,2024-04-08 19:03:50,39.1016804521558,-96.596192195337,0,,,1112.2287895283,0.656168,0,0.41217521004,0.4135006694,20,5,0,1112.2287895283,0,0,0.41217521004,0,0,0,94.3, 1.8, -0.8,0,0,1024,1024,1024,1024,0,0,0,0,0,0,0,66,,,,,,,0,98.78,1112.2287895283,0,41,Motors_Started,
900,2024-04-08 19:03:50,39.1016804765971,-96.5961923888843,0,,,1112.2287895283,0.656168,0,0.46769358452,0.46901904388,20,5,0,1112.2287895283,0,0,0.46769358452,0,0,0,94.3, 1.8, -0.8,0,0,1024,1024,1024,1024,0,0,0,0,0,0,0,66,,,,,,,0,98.78,1112.2287895283,0,41,Motors_Started,
1000,2024-04-08 19:03:50,39.1016804796993,-96.5961925956563,0,,,1112.2287895283,0.656168,0,0.52570211656,0.5275754762,20,5,0,1112.2287895283,0,0,0.52570211656,0,0,0,94.4, 1.8, -0.8,0,0,1024,1024,1024,1024,0,0,0,0,0,0,0,66,,,,,,,0,98.78,1112.2287895283,0,41,Motors_Started,
1100,2024-04-08 19:03:50,39.1016805111405,-96.5961928013354,0,,,1112.2287895283,0.656168,0,0.58500001872,0.58692915264,20,5,0,1112.2287895283,0,0,0.58500001872,0,0,0,94.4, 1.8, -0.8,0,0,1024,1024,1024,1024,0,0,0,0,0,0,0,66,,,,,,,0,98.78,1112.2287895283,0,41,Motors_Started,
1200,2024-04-08 19:03:51,39.1016805497183,-96.5961930080578,0,,,1112.2287895283,0.656168,0,0.64500986316,0.64712600496,20,5,0,1112.2287895283,0,0,0.64500986316,0,0,0,94.4, 1.8, -0.8,0,0,1024,1024,1024,1024,0,0,0,0,0,0,0,66,,,,,,,0,98.78,1112.2287895283,0,41,Motors_Started,
1300,2024-04-08 19:03:51,39.101680573137,-96.5961931852893,0,,,1112.2287895283,0.656168,0,0.69591209576,0.69802823756,20,5,0,1112.2287895283,0,0,0.69591209576,0,0,0,94.3, 1.9, -0.8,0,0,1024,1024,1024,1024,0,0,0,0,0,0,0,66,,,,,,,0,98.78,1112.2287895283,0,41,Motors_Started,
1400,2024-04-08 19:03:51,39.1016805750268,-96.5961933386269,0,,,1112.2287895283,0.656168,0,0.73889766144,0.74145015496,20,5,23.406,1112.2287895283,0,0,0.73889766144,0,0,0,94.3, 1.9, -0.8,0,0,1024,1024,1024,1024,0,0,0,0,0,0,0,66,,,,,,,3.22,98.78,1112.2287895283,0,41,Motors_Started,
1500,2024-04-08 19:03:51,39.1016805592089,-96.5961934358697,0,,,1112.2287895283,0.656168,0,0.76529530008,0.76958007712,20,5,23.406,1112.2287895283,0,0,0.76529530008,0,0,0,94.3, 1.9, -0.9,0,0,1024,1024,1024,1024,0,0,0,0,0,0,0,66,,,,,,,3.22,98.78,1112.2287895283,0,41,Motors_Started,
1600,2024-04-08 19:03:51,39.1016805473807,-96.596193624604,0,,,1112.2287895283,0.656168,0,0.81769359572,0.82319228356,20,5,23.406,1112.2287895283,0,0,0.81769359572,0,0,0,94.3, 1.9, -0.9,0,0,1024,1024,1024,1024,0,0,0,0,0,0,0,66,,,,,,,3.22,98.78,1112.2287895283,0,41,Motors_Started,
1700,2024-04-08 19:03:51,39.1016805564658,-96.5961937941579,0,,,1112.2287895283,0.656168,0,0.86574149752,0.87131236384,20,5,23.406,1112.2287895283,0,0,0.86574149752,0,0,0,94.3, 1.8, -0.8,0,0,1024,1024,1024,1024,0,0,0,0,0,0,0,66,,,,,,,3.22,98.78,1112.2287895283,0,41,Motors_Started,
1800,2024-04-08 19:03:51,39.1016805985627,-96.5961939590147,0,,,1112.2287895283,0.656168,0,0.9139928114,0.92045278536,20,5,23.406,1112.2287895283,0,0,0.9139928114,0,0,0,94.3, 1.8, -0.8,0,0,1024,1024,1024,1024,0,0,0,0,0,0,0,66,,,,,,,3.22,98.78,1112.2287895283,0,41,Motors_Started,
1900,2024-04-08 19:03:51,39.1016806482001,-96.5961940959097,0,,,1112.2287895283,0.656168,0,0.95489832452,0.96323165812,20,5,23.406,1112.2287895283,0,0,0.95489832452,0,0,0,94.3, 1.9, -0.8,0,0,1024,1024,1024,1024,0,0,0,0,0,0,0,66,,,,,,,3.22,98.78,1112.2287895283,0,41,Motors_Started,
2000,2024-04-08 19:03:51,39.1016806506737,-96.5961942933923,0,,,1112.2287895283,0.656168,0,1.01037076724,1.01915357592,20,5,23.406,1112.2287895283,0,0,1.01037076724,0,0,0,94.3, 1.9, -0.8,0,0,1024,1024,1024,1024,0,0,0,0,0,0,0,66,,,,,,,3.22,98.78,1112.2287895283,0,10,Assisted_Takeoff,
2100,2024-04-08 19:03:51,39.1016806462916,-96.5961944662359,0,,,1112.2287895283,0.656168,0,1.05864832784,1.06811683208,20,5,23.406,1112.2287895283,0,0,1.05864832784,0,0,0,94.3, 1.9, -0.8,0,0,1024,1024,1024,1024,0,0,0,0,0,0,0,66,,,,,,,3.22,98.78,1112.2287895283,0,10,Assisted_Takeoff,
2200,2024-04-08 19:03:52,39.1016806343958,-96.5961946270193,0,,,1112.2287895283,0.656168,0,1.10325790932,1.11384846084,20,5,23.406,1112.2287895283,0,0,1.10325790932,0,0,0,94.3, 1.9, -0.8,0,0,1024,1024,1024,1024,0,0,0,0,0,0,0,66,,,,,,,3.22,98.78,1112.2287895283,0,10,Assisted_Takeoff,
2300,2024-04-08 19:03:52,39.101680642021,-96.5961947722101,0,,,1112.2287895283,0.656168,0,1.14440292376,1.15504924956,20,5,23.406,1112.2287895283,0,0,1.14440292376,0,0,0,94.3, 1.9, -0.8,0,0,1024,1024,1024,1024,0,0,0,0,0,0,0,66,,,,,,,3.22,98.78,1112.2287895283,0,10,Assisted_Takeoff,
2400,2024-04-08 19:03:52,39.1016807141521,-96.5961948310757,0,,,1112.2287895283,0.656168,0,1.16435043096,1.18620082536,20,5,23.4,1112.2287895283,0,0,1.16435043096,0,0,0,94.3, 1.9, -0.8,0,0,1024,1024,1024,1024,0,0,0,0,0,0,0,66,,,,,,,4.156,98.6,1112.2287895283,0,10,Assisted_Takeoff,
2500,2024-04-08 19:03:52,39.1016807395509,-96.5961949736282,0,,,1112.2287895283,0.656168,0,1.20561683648,1.22761158784,20,5,23.4,1112.2287895283,0,0,1.20561683648,0,0,0,94.3, 1.8, -0.8,0,0,1024,1024,1024,1024,0,0,0,0,0,0,0,66,,,,,,,4.156,98.6,1112.2287895283,0,10,Assisted_Takeoff,
2600,2024-04-08 19:03:52,39.1016807462992,-96.5961951279262,0,,,1112.2287895283,0.656168,0,1.2492126384,1.27136815092,20,5,23.4,1112.2287895283,0,0,1.2492126384,0,0,0,94.3, 1.9, -0.8,0,0,1024,1024,1024,1024,0,0,0,0,0,0,0,66,,,,,,,4.156,98.6,1112.2287895283,0,10,Assisted_Takeoff,
2700,2024-04-08 19:03:52,39.1016807666466,-96.596195275115,0,,,1112.2287895283,0.656168,0,1.29151578936,1.3136975486,20,5,23.4,1112.2287895283,0,0,1.29151578936,0,0,0,94.2, 1.9, -0.7,0,0,1024,1024,1024,1024,0,0,0,0,0,0,0,66,,,,,,,4.156,98.6,1112.2287895283,0,10,Assisted_Takeoff,
2800,2024-04-08 19:03:52,39.1016808456424,-96.5961953745325,0,,,1112.2287895283,0.656168,0,1.32368114472,1.3539862638,20,5,23.4,1112.2287895283,0,0,1.32368114472,0,0,0,94.2, 1.9, -0.7,0,0,1024,1024,1024,1024,0,0,0,0,0,0,0,66,,,,,,,4.156,98.6,1112.2287895283,0,10,Assisted_Takeoff,
2900,2024-04-08 19:03:52,39.1016808683185,-96.5961955181723,0,,,1112.2287895283,0.656168,0,1.36515096232,1.3954888898,20,5,23.4,1112.2287895283,0,0,1.36515096232,0,0,0,94.2, 1.9, -0.8,0,0,1024,1024,1024,1024,0,0,0,0,0,0,0,66,,,,,,,4.156,98.6,1112.2287895283,0,10,Assisted_Takeoff,
3000,2024-04-08 19:03:52,39.1016808729913,-96.596195671808,0,,,1112.2287895283,0.656168,0,1.4083661868,1.43901907492,20,5,23.4,1112.2287895283,0,0,1.4083661868,0,0,0,94.3, 1.9, -0.8,0,0,1024,1024,1024,1024,0,0,0,0,0,0,0,66,,,,,,,4.156,98.6,1112.2287895283,0,10,Assisted_Takeoff,
3100,2024-04-08 19:03:52,39.1016808712945,-96.5961958167449,0,,,1112.2287895283,0.656168,0,1.44881566316,1.48006238332,20,5,23.4,1112.2287895283,0,0,1.44881566316,0,0,0,94.2, 1.9, -0.8,0,0,1024,1024,1024,1024,0,0,0,0,0,0,0,66,,,,,,,4.156,98.6,1112.2287895283,0,10,Assisted_Takeoff,
3200,2024-04-08 19:03:53,39.1016808394267,-96.5961959594795,0,,,1112.2287895283,0.656168,0,1.4870899426,1.5221129096,20,5,23.4,1112.2287895283,0,0,1.4870899426,0,0,0,94.2, 1.9, -0.8,0,0,1024,1024,1024,1024,0,0,0,0,0,0,0,66,,,,,,,4.156,98.6,1112.2287895283,0,10,Assisted_Takeoff,
3300,2024-04-08 19:03:53,39.1016808498829,-96.5961961084732,0,,,1112.2287895283,0.656168,0,1.52939309356,1.56447183484,20,5,23.4,1112.2287895283,0,0,1.52939309356,0,0,0,94.2, 1.9, -0.8,0,0,1024,1024,1024,1024,0,0,0,0,0,0,0,66,,,,,,,4.156,98.6,1112.2287895283,0,10,Assisted_Takeoff,
3400,2024-04-08 19:03:53,39.1016808883215,-96.5961962650011,0,,,1112.2287895283,0.656168,0,1.57525267508,1.61095477596,20,5,23.4,1112.2287895283,0,0,1.57525267508,0,0,0,94.2, 1.9, -0.8,0,0,1024,1024,1024,1024,0,0,0,0,0,0,0,66,,,,,,,2.17,98.6,1112.2287895283,0,10,Assisted_Takeoff,
3500,2024-04-08 19:03:53,39.101680910176,-96.5961963935119,0,,,1112.2287895283,0.656168,0,1.61240818808,1.64820543332,20,5,23.4,1112.2287895283,0,0,1.61240818808,0,0,0,94.2, 1.9, -0.8,0,0,1024,1024,1024,1024,0,0,0,0,0,0,0,66,,,,,,,2.17,98.6,1112.2287895283,0,10,Assisted_Takeoff,
3600,2024-04-08 19:03:53,39.1016809502586,-96.596196414166,0,,,1112.2287895283,0.656168,0,1.62038062928,1.66395346532,20,5,23.4,1112.2287895283,0,0,1.62038062928,0,0,0,94.2, 1.9, -0.8,0,0,1024,1024,1024,1024,0,0,0,0,0,0,0,66,,,,,,,2.17,98.6,1112.2287895283,0,10,Assisted_Takeoff,
3700,2024-04-08 19:03:53,39.1016809673385,-96.5961965303296,0,,,1112.2287895283,0.656168,0,1.6538386356,1.69742787584,20,5,23.4,1112.2287895283,0,0,1.6538386356,0,0,0,94.2, 1.9, -0.7,0,0,1024,1024,1024,1024,0,0,0,0,0,0,0,66,,,,,,,2.17,98.6,1112.2287895283,0,10,Assisted_Takeoff,
3800,2024-04-08 19:03:53,39.1016810057169,-96.5961966736714,0,,,1112.2287895283,0.656168,0,1.69611553984,1.74036094808,20,5,23.4,1112.2287895283,0,0,1.69611553984,0,0,0,94.2, 1.9, -0.7,0,0,1024,1024,1024,1024,0,0,0,0,0,0,0,66,,,,,,,2.17,98.6,1112.2287895283,0,10,Assisted_Takeoff,
3900,2024-04-08 19:03:53,39.101681028774,-96.5961967963702,0,,,1112.2287895283,0.656168,0,1.73175530476,1.77610569988,20,5,23.4,1112.2287895283,0,0,1.73175530476,0,0,0,94.2, 1.9, -0.8,0,0,1024,1024,1024,1024,0,0,0,0,0,0,0,66,,,,,,,2.17,98.6,1112.2287895283,0,10,Assisted_Takeoff,
4000,2024-04-08 19:03:53,39.1016810276805,-96.5961969042215,0,,,1112.2287895283,0.656168,0,1.76183732672,1.8066437586,20,5,23.4,1112.2287895283,0,0,1.76183732672,0,0,0,94.2, 1.9, -0.8,0,0,1024,1024,1024,1024,0,0,0,0,0,0,0,66,,,,,,,2.17,98.6,1112.2287895283,0,10,Assisted_Takeoff,
4100,2024-04-08 19:03:54,39.1016810683834,-96.5961969281872,0,,,1112.2287895283,0.656168,0,1.7709318152,1.82297249928,20,5,23.4,1112.2287895283,0,0,1.7709318152,0,0,0,94.2, 1.9, -0.8,0,0,1024,1024,1024,1024,0,0,0,0,0,0,0,66,,,,,,,2.17,98.6,1112.2287895283,0,10,Assisted_Takeoff,
4200,2024-04-08 19:03:54,39.1016811042711,-96.5961970223611,0,,,1112.2287895283,0.656168,0,1.79941278724,1.85267722464,20,5,23.4,1112.2287895283,0,0,1.79941278724,0,0,0,94.2, 1.9, -0.8,0,0,1024,1024,1024,1024,0,0,0,0,0,0,0,66,,,,,,,2.17,98.6,1112.2287895283,0,10,Assisted_Takeoff,
4300,2024-04-08 19:03:54,39.101681125011,-96.5961971111204,0,,,1112.2287895283,0.656168,0,1.82546593768,1.8789206638,20,5,23.4,1112.2287895283,0,0,1.82546593768,0,0,0,94.2, 1.9, -0.8,0,0,1024,1024,1024,1024,0,0,0,0,0,0,0,66,,,,,,,2.17,98.6,1112.2287895283,0,10,Assisted_Takeoff,
4400,2024-04-08 19:03:54,39.1016811249556,-96.5961972061444,0,,,1112.2287895283,0.656168,0,1.85197512488,1.90582683264,20,5,23.364,1112.2287895283,0,0,1.85197512488,0,0,0,94.2, 1.9, -0.8,0,0,1024,1024,1024,1024,0,0,0,0,0,0,0,66,,,,,,,1.704,98.6,1112.2287895283,0,10,Assisted_Takeoff,
4500,2024-04-08 19:03:54,39.1016811488427,-96.5961973168418,0,,,1112.2287895283,0.656168,0,1.88434061148,1.93835636124,20,5,23.364,1112.2287895283,0,0,1.88434061148,0,0,0,94.5, 1.8, -0.9,0,0,1024,1024,1024,1024,0,0,0,0,0,0,0,66,,,,,,,1.704,98.6,1112.2287895283,0,10,Assisted_Takeoff,
4600,2024-04-08 19:03:54,39.1016810789134,-96.5961973669323,0,,,1112.2287895283,0.656168,0,1.89415688476,1.96754927556,20,5,23.364,1112.2287895283,0,0,1.89415688476,0,0,0,94.5, 1.8, -0.9,0,0,1024,1024,1024,1024,0,0,0,0,0,0,0,66,,,,,,,1.704,98.6,1112.2287895283,0,10,Assisted_Takeoff,
4700,2024-04-08 19:03:54,39.1016811022482,-96.5961974718703,0,,,1112.2287895283,0.656168,0,1.92483930044,1.99845478836,20,5,23.364,1112.2287895283,0,0,1.92483930044,0,0,0,94.5, 1.8, -0.9,0,0,1024,1024,1024,1024,0,0,0,0,0,0,0,66,,,,,,,1.704,98.6,1112.2287895283,0,10,Assisted_Takeoff,
4800,2024-04-08 19:03:54,39.1016810469897,-96.5961975274418,0,,,1112.2287895283,0.656168,0,1.93730977328,2.02402893616,20,5,23.364,1112.2287895283,0,0,1.93730977328,0,0,0,94.5, 1.8, -0.9,0,0,1024,1024,1024,1024,0,0,0,0,0,0,0,66,,,,,,,1.704,98.6,1112.2287895283,0,10,Assisted_Takeoff,
4900,2024-04-08 19:03:54,39.1016810623029,-96.596197625174,0,,,1112.2287895283,0.656168,0,1.9655020314,2.05226056436,20,5,23.364,1112.2287895283,0,0,1.9655020314,0,0,0,94.4, 1.8, -0.9,0,0,1024,1024,1024,1024,0,0,0,0,0,0,0,66,,,,,,,1.704,98.6,1112.2287895283,0,10,Assisted_Takeoff,
5000,2024-04-08 19:03:54,39.101681026081,-96.5961978700362,0,,,1112.2287895283,0.656168,0,2.03225400204,2.1228347136,20,5,23.364,1112.2287895283,0,0,2.03225400204,0,0,0,94.4, 1.8, -0.9,0,0,1024,1024,1024,1024,0,0,0,0,0,0,0,66,,,,,,,1.704,98.6,1112.2287895283,0,10,Assisted_Takeoff,
5100,2024-04-08 19:03:54,39.1016810361972,-96.59619797888,0,,,1112.2287895283,0.656168,0,2.0632874676,2.15387474084,20,5,23.364,1112.2287895283,0,0,2.0632874676,0,0,0,94.4, 1.8, -0.9,0,0,1024,1024,1024,1024,0,0,0,0,0,0,0,66,,,,,,,1.704,98.6,1112.2287895283,0,10,Assisted_Takeoff,
5200,2024-04-08 19:03:55,39.1016810201408,-96.5961980571415,0,,,1112.2287895283,0.656168,0,2.08445872812,2.17679468908,20,5,23.364,1112.2287895283,0,0,2.08445872812,0,0,0,94.4, 1.8, -0.9,0,0,1024,1024,1024,1024,0,0,0,0,0,0,0,66,,,,,,,1.704,98.6,1112.2287895283,0,10,Assisted_Takeoff,
5300,2024-04-08 19:03:55,39.1016810259493,-96.5961981593056,0,,,1112.2287895283,0.656168,0,2.11341214112,2.20579731468,20,5,23.364,1112.2287895283,0,0,2.11341214112,0,0,0,94.4, 1.8, -0.9,0,0,1024,1024,1024,1024,0,0,0,0,0,0,0,66,,,,,,,1.704,98.6,1112.2287895283,0,10,Assisted_Takeoff,
5400,2024-04-08 19:03:55,39.1016811561439,-96.5961982382804,0,,,1112.2287895283,0.656168,0,2.14226384808,2.25829731636,20,5,23.364,1112.2287895283,0,0,2.14226384808,0,0,0,94.4, 1.8, -0.9,0,0,1024,1024,1024,1024,0,0,0,0,0,0,0,66,,,,,,,1.564,98.6,1112.2287895283,0,10,Assisted_Takeoff,
5500,2024-04-08 19:03:55,39.1016811711197,-96.5961983356784,0,,,1112.2287895283,0.656168,0,2.17034783848,2.28641083432,20,5,23.364,1112.2287895283,0,0,2.17034783848,0,0,0,94.4, 1.8, -0.9,0,0,1024,1024,1024,1024,0,0,0,0,0,0,0,66,,,,,,,1.564,98.6,1112.2287895283,0,10,Assisted_Takeoff,
5600,2024-04-08 19:03:55,39.1016811353107,-96.5961984314199,0,,,1112.2287895283,0.656168,0,2.19521988652,2.3165026988,20,5,23.364,1112.2287895283,0,0,2.19521988652,0,0,0,94.4, 1.8, -0.9,0,0,1024,1024,1024,1024,0,0,0,0,0,0,0,66,,,,,,,1.564,98.6,1112.2287895283,0,10,Assisted_Takeoff,
5700,2024-04-08 19:03:55,39.1016811452676,-96.5961985266246,0,,,1112.2287895283,0.656168,0,2.22241805012,2.3437008624,20,5,23.364,1112.2287895283,0,0,2.22241805012,0,0,0,94.4, 1.8, -0.9,0,0,1024,1024,1024,1024,0,0,0,0,0,0,0,66,,,,,,,1.564,98.6,1112.2287895283,0,10,Assisted_Takeoff,
5800,2024-04-08 19:03:55,39.1016811164034,-96.5961987671422,0,,,1112.2287895283,0.656168,0,2.28837605748,2.41261162576,20,5,23.364,1112.2287895283,0,0,2.28837605748,0,0,0,94.4, 1.8, -0.9,0,0,1024,1024,1024,1024,0,0,0,0,0,0,0,66,,,,,,,1.564,98.6,1112.2287895283,0,10,Assisted_Takeoff,
5900,2024-04-08 19:03:55,39.1016811226723,-96.5961988737022,0,,,1112.2287895283,0.656168,0,2.31857947052,2.44286753224,20,5,23.364,1112.2287895283,0,0,2.31857947052,0,0,0,94.4, 1.8, -0.9,0,0,1024,1024,1045,1024,0,0,3,0,0,0,0,66,,,,,,,1.564,98.6,1112.2287895283,0,10,Assisted_Takeoff,
6000,2024-04-08 19:03:55,39.1016811061978,-96.5961989626084,0,,,1112.2287895283,0.656168,0,2.34272973376,2.46874679816,20,5,23.364,1112.2287895283,0,0,2.34272973376,0,0,0,94.4, 1.8, -0.9,0,0,1024,1024,1161,1024,0,0,21,0,0,0,0,66,,,,,,,1.564,98.6,1112.2287895283,0,10,Assisted_Takeoff,
6100,2024-04-08 19:03:55,39.1016811080857,-96.5961990659138,0,,,1112.2287895283,0.656168,0,2.37182094204,2.49800532928,20,5,23.364,1112.2287895283,0,0,2.37182094204,0,0,0,94.4, 1.8, -0.9,0,0,1024,1024,1224,1024,0,0,30,0,0,0,0,66,,,,,,,1.564,98.6,1112.2287895283,0,10,Assisted_Takeoff,
6200,2024-04-08 19:03:56,39.1016812464428,-96.5961991412458,0,,,1112.2287895283,0.656168,0,2.39997054924,2.5528051998,20,5,23.364,1112.2287895283,0,0,2.39997054924,0,0,0,94.4, 1.8, -0.9,0,0,1024,1024,1323,1024,0,0,45,0,0,0,0,66,,,,,,,1.564,98.6,1112.2287895283,0,10,Assisted_Takeoff,
6300,2024-04-08 19:03:56,39.1016812603269,-96.5961992415195,0,,,1112.2287895283,0.656168,0,2.42879929032,2.5816437834,20,5,23.364,1112.2287895283,0,0,2.42879929032,0,0,0,94.4, 1.8, -0.9,0,0,1024,1024,1325,1024,0,0,46,0,0,0,0,66,,,,,,,1.564,98.6,1112.2287895283,0,10,Assisted_Takeoff,
6400,2024-04-08 19:03:56,39.1016812300407,-96.596199332279,0,,,1112.2287895283,0.656168,0,2.45260178452,2.60961622524,20,5,23.37,1112.2287895283,0,0,2.45260178452,0,0,0,94.4, 1.8, -0.9,0,0,1024,1024,1331,1028,0,0,47,1,0,0,0,66,,,,,,,1.58,98.6,1112.2287895283,0,10,Assisted_Takeoff,
6500,2024-04-08 19:03:56,39.1016812388384,-96.5961994314063,0,,,1112.2287895283,0.656168,0,2.4808399744,2.63786425764,20,5,23.37,1112.2287895283,0,0,2.4808399744,0,0,0,94.4, 1.8, -0.8,0,0,1024,1024,1340,1032,0,0,48,1,0,0,0,66,,,,,,,1.58,98.6,1112.2287895283,0,10,Assisted_Takeoff,
6600,2024-04-08 19:03:56,39.10168121704,-96.596199525727,0,,,1112.2287895283,0.656168,0,2.50616149752,2.6657317126,20,5,23.37,1112.2287895283,0,0,2.50616149752,0,0,0,94.4, 1.8, -0.8,0,0,1024,1024,1350,1037,0,0,49,2,0,0,0,66,,,,,,,1.58,98.6,1112.2287895283,0,10,Assisted_Takeoff,
6700,2024-04-08 19:03:56,39.1016812245681,-96.5961996172976,0,,,1112.2287895283,0.656168,0,2.5322179288,2.69180126724,20,5,23.37,1112.2287895283,0,0,2.5322179288,0,0,0,94.4, 1.8, -0.9,0,0,1024,1024,1362,1055,0,0,51,5,0,0,0,66,,,,,,,1.58,98.6,1112.2287895283,0,10,Assisted_Takeoff,
6800,2024-04-08 19:03:56,39.1016812140669,-96.5961997263703,0,,,1112.2287895283,0.656168,0,2.56229010824,2.72292003464,20,5,23.37,1112.2287895283,0,0,2.56229010824,0,0,0,94.4, 1.8, -0.9,0,0,1024,1024,1416,1071,0,0,59,7,0,0,0,66,,,,,,,1.58,98.6,1112.2287895283,0,10,Assisted_Takeoff,
6900,2024-04-08 19:03:56,39.1016812187739,-96.5961998238404,0,,,1112.2287895283,0.656168,0,2.58986556844,2.75057095416,20,5,23.37,1112.2287895283,0,0,2.58986556844,0,0,0,94.4, 1.9, -0.8,0,0,1024,1024,1416,1071,0,0,59,7,0,0,0,66,,,,,,,1.58,98.6,1112.2287895283,0,10,Assisted_Takeoff,
7000,2024-04-08 19:03:56,39.1016813581414,-96.5961999346402,0,,,1112.2287895283,0.656168,0,2.62817921796,2.8103183314,20,5,23.37,1112.2287895283,0,0,2.62817921796,0,0,0,94.4, 1.9, -0.8,0,0,1024,1024,1427,1077,0,0,61,8,0,0,0,66,,,,,,,1.58,98.6,1112.2287895283,0,10,Assisted_Takeoff,
7100,2024-04-08 19:03:57,39.1016813823534,-96.5962000369711,0,,,1112.2287895283,0.656168,0,2.65815953388,2.84060704628,20,5,23.37,1112.2287895283,0,0,2.65815953388,0,0,0,94.2, 1.9, -0.8,0,0,1024,1024,1430,1081,0,0,62,9,0,0,0,66,,,,,,,1.58,98.6,1112.2287895283,0,10,Assisted_Takeoff,
7200,2024-04-08 19:03:57,39.1016813694637,-96.596200158636,0,,,1112.2287895283,0.656168,0,2.69149942996,2.87537410776,20,5,23.37,1112.2287895283,0,0,2.69149942996,0,0,0,93.6, 1.8, -0.2,0,0,1024,1024,1431,1081,0,0,62,9,0,0,0,66,,,,,,,1.58,98.6,1112.2287895283,0,10,Assisted_Takeoff,
7300,2024-04-08 19:03:57,39.1016814240561,-96.596200307022,0,,,1112.2287895283,0.656168,0,2.73604995632,2.92187017224,20,5,23.37,1112.2287895283,0,0,2.73604995632,0,0,-0.223694,92.4, 1, 0.6,0,0,1024,1024,1434,1088,0,0,62,10,0,0,0,66,,,,,,,1.58,98.6,1112.2287895283,0,10,Assisted_Takeoff,
7400,2024-04-08 19:03:57,39.1016814400173,-96.5962004762446,0,,,1112.2287895283,0.656168,0,2.78428814684,2.97013460948,20,5,23.376,1112.2287895283,0,0,2.78428814684,0,0,-0.894776,91.6, 0, 1.1,0,0,1024,1024,1434,1088,0,0,62,10,0,0,0,66,,,,,,,1.67,98.6,1112.2287895283,0,6,P-GPS,
7500,2024-04-08 19:03:57,39.1016814788353,-96.5962006242181,0.328084,,,1112.5568735283,0.984252,0,2.82787410624,3.01436033268,20,5,23.376,1112.5568735283,0.328084,0,2.82787410624,0,0,-1.342164,91.1, -1.3, 0.7,0,0,1024,1024,1437,1085,0,0,63,9,0,0,0,66,,,,,,,1.67,98.6,1112.5568735283,0.328084,6,P-GPS,
7600,2024-04-08 19:03:57,39.101681509002,-96.596200778473,0.328084,,,1112.5568735283,1.312336,0,2.8727363124,3.0593997042,20,5,23.376,1112.5568735283,0.328084,0,2.8727363124,0,0,-1.789552,90.7, -1.7, 0.4,0,0,1024,1024,1442,1062,0,0,63,6,0,0,0,66,,,,,,,1.67,98.6,1112.5568735283,0.328084,6,P-GPS,
7700,2024-04-08 19:03:57,39.1016815526931,-96.5962008345275,0.656168,,,1112.8849575283,1.64042,0,2.89095481692,3.08189642408,20,5,23.376,1112.8849575283,0.656168,0,2.89095481692,0,0,-2.23694,90.3, -1.5, 0.4,0,0,1024,1024,1453,1024,0,0,65,0,0,0,0,66,,,,,,,1.67,98.6,1112.8849575283,0.656168,6,P-GPS,"Home Point recorded. Return-to-Home Altitude:200.1 ft"
7800,2024-04-08 19:03:57,39.1016815940146,-96.5962008296953,1.312336,,,1113.5411255283,1.968504,0,2.89208998756,3.09703421984,20,5,23.376,1113.5411255283,1.312336,0,2.89208998756,0,0,-2.908022,89.9, -0.8, 0.6,0,0,1024,1024,1475,1024,0,0,68,0,0,0,0,66,,,,,,,1.67,98.6,1113.5411255283,1.312336,6,P-GPS,
7900,2024-04-08 19:03:57,39.1016816343899,-96.5962008160916,1.64042,,,1113.8692095283,2.296588,0,2.89080061744,3.11226059828,20,5,23.376,1113.8692095283,1.64042,0,2.89208998756,0,0,-3.35541,89.4, 0.5, 1,0,0,1024,1024,1475,1024,0,0,68,0,0,0,0,66,,,,,,,1.67,98.6,1113.8692095283,1.64042,6,P-GPS,
8000,2024-04-08 19:03:57,39.1016817654056,-96.5962007061958,2.296588,,,1114.5253775283,2.624672,0,2.8688813254,3.16929472084,20,5,23.376,1114.5253775283,2.296588,0,2.89208998756,0,0,-4.026492,89.1, 2, 1.2,0,0,1024,1024,1474,1024,0,0,68,0,0,0,0,66,,,,,,,1.67,98.6,1114.5253775283,2.296588,6,P-GPS,
8100,2024-04-08 19:03:58,39.1016817806444,-96.596200734209,2.952756,,,1115.1815455283,3.28084,0,2.87772975088,3.17898304136,20,5,23.376,1115.1815455283,2.952756,0,2.89208998756,0,0,-4.47388,88.7, 2.3, 0.9,0,0,1024,1024,1474,1024,0,0,68,0,0,0,0,66,,,,,,,1.67,98.6,1115.1815455283,2.952756,6,P-GPS,
8200,2024-04-08 19:03:58,39.1016818390355,-96.596200864584,3.608924,,,1115.8377135283,3.937008,0,2.91808080204,3.22160115296,20,5,23.376,1115.8377135283,3.608924,0,2.91808080204,0,0,-5.144962,88.4, 1, 0.7,0,0,1024,1024,1463,977,0,0,67,-7,0,0,0,66,,,,,,,1.67,98.6,1115.8377135283,3.608924,6,P-GPS,
8300,2024-04-08 19:03:58,39.1016818472893,-96.5962009608185,4.265092,,,1116.4938815283,4.92126,0,2.94538723336,3.249015852,20,5,23.376,1116.4938815283,4.265092,0,2.94538723336,0,0,-5.59235,88, -0.7, 0.6,0,0,1024,1024,1461,915,0,0,66,-17,0,0,0,66,,,,,,,1.67,98.6,1116.4938815283,4.265092,6,P-GPS,
8400,2024-04-08 19:03:58,39.101681797923,-96.5962011323267,5.249344,,,1117.4781335283,5.905512,0,2.98960639488,3.3008203156,19,5,23.358,1117.4781335283,5.249344,0,2.98960639488,0,0,-6.039738,87.6, -1.7, 0.3,0,0,1024,1024,1451,805,0,0,65,-33,0,0,0,65,,,,,,,12.408,98.6,1117.4781335283,5.249344,6,P-GPS,
8500,2024-04-08 19:03:58,39.1016818142324,-96.596201117394,6.233596,,,1118.4623855283,6.56168,0,2.98657161788,3.3081037804,19,5,23.358,1118.4623855283,6.233596,0,2.98960639488,0,0,-6.263432,86.8, -0.9, -0.2,0,0,1024,1024,1433,709,0,0,62,-48,0,0,0,65,,,,,,,12.408,98.6,1118.4623855283,6.233596,6,P-GPS,
8600,2024-04-08 19:03:58,39.1016818743246,-96.5962008651055,7.217848,,,1119.4466375283,7.545932,0.223694,2.9207842142,3.3828413156,19,5,23.358,1119.4466375283,7.217848,0.223694,2.98960639488,0,0.223694,-6.487126,85.5, 0.9, -0.4,0,0,1024,1024,1430,660,0,0,62,-55,0,0,0,65,,,,,,,12.408,98.6,1119.4466375283,7.217848,6,P-GPS,
8700,2024-04-08 19:03:58,39.1016819398994,-96.5962007775733,8.2021,,,1120.4308895283,8.530184,0.223694,2.90145022408,3.4172901356,19,5,23.358,1120.4308895283,8.2021,0.223694,2.98960639488,0,0.223694,-6.71082,83.4, 2.7, 0,0,0,1024,1024,1426,647,0,0,61,-57,0,0,0,65,,,,,,,12.408,98.6,1120.4308895283,8.2021,6,P-GPS,
8800,2024-04-08 19:03:58,39.1016820539763,-96.5962006701934,9.186352,,,1121.4151415283,9.514436,0,2.88086951476,3.468832132,20,5,23.358,1121.4151415283,9.186352,0.223694,2.98960639488,0,0,-6.71082,80.4, 3.4, 0.6,0,0,1024,1024,1431,676,0,0,62,-53,0,0,0,65,,,,,,,12.408,98.6,1121.4151415283,9.186352,6,P-GPS,
8900,2024-04-08 19:03:58,39.1016821262209,-96.5962006515863,10.170604,,,1122.3993935283,10.498688,0,2.88182752004,3.4957022116,20,5,23.358,1122.3993935283,10.170604,0.223694,2.98960639488,0,0,-6.487126,76.5, 3.2, 1.3,0,0,1024,1024,1422,685,0,0,60,-51,0,0,0,65,,,,,,,12.408,98.6,1122.3993935283,10.170604,6,P-GPS,
9000,2024-04-08 19:03:58,39.1016822208335,-96.5962008405989,11.154856,,,1123.3836455283,11.154856,0,2.94204077656,3.559383316,20,5,23.358,1123.3836455283,11.154856,0.223694,2.98960639488,0,0,-6.487126,72.5, 2.7, 1.5,0,0,1024,1024,1418,690,0,0,60,-51,0,0,0,65,,,,,,,12.408,98.6,1123.3836455283,11.154856,6,P-GPS,
9100,2024-04-08 19:03:59,39.1016822525737,-96.5962008522631,12.139108,,,1124.3678975283,12.139108,0,2.94807096048,3.5714239988,20,5,23.358,1124.3678975283,12.139108,0.223694,2.98960639488,0,0,-6.263432,68.6, 2.2, 0.7,0,0,1024,1024,1414,720,0,0,59,-46,0,0,0,65,,,,,,,12.408,98.6,1124.3678975283,12.139108,6,P-GPS,
9200,2024-04-08 19:03:59,39.1016822316072,-96.5962009316921,13.12336,,,1125.3521495283,12.795276,0,2.96801846768,3.5951772804,20,5,23.358,1125.3521495283,13.12336,0.223694,2.98960639488,0,0,-6.039738,64.8, 2, -0.2,0,0,1024,1024,1407,762,0,0,58,-40,0,0,0,65,,,,,,,12.408,98.6,1125.3521495283,13.12336,6,P-GPS,
9300,2024-04-08 19:03:59,39.1016822530253,-96.5962009748392,13.779528,,,1126.0083175283,13.779528,0,2.98176518728,3.6096785932,20,5,23.358,1126.0083175283,13.779528,0.223694,2.98960639488,0,0,-5.816044,61.1, 1.9, -0.9,0,0,1024,1024,1403,778,0,0,57,-37,0,0,0,65,,,,,,,12.408,98.6,1126.0083175283,13.779528,6,P-GPS,
9400,2024-04-08 19:03:59,39.1016822158393,-96.5962009007719,14.76378,,,1126.9925695283,14.435696,0,2.9581365776,3.6346457856,20,5,22.788,1126.9925695283,14.76378,0.223694,2.98960639488,0,0,-5.816044,57.7, 2.1, -0.9,0,0,1024,1024,1395,867,0,0,56,-24,0,0,0,65,,,,,,,31.92,98.6,1126.9925695283,14.76378,6,P-GPS,
9500,2024-04-08 19:03:59,39.101682237075,-96.5962009575074,15.748032,,,1127.9768215283,15.091864,0,2.97559392724,3.6524935552,20,5,22.788,1127.9768215283,15.748032,0.223694,2.98960639488,0,0,-5.59235,54.9, 2.4, -0.5,0,0,1024,1024,1372,900,0,0,53,-19,0,0,0,65,,,,,,,31.92,98.6,1127.9768215283,15.748032,6,P-GPS,
9600,2024-04-08 19:03:59,39.1016820574779,-96.5962013389129,16.4042,,,1128.6329895283,16.076116,0,3.065862959,3.7788058952,20,5,22.788,1128.6329895283,16.4042,0.223694,3.065862959,0,0,-5.368656,52.5, 2.6, -0.2,0,0,1071,1024,1373,895,7,0,53,-20,0,0,0,65,,,,,,,31.92,98.6,1128.6329895283,16.4042,6,P-GPS,
9700,2024-04-08 19:03:59,39.1016820254061,-96.5962014325937,17.060368,,,1129.2891575283,16.732284,0,3.08933080752,3.8078085208,20,5,22.788,1129.2891575283,17.060368,0.223694,3.08933080752,0,0,-5.144962,50.8, 2.5, -0.4,0,0,1117,1024,1326,974,14,0,46,-8,0,0,0,65,,,,,,,31.92,98.6,1129.2891575283,17.060368,6,P-GPS,
9800,2024-04-08 19:03:59,39.1016818405185,-96.5962013339118,18.04462,,,1130.2734095283,17.388452,0,3.04858277472,3.8808072108,20,5,22.788,1130.2734095283,18.04462,0.223694,3.08933080752,0,0,-4.921268,49.5, 2, -1.1,0,0,1178,1024,1264,1021,23,0,36,-0,0,0,0,65,,,,,,,31.92,98.6,1130.2734095283,18.04462,6,P-GPS,
9900,2024-04-08 19:03:59,39.1016817770103,-96.596201422449,18.700788,,,1130.9295775283,18.04462,0,3.06896007196,3.9149279468,20,5,22.788,1130.9295775283,18.700788,0.223694,3.08933080752,0,0,-4.697574,48.6, 1.1, -1.5,0,0,1221,1024,1255,987,30,0,35,-6,0,0,0,65,,,,,,,31.92,98.6,1130.9295775283,18.700788,6,P-GPS,
10000,2024-04-08 19:03:59,39.101681692347,-96.5962015424982,19.356956,,,1131.5857455283,18.372704,0,3.09706702824,3.9608597068,20,5,22.788,1131.5857455283,19.356956,0.223694,3.09706702824,0,0,-4.250186,48.2, 0, -1.5,0,0,1257,1024,1277,874,35,0,38,-23,0,0,0,65,,,,,,,31.92,98.6,1131.5857455283,19.356956,6,P-GPS,
10100,2024-04-08 19:03:59,39.101681648984,-96.5962016183202,20.013124,,,1132.2419135283,19.028872,0,3.11563002096,3.987532936,20,5,22.788,1132.2419135283,20.013124,0.223694,3.11563002096,0,0,-3.802798,47.9, -1.9, -1.4,0,0,1262,1024,1274,819,36,0,38,-31,0,0,0,65,,,,,,,31.92,98.6,1132.2419135283,20.013124,6,P-GPS,
10200,2024-04-08 19:04:00,39.1016818292031,-96.5962014740631,20.341208,,,1132.5699975283,19.68504,0,3.08679799904,4.06496076,20,5,22.788,1132.5699975283,20.341208,0.223694,3.11563002096,0,0,-3.35541,47.4, -4.2, -1.1,0,0,1274,1024,1251,811,38,0,34,-32,0,0,0,65,,,,,,,31.92,98.6,1132.5699975283,20.341208,6,P-GPS,
10300,2024-04-08 19:04:00,39.1016818843061,-96.5962014210058,20.997376,,,1133.2261655283,20.013124,0.223694,3.07583015092,4.0900263776,20,5,22.788,1133.2261655283,20.997376,0.223694,3.11563002096,0,0.223694,-3.131716,46.4, -6.1, -0.8,0,0,1279,1024,1271,732,39,0,37,-44,0,0,0,65,,,,,,,31.92,98.6,1133.2261655283,20.997376,6,P-GPS,
10400,2024-04-08 19:04:00,39.1016820050673,-96.5962013426164,21.32546,,,1133.5542495283,20.669292,0.4921268,3.06287083292,4.1393702112,20,5,22.464,1133.5542495283,21.32546,0.4921268,3.11563002096,0.223694,0.447388,-2.908022,44.8, -7.4, -0.8,0,0,1273,1024,1269,712,38,0,37,-47,0,0,0,65,,,,,,,27.07,98.6,1133.5542495283,21.32546,6,P-GPS,
10500,2024-04-08 19:04:00,39.1016822125779,-96.5962010799995,21.653544,,,1133.8823335283,20.997376,0.4921268,3.007135923,4.2455053852,20,5,22.464,1133.8823335283,21.653544,0.4921268,3.11563002096,0.447388,0.671082,-2.684328,42.7, -7.9, -1.3,0,0,1273,1024,1269,712,38,0,37,-47,0,0,0,65,,,,,,,27.07,98.6,1133.8823335283,21.653544,6,P-GPS,
10600,2024-04-08 19:04:00,39.1016826577464,-96.5962007604162,22.309712,,,1134.5385015283,21.32546,1.11847,2.96297909744,4.431430588,20,5,22.464,1134.5385015283,22.309712,1.11847,3.11563002096,0.671082,0.894776,-2.460634,40.1, -7.8, -2.3,0,0,1292,1024,1246,755,41,0,34,-41,0,0,0,65,,,,,,,27.07,98.6,1134.5385015283,22.309712,6,P-GPS,
10700,2024-04-08 19:04:00,39.1016830866867,-96.5962002973666,22.637796,,,1134.8665855283,21.653544,1.4316416,2.8898951056,4.6355644528,20,5,22.464,1134.8665855283,22.637796,1.4316416,3.11563002096,1.11847,0.894776,-2.23694,37.2, -7.3, -3.5,0,0,1291,1024,1251,780,40,0,34,-37,0,0,0,65,,,,,,,27.07,98.6,1134.8665855283,22.637796,6,P-GPS,
10800,2024-04-08 19:04:00,39.1016836810694,-96.5961996832554,22.96588,,,1135.1946695283,21.981628,1.7448132,2.81707358096,4.9135172176,20,5,22.464,1135.1946695283,22.96588,1.7448132,3.11563002096,1.342164,1.11847,-2.23694,34.4, -6.8, -4.3,0,0,1300,1024,1236,793,42,0,32,-35,0,0,0,65,,,,,,,27.07,98.6,1135.1946695283,22.96588,6,P-GPS,
10900,2024-04-08 19:04:00,39.1016843555504,-96.5961991180921,23.293964,,,1135.5227535283,22.637796,1.7448132,2.79759851472,5.2070539724,20,5,22.464,1135.5227535283,23.293964,1.7448132,3.11563002096,1.565858,1.11847,-2.013246,31.7, -6.7, -4.5,0,0,1299,1024,1232,807,42,0,32,-33,0,0,0,65,,,,,,,27.07,98.6,1135.5227535283,23.293964,6,P-GPS,
11000,2024-04-08 19:04:00,39.1016853632839,-96.5961986662222,23.622048,,,1135.8508375283,22.96588,2.3040482,2.91024943696,5.5963584468,20,5,22.464,1135.8508375283,23.622048,2.3040482,3.11563002096,2.013246,1.11847,-2.013246,29.3, -7, -4.4,0,0,1300,1024,1240,831,42,0,33,-29,0,0,0,65,,,,,,,27.07,98.6,1135.8508375283,23.622048,6,P-GPS,
11100,2024-04-08 19:04:00,39.1016863095742,-96.5961980714349,23.622048,,,1135.8508375283,23.293964,2.5053728,3.02441610728,5.9805120024,20,5,22.464,1135.8508375283,23.622048,2.5053728,3.11563002096,2.23694,1.11847,-2.013246,27.1, -7.6, -4,0,0,1303,1024,1251,859,42,0,34,-25,0,0,0,65,,,,,,,27.07,98.6,1135.8508375283,23.622048,6,P-GPS,
11200,2024-04-08 19:04:01,39.1016875521571,-96.596197375597,23.950132,,,1136.1789215283,23.950132,2.908022,3.25188330616,6.4748033568,20,5,22.464,1136.1789215283,23.950132,2.908022,3.25188330616,2.684328,1.11847,-2.013246,25.1, -8.2, -3.6,0,0,1307,1024,1235,890,43,0,32,-20,0,0,0,65,,,,,,,27.07,98.6,1136.1789215283,23.950132,6,P-GPS,
11300,2024-04-08 19:04:01,39.1016887871382,-96.5961967277975,24.278216,,,1136.5070055283,24.278216,3.4001488,3.5383203232,6.961286312,20,5,22.464,1136.5070055283,24.278216,3.4001488,3.5383203232,3.131716,1.342164,-2.013246,23.3, -8.5, -3.4,0,0,1299,1024,1215,947,42,0,29,-12,0,0,0,65,,,,,,,27.07,98.6,1136.5070055283,24.278216,6,P-GPS,
11400,2024-04-08 19:04:01,39.101690416634,-96.5961962076102,24.6063,,,1136.8350895283,24.934384,3.6238428,4.01164711,7.5737863316,20,5,22.698,1136.8350895283,24.6063,3.6238428,4.01164711,3.35541,1.342164,-2.013246,21.7, -8.7, -3.3,0,0,1297,1024,1211,924,41,0,28,-15,0,0,0,65,,,,,,,20.548,98.6,1136.8350895283,24.6063,6,P-GPS,
11500,2024-04-08 19:04:01,39.1016919567797,-96.5961955277903,24.934384,,,1137.1631735283,25.262468,4.026492,4.4737206156,8.1677496052,20,5,22.698,1137.1631735283,24.934384,4.026492,4.4737206156,3.802798,1.342164,-2.013246,20.5, -8.6, -2.9,0,0,1302,1024,1209,902,42,0,28,-18,0,0,0,65,,,,,,,20.548,98.6,1137.1631735283,24.934384,6,P-GPS,
11600,2024-04-08 19:04:01,39.1016936248659,-96.5961949227426,25.262468,,,1137.4912575283,25.918636,4.250186,5.014271814,8.8000002816,20,5,22.698,1137.4912575283,25.262468,4.250186,5.014271814,4.026492,1.342164,-1.789552,19.5, -8.1, -2.8,0,0,1287,1024,1215,918,40,0,29,-16,0,0,0,65,,,,,,,20.548,98.6,1137.4912575283,25.262468,6,P-GPS,
11700,2024-04-08 19:04:01,39.1016954181893,-96.5961942093709,25.590552,,,1137.8193415283,26.574804,4.6752046,5.613681282,9.4847772064,20,5,22.698,1137.8193415283,25.590552,4.6752046,5.613681282,4.47388,1.342164,-1.789552,18.6, -7.8, -2.8,0,0,1282,1024,1193,989,39,0,26,-5,0,0,0,65,,,,,,,20.548,98.6,1137.8193415283,25.590552,6,P-GPS,
11800,2024-04-08 19:04:01,39.1016975335705,-96.5961932869504,25.590552,,,1137.8193415283,27.230972,4.9436374,6.3403545336,10.299541012,20,5,22.698,1137.8193415283,25.590552,4.9436374,6.3403545336,4.697574,1.565858,-1.565858,17.6, -7.8, -2.8,0,0,1264,1024,1210,968,36,0,28,-8,0,0,0,65,,,,,,,20.548,98.6,1137.8193415283,25.590552,6,P-GPS,
11900,2024-04-08 19:04:01,39.1016995706606,-96.5961925343681,25.918636,,,1138.1474255283,27.559056,5.1673314,7.0609582312,11.0727365748,20,5,22.698,1138.1474255283,25.918636,5.1673314,7.0609582312,4.921268,1.565858,-1.565858,16.9, -7.8, -2.5,0,0,1282,1024,1177,942,39,0,23,-12,0,0,0,65,,,,,,,20.548,98.6,1138.1474255283,25.918636,6,P-GPS,
12000,2024-04-08 19:04:01,39.1017015589896,-96.5961917417553,26.24672,,,1138.4755095283,27.88714,5.368656,7.7734910624,11.8320869928,20,5,22.698,1138.4755095283,26.24672,5.368656,7.7734910624,5.144962,1.565858,-1.565858,16.3, -7.6, -2.1,0,0,1282,1024,1177,942,39,0,23,-12,0,0,0,65,,,,,,,20.548,98.6,1138.4755095283,26.24672,6,P-GPS,
12100,2024-04-08 19:04:02,39.1017037913392,-96.5961909542824,26.24672,,,1138.4755095283,28.215224,5.816044,8.5831367576,12.676509592,20,5,22.698,1138.4755095283,26.24672,5.816044,8.5831367576,5.59235,1.565858,-1.565858,15.7, -7.2, -2.5,0,0,1265,1024,1192,958,37,0,25,-10,0,0,0,65,,,,,,,20.548,98.6,1138.4755095283,26.24672,6,P-GPS,
12200,2024-04-08 19:04:02,39.1017061739275,-96.5961900601701,26.574804,,,1138.8035935283,28.543308,6.0173686,9.4543310112,13.5819230068,20,5,22.698,1138.8035935283,26.574804,6.0173686,9.4543310112,5.816044,1.565858,-1.342164,15.1, -6.8, -2.9,0,0,1250,1024,1208,949,34,0,28,-11,0,0,0,65,,,,,,,20.548,98.6,1138.8035935283,26.574804,6,P-GPS,
12300,2024-04-08 19:04:02,39.1017085863576,-96.5961892609079,26.902888,,,1139.1316775283,28.871392,6.2410626,10.3411420632,14.4907156868,20,5,22.698,1139.1316775283,26.902888,6.2410626,10.3411420632,6.039738,1.565858,-1.342164,14.5, -6.7, -3.2,0,0,1255,1024,1208,927,35,0,28,-15,0,0,0,65,,,,,,,20.548,98.6,1139.1316775283,26.902888,6,P-GPS,
12400,2024-04-08 19:04:02,39.1017111092024,-96.5961885480546,26.902888,,,1139.1316775283,29.199476,6.4647566,11.2702759512,15.4330385516,20,5,22.77,1139.1316775283,26.902888,6.4647566,11.2702759512,6.263432,1.565858,-1.342164,14, -6.5, -2.9,0,0,1266,1024,1196,907,37,0,26,-18,0,0,0,65,,,,,,,21.76,98.6,1139.1316775283,26.902888,6,P-GPS,
12500,2024-04-08 19:04:02,39.1017136878523,-96.5961877767291,27.230972,,,1139.4597615283,29.199476,6.4647566,12.2229006536,16.3988850392,20,5,22.77,1139.4597615283,27.230972,6.4647566,12.2229006536,6.263432,1.565858,-1.342164,13.4, -6.4, -3.1,0,0,1281,1024,1196,851,39,0,26,-26,0,0,0,65,,,,,,,21.76,98.6,1139.4597615283,27.230972,6,P-GPS,
12600,2024-04-08 19:04:02,39.1017163671725,-96.5961869939756,27.559056,,,1139.7878455283,29.199476,6.4647566,13.2143376932,17.401247276,20,5,22.77,1139.7878455283,27.559056,6.4647566,13.2143376932,6.487126,1.565858,-1.342164,12.6, -6.2, -3.6,0,0,1273,1024,1192,808,38,0,25,-33,0,0,0,65,,,,,,,21.76,98.6,1139.7878455283,27.559056,6,P-GPS,
12700,2024-04-08 19:04:02,39.1017190917285,-96.5961862543963,27.559056,,,1139.7878455283,29.199476,6.8897752,14.222605442,18.4170937652,20,5,22.77,1139.7878455283,27.559056,6.8897752,14.222605442,6.71082,1.565858,-1.342164,11.6, -6.2, -5.2,0,0,1286,1024,1156,815,40,0,20,-32,0,0,0,65,,,,,,,21.76,98.6,1139.7878455283,27.559056,6,P-GPS,
12800,2024-04-08 19:04:02,39.101721852472,-96.5961855016657,27.88714,,,1140.1159295283,29.199476,7.0687304,15.245407312,19.4466541656,20,5,22.77,1140.1159295283,27.88714,7.0687304,15.245407312,6.934514,1.342164,-1.342164,10.2, -6.7, -7.4,0,0,1282,1024,1165,799,39,0,21,-34,0,0,0,65,,,,,,,21.76,98.6,1140.1159295283,27.88714,6,P-GPS,
12900,2024-04-08 19:04:02,39.1017247226324,-96.5961849111962,27.88714,,,1140.1159295283,29.199476,7.2476856,16.3040359548,20.5070872704,20,5,22.77,1140.1159295283,27.88714,7.2476856,16.3040359548,7.158208,1.11847,-1.11847,8.4, -7.3, -8.6,0,0,1278,1024,1161,798,38,0,21,-34,0,0,0,65,,,,,,,21.76,98.6,1140.1159295283,27.88714,6,P-GPS,
13000,2024-04-08 19:04:02,39.1017280617709,-96.5961843588615,28.215224,,,1140.4440135283,29.199476,7.2476856,17.5319231332,21.7353681496,20,5,22.77,1140.4440135283,28.215224,7.2476856,17.5319231332,7.381902,0.894776,-1.11847,6.5, -7.7, -8.9,0,0,1267,1024,1143,859,37,0,18,-25,0,0,0,65,,,,,,,21.76,98.6,1140.4440135283,28.215224,6,P-GPS,
13100,2024-04-08 19:04:02,39.1017311371868,-96.5961840160328,28.215224,,,1140.4440135283,29.199476,7.6279654,18.6580386548,22.8616477132,20,5,22.77,1140.4440135283,28.215224,7.6279654,18.6580386548,7.605596,0.671082,-1.11847,4.5, -7.7, -9,0,0,1250,1024,1144,881,34,0,18,-22,0,0,0,65,,,,,,,21.76,98.6,1140.4440135283,28.215224,6,P-GPS,
13200,2024-04-08 19:04:03,39.1017340222017,-96.5961839312951,28.543308,,,1140.7720975283,29.199476,7.8516594,19.7077434128,23.9145020776,20,5,22.77,1140.7720975283,28.543308,7.8516594,19.7077434128,7.82929,0.447388,-0.894776,2.6, -7.4, -7.5,0,0,1275,1024,1136,827,38,0,17,-30,0,0,0,65,,,,,,,21.76,98.6,1140.7720975283,28.543308,6,P-GPS,
13300,2024-04-08 19:04:03,39.1017372225999,-96.596183847048,28.543308,,,1140.7720975283,29.199476,7.8516594,20.8723103792,25.0824155008,20,5,22.77,1140.7720975283,28.543308,7.8516594,20.8723103792,7.82929,0.223694,-0.894776,1.1, -6.7, -6.5,0,0,1276,1024,1138,900,38,0,17,-19,0,0,0,65,,,,,,,21.76,98.6,1140.7720975283,28.543308,6,P-GPS,
13400,2024-04-08 19:04:03,39.1017406363835,-96.5961838585731,28.871392,,,1141.1001815283,29.199476,8.052984,22.1123366656,26.32792079,20,5,22.644,1141.1001815283,28.871392,8.052984,22.1123366656,8.052984,0,-0.894776,359.6, -6.1, -7.5,0,0,1276,1024,1148,903,38,0,19,-18,0,0,0,65,,,,,,,23.05,98.6,1141.1001815283,28.871392,6,P-GPS,
13500,2024-04-08 19:04:03,39.1017439385743,-96.5961839622679,28.871392,,,1141.1001815283,29.199476,8.052984,23.3102369664,27.5331045556,20,5,22.644,1141.1001815283,28.871392,8.052984,23.3102369664,8.052984,0,-0.671082,357.9, -6.1, -7.3,0,0,1277,1024,1172,891,38,0,22,-20,0,0,0,65,,,,,,,23.05,98.6,1141.1001815283,28.871392,6,P-GPS,
13600,2024-04-08 19:04:03,39.1017472217601,-96.5961841888201,28.871392,,,1141.1001815283,29.199476,8.052984,24.4992789992,28.7326780848,20,5,22.644,1141.1001815283,28.871392,8.052984,24.4992789992,8.276678,-0.223694,-0.671082,356.7, -6.5, -6.3,0,0,1277,1024,1172,891,38,0,22,-20,0,0,0,65,,,,,,,23.05,98.6,1141.1001815283,28.871392,6,P-GPS,
13700,2024-04-08 19:04:03,39.1017505890528,-96.5961845185082,29.199476,,,1141.4282655283,29.199476,8.2990474,25.717848592,29.9647647384,20,5,22.644,1141.4282655283,29.199476,8.2990474,25.717848592,8.276678,-0.447388,-0.671082,355.6, -7, -5.8,0,0,1292,1024,1143,900,41,0,18,-19,0,0,0,65,,,,,,,23.05,98.6,1141.4282655283,29.199476,6,P-GPS,
13800,2024-04-08 19:04:03,39.1017537442152,-96.5961849486315,29.199476,,,1141.4282655283,29.199476,8.2990474,26.8586950852,31.1223435156,20,5,22.644,1141.4282655283,29.199476,8.2990474,26.8586950852,8.276678,-0.671082,-0.671082,354.6, -7.5, -5.2,0,0,1285,1024,1142,908,40,0,18,-18,0,0,0,65,,,,,,,23.05,98.6,1141.4282655283,29.199476,6,P-GPS,
13900,2024-04-08 19:04:03,39.1017571802162,-96.5961854340483,29.199476,,,1141.4282655283,29.199476,8.5227414,28.1023302956,32.3834984116,20,5,22.644,1141.4282655283,29.199476,8.5227414,28.1023302956,8.500372,-0.671082,-0.671082,353.8, -7.8, -4.6,0,0,1284,1024,1139,907,39,0,17,-18,0,0,0,65,,,,,,,23.05,98.6,1141.4282655283,29.199476,6,P-GPS,
14000,2024-04-08 19:04:03,39.1017606239614,-96.5961858838448,29.52756,,,1141.7563495283,29.199476,8.5451108,29.3507883408,33.646326536,20,5,22.644,1141.7563495283,29.52756,8.5451108,29.3507883408,8.500372,-0.894776,-0.671082,353, -7.9, -4.6,0,0,1283,1024,1150,906,39,0,19,-18,0,0,0,65,,,,,,,23.05,98.6,1141.7563495283,29.52756,6,P-GPS,
14100,2024-04-08 19:04:03,39.1017641515736,-96.5961864974407,29.52756,,,1141.7563495283,29.199476,8.7688048,30.6291348384,34.945211092,20,5,22.644,1141.7563495283,29.52756,8.7688048,30.6291348384,8.724066,-0.894776,-0.671082,352.2, -8.1, -4.6,0,0,1277,1024,1160,869,38,0,21,-23,0,0,0,65,,,,,,,23.05,98.6,1141.7563495283,29.52756,6,P-GPS,
14200,2024-04-08 19:04:04,39.1017678788902,-96.5961872577326,29.52756,,,1141.7563495283,29.199476,8.7911742,31.980644068,36.321851556,20,5,22.644,1141.7563495283,29.52756,8.7911742,31.980644068,8.724066,-1.11847,-0.671082,351.4, -8.1, -4.9,0,0,1281,1024,1122,861,39,0,15,-25,0,0,0,65,,,,,,,23.05,98.6,1141.7563495283,29.52756,6,P-GPS,
14300,2024-04-08 19:04:04,39.1017715206266,-96.596188026257,29.855644,,,1142.0844335283,29.199476,9.0372376,33.302822588,37.668308292,20,5,22.644,1142.0844335283,29.855644,9.0372376,33.302822588,8.94776,-1.342164,-0.671082,350.5, -8.1, -6,0,0,1285,1024,1097,880,40,0,11,-22,0,0,0,65,,,,,,,23.05,98.6,1142.0844335283,29.855644,6,P-GPS,
14400,2024-04-08 19:04:04,39.1017752599536,-96.5961890425346,29.855644,,,1142.0844335283,29.199476,9.0372376,34.661746516,39.062665292,20,5,22.704,1142.0844335283,29.855644,9.0372376,34.661746516,8.94776,-1.565858,-0.671082,349.4, -8, -6.7,0,0,1263,1024,1134,830,36,0,17,-29,0,0,0,65,,,,,,,22.896,98.6,1142.0844335283,29.855644,6,P-GPS,
14500,2024-04-08 19:04:04,39.1017789782839,-96.5961900360648,29.855644,,,1142.0844335283,29.199476,9.3504092,36.0154211,40.448164024,20,5,22.704,1142.0844335283,29.855644,9.3504092,36.0154211,9.171454,-1.789552,-0.447388,348.5, -8, -6,0,0,1281,1024,1091,814,39,0,10,-32,0,0,0,65,,,,,,,22.896,98.6,1142.0844335283,29.855644,6,P-GPS,
14600,2024-04-08 19:04:04,39.1017827654725,-96.5961911019251,29.855644,,,1142.0844335283,29.199476,9.395148,37.39665474,41.862534148,20,5,22.704,1142.0844335283,29.855644,9.395148,37.39665474,9.171454,-2.013246,-0.447388,347.5, -8.1, -6.7,0,0,1273,1024,1090,806,38,0,10,-33,0,0,0,65,,,,,,,22.896,98.6,1142.0844335283,29.855644,6,P-GPS,
14700,2024-04-08 19:04:04,39.1017865600797,-96.596192273099,30.183728,,,1142.4125175283,29.199476,9.618842,38.783465808,43.286090624,20,5,22.704,1142.4125175283,30.183728,9.618842,38.783465808,9.395148,-2.013246,-0.447388,346.1, -7.9, -8.2,0,0,1273,1024,1090,806,38,0,10,-33,0,0,0,65,,,,,,,22.896,98.6,1142.4125175283,30.183728,6,P-GPS,
14800,2024-04-08 19:04:04,39.1017905215985,-96.5961936627657,30.183728,,,1142.4125175283,29.199476,9.7083196,40.234909424,44.784122168,20,5,22.704,1142.4125175283,30.183728,9.7083196,40.234909424,9.395148,-2.460634,-0.223694,344.5, -7.9, -9.7,0,0,1258,1024,1076,737,35,0,8,-43,0,0,0,65,,,,,,,22.896,98.6,1142.4125175283,30.183728,6,P-GPS,
14900,2024-04-08 19:04:04,39.1017943551323,-96.5961951285023,30.183728,,,1142.4125175283,29.199476,9.7754278,41.643374036,46.242783632,20,5,22.704,1142.4125175283,30.183728,9.7754278,41.643374036,9.395148,-2.684328,-0.223694,342.7, -7.8, -11.3,0,0,1270,1024,1075,686,37,0,8,-51,0,0,0,65,,,,,,,22.896,98.6,1142.4125175283,30.183728,6,P-GPS,
15000,2024-04-08 19:04:04,39.1017982483667,-96.5961966768674,30.183728,,,1142.4125175283,29.199476,9.9096442,43.078085368,47.72966032,20,5,22.704,1142.4125175283,30.183728,9.9096442,43.078085368,9.395148,-3.131716,-0.223694,340.8, -7.7, -12.9,0,0,1278,1024,1055,690,38,0,5,-51,0,0,0,65,,,,,,,22.896,98.6,1142.4125175283,30.183728,6,P-GPS,
15100,2024-04-08 19:04:05,39.1018020664893,-96.5961985202215,30.183728,,,1142.4125175283,29.199476,9.9767524,44.492783576,49.217193176,20,5,22.704,1142.4125175283,30.183728,9.9767524,44.492783576,9.395148,-3.35541,0,338.5, -7.4, -15.7,0,0,1267,1024,1033,706,37,0,1,-48,0,0,0,65,,,,,,,22.896,98.6,1142.4125175283,30.183728,6,P-GPS,
15200,2024-04-08 19:04:05,39.1018055886103,-96.5962008099588,30.183728,,,1142.4125175283,29.199476,9.9767524,45.81200934,50.656497684,20,5,22.704,1142.4125175283,30.183728,9.9767524,45.81200934,9.171454,-4.026492,0,335.6, -6.7, -18.1,0,0,1267,1024,1033,706,37,0,1,-48,0,0,0,65,,,,,,,22.896,98.6,1142.4125175283,30.183728,6,P-GPS,
15300,2024-04-08 19:04:05,39.1018092495187,-96.5962032304433,30.183728,,,1142.4125175283,29.199476,9.9991218,47.19160256,52.157810068,20,5,22.704,1142.4125175283,30.183728,9.9991218,47.19160256,8.94776,-4.47388,0,332.3, -5.9, -18.2,0,0,1245,1024,1042,697,33,0,3,-50,0,0,0,65,,,,,,,22.896,98.6,1142.4125175283,30.183728,6,P-GPS,
15400,2024-04-08 19:04:05,39.1018131236068,-96.5962061341639,30.183728,,,1142.4125175283,29.199476,9.9320136,48.66798056,53.79265264,20,5,22.656,1142.4125175283,30.183728,9.9991218,48.66798056,8.500372,-5.144962,0,329.1, -5.3, -17.7,0,0,1247,1024,1050,693,34,0,4,-50,0,0,0,65,,,,,,,23.436,98.6,1142.4125175283,30.183728,6,P-GPS,
15500,2024-04-08 19:04:05,39.101816561938,-96.5962091330088,30.183728,,,1142.4125175283,29.199476,9.9991218,49.998689264,55.307744552,20,5,22.656,1142.4125175283,30.183728,9.9991218,49.998689264,8.276678,-5.59235,0,326, -4.9, -16.8,0,0,1253,1024,1033,752,35,0,1,-41,0,0,0,65,,,,,,,23.436,98.6,1142.4125175283,30.183728,6,P-GPS,
15600,2024-04-08 19:04:05,39.1018194092256,-96.5962123542055,30.183728,,,1142.4125175283,29.199476,9.9991218,51.132875652,56.689962444,20,5,22.656,1142.4125175283,30.183728,9.9991218,51.132875652,8.052984,-6.039738,0,322.8, -4.8, -16.4,0,0,1235,1024,1042,805,32,0,3,-33,0,0,0,65,,,,,,,23.436,98.6,1142.4125175283,30.183728,6,P-GPS,
15700,2024-04-08 19:04:05,39.1018225047816,-96.5962157980852,30.183728,,,1142.4125175283,29.199476,9.9991218,52.377626348,58.182088476,20,5,22.656,1142.4125175283,30.183728,9.9991218,52.377626348,7.605596,-6.487126,0,319.8, -5.2, -15.3,0,0,1244,1024,1029,838,33,0,1,-28,0,0,0,65,,,,,,,23.436,98.6,1142.4125175283,30.183728,6,P-GPS,
15800,2024-04-08 19:04:05,39.1018254217412,-96.5962192889887,30.183728,,,1142.4125175283,29.199476,9.8201666,53.572180192,59.634516344,20,5,22.656,1142.4125175283,30.183728,9.9991218,53.572180192,7.158208,-6.71082,0,317.3, -6, -11.9,0,0,1240,1024,1038,861,33,0,2,-25,0,0,0,65,,,,,,,23.436,98.6,1142.4125175283,30.183728,6,P-GPS,
15900,2024-04-08 19:04:05,39.1018282263586,-96.5962230714096,30.183728,,,1142.4125175283,29.199476,9.6412114,54.752626424,61.115815604,20,5,22.656,1142.4125175283,30.183728,9.9991218,54.752626424,6.71082,-6.934514,0,315.4, -6.5, -8.3,0,0,1236,1024,1061,872,32,0,6,-23,0,0,0,65,,,,,,,23.436,98.6,1142.4125175283,30.183728,6,P-GPS,
16000,2024-04-08 19:04:05,39.1018309929745,-96.5962269835611,30.183728,,,1142.4125175283,29.199476,9.6412114,55.940618588,62.614175232,20,5,22.656,1142.4125175283,30.183728,9.9991218,55.940618588,6.487126,-7.158208,0,314, -6.8, -5.7,0,0,1236,1024,1063,862,32,0,6,-25,0,0,0,65,,,,,,,23.436,98.6,1142.4125175283,30.183728,6,P-GPS,
16100,2024-04-08 19:04:05,39.1018336885905,-96.5962309024491,30.183728,,,1142.4125175283,29.199476,9.6635808,57.118112064,64.097114912,20,5,22.656,1142.4125175283,30.183728,9.9991218,57.118112064,6.487126,-7.158208,0,312.9, -6.9, -4.5,0,0,1225,1024,1049,934,30,0,4,-14,0,0,0,65,,,,,,,23.436,98.6,1142.4125175283,30.183728,6,P-GPS,
16200,2024-04-08 19:04:06,39.1018363369018,-96.5962349608264,30.183728,,,1142.4125175283,29.199476,9.6859502,58.301182968,65.598427296,20,5,22.656,1142.4125175283,30.183728,9.9991218,58.301182968,6.263432,-7.381902,0,311.8, -7, -4.7,0,0,1216,1024,1054,1024,29,0,5,0,0,0,0,65,,,,,,,23.436,98.6,1142.4125175283,30.183728,6,P-GPS,
16300,2024-04-08 19:04:06,39.101838950741,-96.5962389639505,30.183728,,,1142.4125175283,29.199476,9.5293644,59.482613452,67.079726556,20,5,22.656,1142.4125175283,30.183728,9.9991218,59.482613452,6.039738,-7.381902,0,310.9, -7.3, -3.8,0,0,1211,1024,1030,1024,28,0,1,0,0,0,0,65,,,,,,,23.436,98.6,1142.4125175283,30.183728,6,P-GPS,
16400,2024-04-08 19:04:06,39.1018415145514,-96.5962428627558,30.183728,,,1142.4125175283,29.199476,9.5293644,60.652560996,68.526576996,20,5,22.626,1142.4125175283,30.183728,9.9991218,60.652560996,6.039738,-7.381902,0,310.4, -7.5, -1.8,0,0,1203,1024,1024,1024,27,0,0,0,0,0,0,65,,,,,,,22.936,98.6,1142.4125175283,30.183728,6,P-GPS,
16500,2024-04-08 19:04:06,39.1018441070085,-96.5962469022342,30.183728,,,1142.4125175283,29.199476,9.5293644,61.854332688,70.010500928,20,5,22.626,1142.4125175283,30.183728,9.9991218,61.854332688,6.039738,-7.381902,0,310.2, -7.2, -0.3,0,0,1191,1024,1025,1024,25,0,0,0,0,0,0,65,,,,,,,22.936,98.6,1142.4125175283,30.183728,6,P-GPS,
16600,2024-04-08 19:04:06,39.1018467664905,-96.5962509083002,30.183728,,,1142.4125175283,29.199476,9.5293644,63.089240864,71.503283128,20,5,22.626,1142.4125175283,30.183728,9.9991218,63.089240864,6.039738,-7.381902,0,310.1, -6.6, 0.2,0,0,1177,1024,1024,1024,23,0,0,0,0,0,0,65,,,,,,,22.936,98.6,1142.4125175283,30.183728,6,P-GPS,
16700,2024-04-08 19:04:06,39.1018494022432,-96.5962548883666,30.183728,,,1142.4125175283,29.199476,9.6859502,64.324805208,72.984582388,20,5,22.626,1142.4125175283,30.183728,9.9991218,64.324805208,6.263432,-7.381902,0,310, -6, 0.1,0,0,1170,1024,1024,1024,22,0,0,0,0,0,0,65,,,,,,,22.936,98.6,1142.4125175283,30.183728,6,P-GPS,
16800,2024-04-08 19:04:06,39.1018520684415,-96.5962591050545,30.183728,,,1142.4125175283,29.199476,9.6859502,65.600723884,74.524608684,20,5,22.626,1142.4125175283,30.183728,9.9991218,65.600723884,6.263432,-7.158208,0,309.9, -5.3, 0,0,0,1173,1024,1024,1024,23,0,0,0,0,0,0,65,,,,,,,22.936,98.6,1142.4125175283,30.183728,6,P-GPS,
16900,2024-04-08 19:04:06,39.1018547048109,-96.596263029142,30.183728,,,1142.4125175283,29.199476,9.506995,66.85203626,75.994425004,20,5,22.626,1142.4125175283,30.183728,9.9991218,66.85203626,6.263432,-7.158208,0,309.9, -5, -0.3,0,0,1135,1024,1024,1024,17,0,0,0,0,0,0,65,,,,,,,22.936,98.6,1142.4125175283,30.183728,6,P-GPS,
17000,2024-04-08 19:04:06,39.1018574129684,-96.5962668098435,30.183728,,,1142.4125175283,29.199476,9.506995,68.124346012,77.451117964,20,5,22.626,1142.4125175283,30.183728,9.9991218,68.124346012,6.263432,-7.158208,0,309.8, -4.9, -0.5,0,0,1135,1024,1024,1024,17,0,0,0,0,0,0,65,,,,,,,22.936,98.6,1142.4125175283,30.183728,6,P-GPS,
17100,2024-04-08 19:04:06,39.101860032393,-96.5962706396245,30.183728,,,1142.4125175283,29.199476,9.1938234,69.377298808,78.896327984,20,5,22.626,1142.4125175283,30.183728,9.9991218,69.377298808,6.039738,-6.934514,0,309.7, -4.7, -0.6,0,0,1111,1024,1024,1024,13,0,0,0,0,0,0,65,,,,,,,22.936,98.6,1142.4125175283,30.183728,6,P-GPS,
17200,2024-04-08 19:04:07,39.1018626399102,-96.5962745342488,30.183728,,,1142.4125175283,29.199476,9.1938234,70.640094124,80.35269286,20,5,22.626,1142.4125175283,30.183728,9.9991218,70.640094124,6.039738,-6.934514,0,309.6, -4.4, -0.7,0,0,1102,1024,1024,1024,12,0,0,0,0,0,0,65,,,,,,,22.936,98.6,1142.4125175283,30.183728,6,P-GPS,
17300,2024-04-08 19:04:07,39.1018652274157,-96.59627827638,30.183728,,,1142.4125175283,29.199476,9.0372376,71.888453744,81.771984244,20,5,22.626,1142.4125175283,30.183728,9.9991218,71.888453744,6.039738,-6.71082,0,309.6, -3.7, -0.8,0,0,1110,1024,1024,1024,13,0,0,0,0,0,0,65,,,,,,,22.936,98.6,1142.4125175283,30.183728,6,P-GPS,
17400,2024-04-08 19:04:07,39.1018678169088,-96.5962821491801,30.183728,,,1142.4125175283,29.199476,9.0372376,73.156498404,83.219162768,20,5,22.566,1142.4125175283,30.183728,9.9991218,73.156498404,6.039738,-6.71082,0,309.6, -2.8, -0.9,0,0,1110,1024,1024,1024,13,0,0,0,0,0,0,65,,,,,,,23.192,98.6,1142.4125175283,30.183728,6,P-GPS,
17500,2024-04-08 19:04:07,39.1018703467954,-96.5962857864571,30.183728,,,1142.4125175283,29.199476,8.8582824,74.386813404,84.602364912,20,5,22.566,1142.4125175283,30.183728,9.9991218,74.386813404,6.039738,-6.487126,0,309.5, -2.1, -1.1,0,0,1120,1024,1024,1024,15,0,0,0,0,0,0,65,,,,,,,23.192,98.6,1142.4125175283,30.183728,6,P-GPS,
17600,2024-04-08 19:04:07,39.1018727460929,-96.5962890280345,30.183728,,,1142.4125175283,29.199476,8.7016966,75.536747824,85.870409572,20,5,22.566,1142.4125175283,30.183728,9.9991218,75.536747824,5.816044,-6.487126,0,309.5, -1.7, -1.2,0,0,1123,1024,1024,1024,15,0,0,0,0,0,0,65,,,,,,,23.192,98.6,1142.4125175283,30.183728,6,P-GPS,
17700,2024-04-08 19:04:07,39.1018751703877,-96.5962924950786,30.183728,,,1142.4125175283,29.199476,8.5451108,76.723099568,87.191931924,20,5,22.566,1142.4125175283,30.183728,9.9991218,76.723099568,5.816044,-6.263432,0,309.5, -1.8, -1.2,0,0,1122,1024,1024,1024,15,0,0,0,0,0,0,65,,,,,,,23.192,98.6,1142.4125175283,30.183728,6,P-GPS,
17800,2024-04-08 19:04:07,39.1018778608466,-96.5962962403007,30.183728,,,1142.4125175283,29.199476,8.2319392,78.033467064,88.63681386,20,5,22.566,1142.4125175283,30.183728,9.9991218,78.033467064,5.59235,-6.039738,0,309.5, -2.2, -1,0,0,1117,1024,1024,1024,14,0,0,0,0,0,0,65,,,,,,,23.192,98.6,1142.4125175283,30.183728,6,P-GPS,
17900,2024-04-08 19:04:07,39.1018802219371,-96.5962996119455,30.183728,,,1142.4125175283,29.199476,8.2319392,79.196524844,89.922575056,20,5,22.566,1142.4125175283,30.183728,9.9991218,79.196524844,5.59235,-6.039738,0,309.5, -2.5, -0.8,0,0,1140,1024,1024,1024,18,0,0,0,0,0,0,65,,,,,,,23.192,98.6,1142.4125175283,30.183728,6,P-GPS,
18000,2024-04-08 19:04:07,39.1018828606366,-96.5963031208496,30.183728,,,1142.4125175283,29.199476,8.0753534,80.471787352,91.306105284,20,5,22.566,1142.4125175283,30.183728,9.9991218,80.471787352,5.59235,-5.816044,0,309.6, -2.5, -0.8,0,0,1100,1024,1024,1024,12,0,0,0,0,0,0,65,,,,,,,23.192,98.6,1142.4125175283,30.183728,6,P-GPS,
18100,2024-04-08 19:04:08,39.1018851837599,-96.5963063976361,30.183728,,,1142.4125175283,29.199476,7.9187676,81.618769016,92.562667004,20,5,22.566,1142.4125175283,30.183728,9.9991218,81.618769016,5.368656,-5.816044,0,309.7, -2.5, -0.9,0,0,1118,1024,1024,1024,14,0,0,0,0,0,0,65,,,,,,,23.192,98.6,1142.4125175283,30.183728,6,P-GPS,
18200,2024-04-08 19:04:08,39.1018873311824,-96.596309330474,30.183728,,,1142.4125175283,29.199476,7.7621818,82.67060632,93.704399324,20,5,22.566,1142.4125175283,30.183728,9.9991218,82.67060632,5.368656,-5.59235,0,309.7, -2.4, -1,0,0,1120,1024,1024,1024,15,0,0,0,0,0,0,65,,,,,,,23.192,98.6,1142.4125175283,30.183728,6,P-GPS,
18300,2024-04-08 19:04:08,39.1018895776176,-96.596312467832,30.183728,,,1142.4125175283,29.199476,7.605596,83.781826828,94.91306078,20,5,22.566,1142.4125175283,30.183728,9.9991218,83.781826828,5.144962,-5.59235,0,309.7, -2.4, -1.3,0,0,1109,1024,1024,1024,13,0,0,0,0,0,0,65,,,,,,,23.192,98.6,1142.4125175283,30.183728,6,P-GPS,
18400,2024-04-08 19:04:08,39.1018918137043,-96.5963153516677,30.183728,,,1142.4125175283,29.199476,7.4266408,84.86220744,96.067260292,20,5,22.572,1142.4125175283,30.183728,9.9991218,84.86220744,5.144962,-5.368656,0,309.6, -2.5, -1.4,0,0,1129,1024,1024,1024,16,0,0,0,0,0,0,65,,,,,,,22.018,98.6,1142.4125175283,30.183728,6,P-GPS,
18500,2024-04-08 19:04:08,39.1018939921893,-96.5963183664483,30.183728,,,1142.4125175283,29.199476,7.4266408,85.940947632,97.233598912,20,5,22.572,1142.4125175283,30.183728,9.9991218,85.940947632,5.144962,-5.368656,0,309.6, -2.6, -1.5,0,0,1166,1024,1024,1024,22,0,0,0,0,0,0,65,,,,,,,22.018,98.6,1142.4125175283,30.183728,6,P-GPS,
18600,2024-04-08 19:04:08,39.1018961868308,-96.5963213784913,30.183728,,,1142.4125175283,29.199476,7.2924244,87.027233756,98.403546456,20,5,22.572,1142.4125175283,30.183728,9.9991218,87.027233756,4.921268,-5.368656,0,309.6, -2.5, -1.5,0,0,1158,1024,1024,1024,20,0,0,0,0,0,0,65,,,,,,,22.018,98.6,1142.4125175283,30.183728,6,P-GPS,
18700,2024-04-08 19:04:08,39.1018983016489,-96.5963243089448,30.183728,,,1142.4125175283,29.199476,7.2924244,88.079399144,99.536420508,20,5,22.572,1142.4125175283,30.183728,9.9991218,88.079399144,4.921268,-5.144962,0,309.7, -2.6, -1.5,0,0,1145,1024,1024,1024,18,0,0,0,0,0,0,65,,,,,,,22.018,98.6,1142.4125175283,30.183728,6,P-GPS,
18800,2024-04-08 19:04:08,39.1019004557361,-96.5963271156618,30.183728,,,1142.4125175283,29.199476,7.1134692,89.130908364,100.654202696,20,5,22.572,1142.4125175283,30.183728,9.9991218,89.130908364,4.921268,-5.144962,0,309.7, -2.8, -1.4,0,0,1167,1024,1024,1024,22,0,0,0,0,0,0,65,,,,,,,22.018,98.6,1142.4125175283,30.183728,6,P-GPS,
18900,2024-04-08 19:04:08,39.1019025164304,-96.5963299666122,30.183728,,,1142.4125175283,29.199476,6.9568834,90.15912362,101.757221104,20,5,22.572,1142.4125175283,30.183728,9.9991218,90.15912362,4.697574,-5.144962,0,309.7, -3.1, -1.2,0,0,1167,1024,1024,1024,22,0,0,0,0,0,0,65,,,,,,,22.018,98.6,1142.4125175283,30.183728,6,P-GPS,
