time(millisecond),datetime(utc),latitude,longitude,height_above_takeoff(feet),height_above_ground_at_drone_location(feet),ground_elevation_at_drone_location(feet),altitude_above_seaLevel(feet),height_sonar(feet),speed(mph),distance(feet),mileage(feet),satellites,gpslevel,voltage(v),max_altitude(feet),max_ascent(feet),max_speed(mph),max_distance(feet), xSpeed(mph), ySpeed(mph), zSpeed(mph), compass_heading(degrees), pitch(degrees), roll(degrees),isPhoto,isVideo,rc_elevator,rc_aileron,rc_throttle,rc_rudder,rc_elevator(percent),rc_aileron(percent),rc_throttle(percent),rc_rudder(percent),gimbal_heading(degrees),gimbal_pitch(degrees),gimbal_roll(degrees),battery_percent,voltageCell1,voltageCell2,voltageCell3,voltageCell4,voltageCell5,voltageCell6,current(A),battery_temperature(f),altitude(feet),ascent(feet),flycStateRaw,flycState,message
0,2023-10-11 00:53:35,38.4982121482495,-112.064426104074,0,Available with any HD 360 subscription,Available with any HD 360 subscription,9821.3667519478,0.656168,0,0,0,18,5,0,9821.3667519478,0,0,0,0,0,0,157.5, -4.8, 1.3,0,0,364,364,364,1672,-100,-100,-100,98,0,0,0,99,3.884,3.897,3.914,3.922,3.928,3.92,0,32,9821.3667519478,0,41,Motors_Started,
100,2023-10-11 00:53:35,38.4982120149581,-112.064425949651,0,,,9821.3667519478,0.656168,0,0.065645343308,0.065645343308,18,5,0,9821.3667519478,0,0,0.065645343308,0,0,0,157.5, -4.8, 1.3,0,0,364,370,364,1672,-100,-99,-100,98,0,0,0,99,3.884,3.897,3.914,3.922,3.928,3.92,0,32,9821.3667519478,0,41,Motors_Started,
200,2023-10-11 00:53:35,38.4982119937242,-112.064425936526,0,,,9821.3667519478,0.656168,0,0.073941603416,0.074251314712,19,5,0,9821.3667519478,0,0,0.073941603416,0,0,0,157.5, -4.8, 1.3,0,0,364,372,364,1672,-100,-99,-100,98,0,0,0,99,3.884,3.897,3.914,3.922,3.928,3.92,0,32,9821.3667519478,0,41,Motors_Started,"Setting new Return-To-Home altitude to 152m (499 ft). Data Recorder File Index is 26. Setting new Maximum Flight Altitude to 244m (801 ft)"
300,2023-10-11 00:53:35,38.4982120339349,-112.06442596262,0,,,9821.3667519478,0.656168,0,0.058060041228,0.090705711564,19,5,0,9821.3667519478,0,0,0.073941603416,0,0,0,157.5, -4.8, 1.3,0,0,364,369,364,1672,-100,-99,-100,98,0,0,0,99,3.884,3.897,3.914,3.922,3.928,3.92,0,32,9821.3667519478,0,41,Motors_Started,
400,2023-10-11 00:53:35,38.4982120164862,-112.064425952892,0,,,9821.3667519478,0.656168,0,0.06461122254,0.097651249844,19,5,0,9821.3667519478,0,0,0.073941603416,0,0,0,157.5, -4.8, 1.3,0,0,364,369,364,1672,-100,-99,-100,98,0,0,0,99,3.884,3.897,3.914,3.922,3.928,3.92,0,32,9821.3667519478,0,41,Motors_Started,
500,2023-10-11 00:53:35,38.4982120486843,-112.064425974238,0,,,9821.3667519478,0.656168,0,0.051904201136,0.11088583032,19,5,0,9821.3667519478,0,0,0.073941603416,0,0,0,157.5, -4.8, 1.3,0,0,364,373,364,1673,-100,-99,-100,98,0,0,0,99,3.884,3.897,3.914,3.922,3.928,3.92,0,32,9821.3667519478,0,41,Motors_Started,
600,2023-10-11 00:53:35,38.4982120366204,-112.064425967086,0,,,9821.3667519478,0.656168,0,0.056469489996,0.115737864596,19,5,0,9821.3667519478,0,0,0.073941603416,0,0,0,157.6, -4.8, 1.3,0,0,364,374,364,1675,-100,-98,-100,99,0,0,0,99,3.884,3.897,3.914,3.922,3.928,3.92,0,32,9821.3667519478,0,41,Motors_Started,
700,2023-10-11 00:53:36,38.4982120643143,-112.064425983942,0,,,9821.3667519478,0.656168,0,0.045983597272,0.126929794088,19,5,0,9821.3667519478,0,0,0.073941603416,0,0,0,157.5, -4.8, 1.3,0,0,506,481,467,1621,-78,-82,-84,90,0,0,0,99,3.884,3.897,3.914,3.922,3.928,3.92,0,32,9821.3667519478,0,41,Motors_Started,
800,2023-10-11 00:53:36,38.4982120567315,-112.064425980006,0,,,9821.3667519478,0.656168,0,0.048682088172,0.129916014656,19,5,0,9821.3667519478,0,0,0.073941603416,0,0,0,157.5, -4.8, 1.3,0,0,1024,1024,1024,1024,0,0,0,0,0,0,0,99,3.884,3.897,3.914,3.922,3.928,3.92,0,32,9821.3667519478,0,41,Motors_Started,
900,2023-10-11 00:53:36,38.4982119214419,-112.06442583404,0,,,9821.3667519478,0.656168,0,0.113105974748,0.19451936318,19,5,0,9821.3667519478,0,0,0.113105974748,0,0,0,157.5, -4.8, 1.3,0,0,1024,1024,1024,1024,0,0,0,0,0,0,0,99,3.884,3.897,3.914,3.922,3.928,3.92,0,32,9821.3667519478,0,41,Motors_Started,
1000,2023-10-11 00:53:36,38.4982119017875,-112.064425817331,0,,,9821.3667519478,0.656168,0,0.121612864784,0.203132552432,19,5,0,9821.3667519478,0,0,0.121612864784,0,0,0,157.6, -4.8, 1.3,0,0,1024,1024,1024,1024,0,0,0,0,0,0,0,99,3.884,3.897,3.914,3.922,3.928,3.92,0,32,9821.3667519478,0,41,Motors_Started,
1100,2023-10-11 00:53:36,38.498211941744,-112.064426011107,0,,,9821.3667519478,0.656168,0,0.079883204656,0.260351714368,19,5,0,9821.3667519478,0,0,0.121612864784,0,0,0,157.6, -4.8, 1.3,0,0,1024,1024,1024,1024,0,0,0,0,0,0,0,99,3.884,3.897,3.914,3.922,3.928,3.92,0,32,9821.3667519478,0,41,Motors_Started,
1200,2023-10-11 00:53:36,38.4982119279135,-112.064426013126,0,,,9821.3667519478,0.656168,0,0.08447998958,0.265430454688,19,5,0,9821.3667519478,0,0,0.121612864784,0,0,0,157.6, -4.7, 1.3,0,0,1024,1024,1024,1024,0,0,0,0,0,0,0,99,3.884,3.897,3.914,3.922,3.928,3.92,0,32,9821.3667519478,0,41,Motors_Started,
1300,2023-10-11 00:53:36,38.4982119553788,-112.064426016,0,,,9821.3667519478,0.656168,0,0.07472769268,0.275484916952,19,5,0,9821.3667519478,0,0,0.121612864784,0,0,0,157.6, -4.8, 1.3,0,0,1024,1024,1024,1024,0,0,0,0,0,0,0,99,3.884,3.897,3.914,3.922,3.928,3.92,0,32,9821.3667519478,0,41,Motors_Started,
1400,2023-10-11 00:53:36,38.4982119460278,-112.064426020526,0,,,9821.3667519478,0.656168,0,0.077541341064,0.279132882948,19,5,0,9821.3667519478,0,0,0.121612864784,0,0,0,157.7, -4.8, 1.2,0,0,1024,1024,1024,1024,0,0,0,0,0,0,0,99,3.884,3.897,3.914,3.922,3.928,3.92,0,32,9821.3667519478,0,41,Motors_Started,
1500,2023-10-11 00:53:36,38.4982118103055,-112.064426021986,0,,,9821.3667519478,0.656168,0,0.12550689378,0.32865158532,19,5,0,9821.3667519478,0,0,0.12550689378,0,0,0,157.7, -4.8, 1.3,0,0,1024,1024,1024,1024,0,0,0,0,0,0,0,99,3.884,3.897,3.914,3.922,3.928,3.92,0,32,9821.3667519478,0,41,Motors_Started,
1600,2023-10-11 00:53:36,38.4982117896022,-112.064426024384,0,,,9821.3667519478,0.656168,0,0.132815949132,0.3362368874,19,5,0,9821.3667519478,0,0,0.132815949132,0,0,0,157.7, -4.8, 1.2,0,0,1024,1024,1024,1024,0,0,0,0,0,0,0,99,3.884,3.897,3.914,3.922,3.928,3.92,0,32,9821.3667519478,0,41,Motors_Started,
1700,2023-10-11 00:53:37,38.4982118402898,-112.064426021183,0,,,9821.3667519478,0.656168,0,0.114824806824,0.35475394836,19,5,0,9821.3667519478,0,0,0.132815949132,0,0,0,157.7, -4.7, 1.2,0,0,1024,1024,1024,1024,0,0,0,0,0,0,0,99,3.884,3.897,3.914,3.922,3.928,3.92,0,32,9821.3667519478,0,41,Motors_Started,
1800,2023-10-11 00:53:37,38.4982118260922,-112.064426024054,0,,,9821.3667519478,0.656168,0,0.11973917706,0.35999673068,19,5,0,9821.3667519478,0,0,0.132815949132,0,0,0,157.6, -4.8, 1.3,0,0,1024,1024,1024,1024,0,0,0,0,0,0,0,99,3.884,3.897,3.914,3.922,3.928,3.92,0,32,9821.3667519478,0,41,Motors_Started,
1900,2023-10-11 00:53:37,38.4982117003905,-112.064426017819,0,,,9821.3667519478,0.656168,0,0.165246724448,0.40589568228,19,5,0,9821.3667519478,0,0,0.165246724448,0,0,0,157.6, -4.8, 1.2,0,0,1024,1024,1024,1024,0,0,0,0,0,0,0,99,3.884,3.897,3.914,3.922,3.928,3.92,0,32,9821.3667519478,0,41,Motors_Started,
2000,2023-10-11 00:53:37,38.4982116784151,-112.064426020474,0,,,9821.3667519478,0.656168,0,0.173072840184,0.41394686364,19,5,0,9821.3667519478,0,0,0.173072840184,0,0,0,157.6, -4.7, 1.2,0,0,1024,1024,1024,1024,0,0,0,0,0,0,0,99,3.884,3.897,3.914,3.922,3.928,3.92,0,32,9821.3667519478,0,10,Assisted_Takeoff,
2100,2023-10-11 00:53:37,38.498211721087,-112.064425859319,0,,,9821.3667519478,0.656168,0,0.170802498904,0.46252626152,19,5,0,9821.3667519478,0,0,0.173072840184,0,0,0,157.6, -4.7, 1.2,0,0,1024,1024,1024,1024,0,0,0,0,0,0,0,99,3.884,3.897,3.914,3.922,3.928,3.92,0,32,9821.3667519478,0,10,Assisted_Takeoff,
2200,2023-10-11 00:53:37,38.4982117044198,-112.064425847242,0,,,9821.3667519478,0.656168,0,0.177763457132,0.46951773156,19,5,0,9821.3667519478,0,0,0.177763457132,0,0,0,157.6, -4.7, 1.2,0,0,1024,1024,1024,1024,0,0,0,0,0,0,0,99,3.884,3.897,3.914,3.922,3.928,3.92,0,32,9821.3667519478,0,10,Assisted_Takeoff,
2300,2023-10-11 00:53:37,38.4982117479822,-112.064425865784,0,,,9821.3667519478,0.656168,0,0.161110241376,0.4862697006,19,5,0,9821.3667519478,0,0,0.177763457132,0,0,0,157.6, -4.7, 1.2,0,0,1024,1024,1024,1024,0,0,0,0,0,0,0,99,3.884,3.897,3.914,3.922,3.928,3.92,0,32,9821.3667519478,0,10,Assisted_Takeoff,
2400,2023-10-11 00:53:37,38.4982117364286,-112.064425855892,0,,,9821.3667519478,0.656168,0,0.166125989568,0.49134516008,19,5,0,9821.3667519478,0,0,0.177763457132,0,0,0,157.6, -4.7, 1.2,0,0,1024,1024,1024,1024,0,0,0,0,0,0,0,99,3.884,3.897,3.914,3.922,3.928,3.92,0,32,9821.3667519478,0,10,Assisted_Takeoff,
2500,2023-10-11 00:53:37,38.4982116085539,-112.064425874671,0,,,9821.3667519478,0.656168,0,0.207517067008,0.53830710384,19,5,0,9821.3667519478,0,0,0.207517067008,0,0,0,157.6, -4.8, 1.2,0,0,1024,1024,1024,1024,0,0,0,0,0,0,0,99,3.884,3.897,3.914,3.922,3.928,3.92,0,32,9821.3667519478,0,10,Assisted_Takeoff,
2600,2023-10-11 00:53:37,38.4982115885385,-112.06442586696,0,,,9821.3667519478,0.656168,0,0.215141411084,0.54593505684,19,5,0,9821.3667519478,0,0,0.215141411084,0,0,0,157.6, -4.7, 1.2,0,0,1024,1024,1024,1024,0,0,0,0,0,0,0,99,3.884,3.897,3.914,3.922,3.928,3.92,0,32,9821.3667519478,0,10,Assisted_Takeoff,
2700,2023-10-11 00:53:38,38.4982116302505,-112.064425882045,0,,,9821.3667519478,0.656168,0,0.199341869896,0.56174870564,19,5,0,9821.3667519478,0,0,0.215141411084,0,0,0,157.6, -4.8, 1.2,0,0,1024,1024,1024,1024,0,0,0,0,0,0,0,99,3.884,3.897,3.914,3.922,3.928,3.92,0,32,9821.3667519478,0,10,Assisted_Takeoff,
2800,2023-10-11 00:53:38,38.4982116158869,-112.064425875934,0,,,9821.3667519478,0.656168,0,0.204865164036,0.5672736402,19,5,0,9821.3667519478,0,0,0.215141411084,0,0,0,157.6, -4.8, 1.2,0,0,1024,1024,1024,1024,0,0,0,0,0,0,0,99,3.884,3.897,3.914,3.922,3.928,3.92,0,32,9821.3667519478,0,10,Assisted_Takeoff,
2900,2023-10-11 00:53:38,38.4982116538627,-112.064425889401,0,,,9821.3667519478,0.656168,0,0.190507880112,0.58165356192,19,5,0,9821.3667519478,0,0,0.215141411084,0,0,0,157.6, -4.8, 1.2,0,0,1024,1024,1024,1024,0,0,0,0,0,0,0,99,3.884,3.897,3.914,3.922,3.928,3.92,0,32,9821.3667519478,0,10,Assisted_Takeoff,
3000,2023-10-11 00:53:38,38.4982116438939,-112.064425885398,0,,,9821.3667519478,0.656168,0,0.19431923194,0.585465898,19,5,0,9821.3667519478,0,0,0.215141411084,0,0,0,157.6, -4.8, 1.2,0,0,1024,1024,1024,1024,0,0,0,0,0,0,0,99,3.884,3.897,3.914,3.922,3.928,3.92,0,32,9821.3667519478,0,10,Assisted_Takeoff,
3100,2023-10-11 00:53:38,38.4982115123492,-112.064425896116,0,,,9821.3667519478,0.656168,0,0.239486228136,0.63355645072,19,5,0,9821.3667519478,0,0,0.239486228136,0,0,0,157.6, -4.8, 1.2,0,0,1024,1024,1024,1024,0,0,0,0,0,0,0,99,3.884,3.897,3.914,3.922,3.928,3.92,0,32,9821.3667519478,0,10,Assisted_Takeoff,
3200,2023-10-11 00:53:38,38.4982114939394,-112.064425894664,0,,,9821.3667519478,0.656168,0,0.246099417324,0.64028545356,19,5,0,9821.3667519478,0,0,0.246099417324,0,0,0,157.6, -4.7, 1.2,0,0,1024,1024,1024,1024,0,0,0,0,0,0,0,99,3.884,3.897,3.914,3.922,3.928,3.92,0,32,9821.3667519478,0,10,Assisted_Takeoff,
3300,2023-10-11 00:53:38,38.4982115363113,-112.064425901461,0,,,9821.3667519478,0.656168,0,0.230639443076,0.65586616272,19,5,0,9821.3667519478,0,0,0.246099417324,0,0,0,157.6, -4.7, 1.3,0,0,1024,1024,1024,1024,0,0,0,0,0,0,0,99,3.884,3.897,3.914,3.922,3.928,3.92,0,32,9821.3667519478,0,10,Assisted_Takeoff,
3400,2023-10-11 00:53:38,38.4982115236549,-112.064425901302,0,,,9821.3667519478,0.656168,0,0.235123367104,0.66048558544,19,5,0,9821.3667519478,0,0,0.246099417324,0,0,0,157.6, -4.7, 1.2,0,0,1024,1024,1024,1024,0,0,0,0,0,0,0,99,3.884,3.897,3.914,3.922,3.928,3.92,0,32,9821.3667519478,0,10,Assisted_Takeoff,
3500,2023-10-11 00:53:38,38.4982114018944,-112.064425906538,0,,,9821.3667519478,0.656168,0,0.278087607324,0.70493440576,19,5,0,9821.3667519478,0,0,0.278087607324,0,0,0,157.6, -4.7, 1.2,0,0,1024,1024,1024,1024,0,0,0,0,0,0,0,99,3.884,3.897,3.914,3.922,3.928,3.92,0,32,9821.3667519478,0,10,Assisted_Takeoff,
3600,2023-10-11 00:53:38,38.4982113787025,-112.064425906747,0,,,9821.3667519478,0.656168,0,0.28636647898,0.71339569212,19,5,0,9821.3667519478,0,0,0.28636647898,0,0,0,157.6, -4.7, 1.2,0,0,1024,1024,1024,1024,0,0,0,0,0,0,0,99,3.884,3.897,3.914,3.922,3.928,3.92,0,32,9821.3667519478,0,10,Assisted_Takeoff,
3700,2023-10-11 00:53:38,38.4982114205061,-112.06442591435,0,,,9821.3667519478,0.656168,0,0.270986885312,0.72880251676,19,5,0,9821.3667519478,0,0,0.28636647898,0,0,0,157.6, -4.8, 1.2,0,0,1024,1024,1024,1024,0,0,0,0,0,0,0,99,3.884,3.897,3.914,3.922,3.928,3.92,0,32,9821.3667519478,0,10,Assisted_Takeoff,
3800,2023-10-11 00:53:39,38.4982114035007,-112.064425916126,0,,,9821.3667519478,0.656168,0,0.27697015322,0.73502627024,19,5,0,9821.3667519478,0,0,0.28636647898,0,0,0,157.6, -4.7, 1.2,0,0,1024,1024,1024,1024,0,0,0,0,0,0,0,99,3.884,3.897,3.914,3.922,3.928,3.92,0,32,9821.3667519478,0,10,Assisted_Takeoff,
3900,2023-10-11 00:53:39,38.4982114458838,-112.064425912336,0,,,9821.3667519478,0.656168,0,0.262041018884,0.75052823924,19,5,0,9821.3667519478,0,0,0.28636647898,0,0,0,157.6, -4.7, 1.2,0,0,1024,1024,1024,1024,0,0,0,0,0,0,0,99,3.884,3.897,3.914,3.922,3.928,3.92,0,32,9821.3667519478,0,10,Assisted_Takeoff,
4000,2023-10-11 00:53:39,38.4982114360464,-112.064425913449,0,,,9821.3667519478,0.656168,0,0.265486557052,0.75413060156,19,5,0,9821.3667519478,0,0,0.28636647898,0,0,0,157.6, -4.7, 1.2,0,0,1024,1024,1024,1024,0,0,0,0,0,0,0,99,3.884,3.897,3.914,3.922,3.928,3.92,0,32,9821.3667519478,0,10,Assisted_Takeoff,
4100,2023-10-11 00:53:39,38.4982113046997,-112.06442607174,0,,,9821.3667519478,0.656168,0,0.307907162084,0.82000658792,19,5,0,9821.3667519478,0,0,0.307907162084,0,0,0,157.6, -4.7, 1.2,0,0,1024,1024,1024,1024,0,0,0,0,0,0,0,99,3.884,3.897,3.914,3.922,3.928,3.92,0,32,9821.3667519478,0,10,Assisted_Takeoff,
4200,2023-10-11 00:53:39,38.4982112834682,-112.064426087977,0,,,9821.3667519478,0.656168,0,0.315548566528,0.82903217876,18,5,0,9821.3667519478,0,0,0.315548566528,0,0,0,157.6, -4.7, 1.2,0,0,1024,1024,1024,1024,0,0,0,0,0,0,0,99,3.884,3.897,3.914,3.922,3.928,3.92,0,32,9821.3667519478,0,10,Assisted_Takeoff,
4300,2023-10-11 00:53:39,38.4982113299837,-112.064426066596,0,,,9821.3667519478,0.656168,0,0.298735573864,0.84707023708,18,5,0,9821.3667519478,0,0,0.315548566528,0,0,0,157.6, -4.7, 1.2,0,0,1024,1024,1024,1024,0,0,0,0,0,0,0,99,3.884,3.897,3.914,3.922,3.928,3.92,0,32,9821.3667519478,0,10,Assisted_Takeoff,
4400,2023-10-11 00:53:39,38.4982113164683,-112.064426080016,0,,,9821.3667519478,0.656168,0,0.303552503152,0.8533136756,18,5,0,9821.3667519478,0,0,0.315548566528,0,0,0,157.6, -4.7, 1.2,0,0,1024,1024,1024,1024,0,0,0,0,0,0,0,99,3.884,3.897,3.914,3.922,3.928,3.92,0,32,9821.3667519478,0,10,Assisted_Takeoff,
4500,2023-10-11 00:53:39,38.4982113543192,-112.064426053429,0,,,9821.3667519478,0.656168,0,0.290025599832,0.86907155012,18,5,0,9821.3667519478,0,0,0.315548566528,0,0,0,157.6, -4.7, 1.2,0,0,1024,1024,1024,1024,0,0,0,0,0,0,0,99,3.884,3.897,3.914,3.922,3.928,3.92,0,32,9821.3667519478,0,10,Assisted_Takeoff,
4600,2023-10-11 00:53:39,38.4982113466779,-112.064426063584,0,,,9821.3667519478,0.656168,0,0.292681439812,0.8730971408,18,5,0,9821.3667519478,0,0,0.315548566528,0,0,0,157.6, -4.7, 1.2,0,0,1024,1024,1024,1024,0,0,0,0,0,0,0,99,3.884,3.897,3.914,3.922,3.928,3.92,0,32,9821.3667519478,0,10,Assisted_Takeoff,
4700,2023-10-11 00:53:40,38.4982112119313,-112.064426042121,0,,,9821.3667519478,0.656168,0,0.34207350176,0.9226378248,18,5,0,9821.3667519478,0,0,0.34207350176,0,0,0,157.6, -4.7, 1.3,0,0,1024,1024,1024,1024,0,0,0,0,0,0,0,99,3.884,3.897,3.914,3.922,3.928,3.92,0,32,9821.3667519478,0,10,Assisted_Takeoff,
4800,2023-10-11 00:53:40,38.4982111943921,-112.064426050333,0,,,9821.3667519478,0.656168,0,0.34835302952,0.92945212948,18,5,0,9821.3667519478,0,0,0.34835302952,0,0,0,157.6, -4.7, 1.2,0,0,1024,1024,1024,1024,0,0,0,0,0,0,0,99,3.884,3.897,3.914,3.922,3.928,3.92,0,32,9821.3667519478,0,10,Assisted_Takeoff,
4900,2023-10-11 00:53:40,38.4982112415133,-112.064426032756,0,,,9821.3667519478,0.656168,0,0.331446861,0.94736223504,18,5,0,9821.3667519478,0,0,0.34835302952,0,0,0,157.6, -4.7, 1.2,0,0,1024,1024,1024,1024,0,0,0,0,0,0,0,99,3.884,3.897,3.914,3.922,3.928,3.92,0,32,9821.3667519478,0,10,Assisted_Takeoff,
5000,2023-10-11 00:53:40,38.4982112302741,-112.064426038899,0,,,9821.3667519478,0.656168,0,0.33543964328,0.95182417744,18,5,0,9821.3667519478,0,0,0.34835302952,0,0,0,157.6, -4.7, 1.2,0,0,1024,1024,1024,1024,0,0,0,0,0,0,0,99,3.884,3.897,3.914,3.922,3.928,3.92,0,32,9821.3667519478,0,10,Assisted_Takeoff,
5100,2023-10-11 00:53:40,38.4982112594373,-112.064426030297,0,,,9821.3667519478,0.656168,0,0.324966217748,0.96274281296,18,5,0,9821.3667519478,0,0,0.34835302952,0,0,0,157.6, -4.7, 1.2,0,0,1024,1024,1105,1024,0,0,12,0,0,0,0,99,3.884,3.897,3.914,3.922,3.928,3.92,0,32,9821.3667519478,0,10,Assisted_Takeoff,
5200,2023-10-11 00:53:40,38.4982112535078,-112.064426036868,0,,,9821.3667519478,0.656168,0,0.3270095249,0.96560698628,18,5,0,9821.3667519478,0,0,0.34835302952,0,0,0,157.6, -4.7, 1.2,0,0,1024,1024,1236,1024,0,0,32,0,0,0,0,99,3.884,3.897,3.914,3.922,3.928,3.92,0,32,9821.3667519478,0,10,Assisted_Takeoff,
5300,2023-10-11 00:53:40,38.4982111223355,-112.064426026485,0,,,9821.3667519478,0.656168,0,0.37496064192,1.01355646288,18,5,0,9821.3667519478,0,0,0.37496064192,0,0,0,157.6, -4.7, 1.2,0,0,1024,1024,1684,1024,0,0,100,0,0,0,0,99,3.884,3.897,3.914,3.922,3.928,3.92,0,32,9821.3667519478,0,10,Assisted_Takeoff,
5400,2023-10-11 00:53:40,38.4982111078333,-112.0644260317,0,,,9821.3667519478,0.656168,0,0.38015749248,1.01905515072,18,5,0,9821.3667519478,0,0,0.38015749248,0,0,0,157.6, -4.7, 1.2,0,0,1024,1024,1684,1024,0,0,100,0,0,0,0,99,3.884,3.897,3.914,3.922,3.928,3.92,0,32,9821.3667519478,0,10,Assisted_Takeoff,
5500,2023-10-11 00:53:40,38.4982111462773,-112.064426183931,0,,,9821.3667519478,0.656168,0,0.36627953928,1.06472772436,18,5,0,9821.3667519478,0,0,0.38015749248,0,0,0,157.6, -4.6, 1.2,0,0,1024,1024,1684,1024,0,0,100,0,0,0,0,99,3.884,3.897,3.914,3.922,3.928,3.92,0,32,9821.3667519478,0,10,Assisted_Takeoff,
5600,2023-10-11 00:53:40,38.4982111354263,-112.064426202377,0,,,9821.3667519478,0.656168,0,0.37059384388,1.07131893192,18,5,0,9821.3667519478,0,0,0.38015749248,0,0,0,157.6, -4.6, 1.2,0,0,1024,1024,1684,1024,0,0,100,0,0,0,0,99,3.884,3.897,3.914,3.922,3.928,3.92,0,32,9821.3667519478,0,10,Assisted_Takeoff,
5700,2023-10-11 00:53:41,38.4982110048055,-112.064426173961,0,,,9821.3667519478,0.656168,0,0.41766077452,1.11966210932,18,5,0,9821.3667519478,0,0,0.41766077452,0,0,0,157.6, -4.7, 1.2,0,0,1024,1024,1684,1024,0,0,100,0,0,0,0,99,3.884,3.897,3.914,3.922,3.928,3.92,0,32,9821.3667519478,0,10,Assisted_Takeoff,
5800,2023-10-11 00:53:41,38.4982109826694,-112.064426190308,0,,,9821.3667519478,0.656168,0,0.42597442308,1.12898953744,18,5,0,9821.3667519478,0,0,0.42597442308,0,0,0,157.6, -4.6, 1.2,0,0,1024,1024,1684,1024,0,0,100,0,0,0,0,99,3.884,3.897,3.914,3.922,3.928,3.92,0,32,9821.3667519478,0,10,Assisted_Takeoff,
5900,2023-10-11 00:53:41,38.4982110248412,-112.064426159928,0,,,9821.3667519478,0.656168,0,0.41018374016,1.14665358,18,5,0,9821.3667519478,0,0,0.42597442308,0,0,0,157.6, -4.6, 1.2,0,0,1024,1024,1684,1024,0,0,100,0,0,0,0,99,3.884,3.897,3.914,3.922,3.928,3.92,0,32,9821.3667519478,0,10,Assisted_Takeoff,
6000,2023-10-11 00:53:41,38.4982110096587,-112.064426173393,0,,,9821.3667519478,0.656168,0,0.41588584008,1.1533957062,18,5,0,9821.3667519478,0,0,0.42597442308,0,0,0,157.6, -4.7, 1.2,0,0,1024,1024,1684,1026,0,0,100,0,0,0,0,99,3.884,3.897,3.914,3.922,3.928,3.92,0,32,9821.3667519478,0,10,Assisted_Takeoff,
6100,2023-10-11 00:53:41,38.4982108813495,-112.064426308867,0,,,9821.3667519478,0.656168,0,0.4659120884,1.2141240546,18,5,0,9821.3667519478,0,0,0.4659120884,0,0,0,157.6, -4.6, 1.2,0,0,1024,1024,1684,1027,0,0,100,0,0,0,0,99,3.884,3.897,3.914,3.922,3.928,3.92,0,32,9821.3667519478,0,10,Assisted_Takeoff,
6200,2023-10-11 00:53:41,38.4982108512553,-112.064426334413,0,,,9821.3667519478,0.656168,0,0.4777559208,1.22730646972,18,5,0,9821.3667519478,0,0,0.4777559208,0,0,0,157.5, -4.5, 1.3,0,0,1024,1024,1684,1027,0,0,100,0,0,0,0,99,3.884,3.897,3.914,3.922,3.928,3.92,0,32,9821.3667519478,0,10,Assisted_Takeoff,
6300,2023-10-11 00:53:41,38.4982108784878,-112.064426284262,0,,,9821.3667519478,0.656168,0,0.46611878132,1.2447342918,18,5,0,9821.3667519478,0,0,0.4777559208,0,0,0,157.3, -3.4, 1.1,0,0,1024,1024,1684,1030,0,0,100,1,0,0,0,99,3.884,3.897,3.914,3.922,3.928,3.92,0,32,9821.3667519478,0,10,Assisted_Takeoff,
6400,2023-10-11 00:53:41,38.4982107885976,-112.064426279793,0,,,9821.3667519478,0.656168,0,0.49859909732,1.27755581516,18,5,0,9821.3667519478,0,0,0.49859909732,0,0,-0.223694,156.5, -0.7, 1.1,0,0,1024,1024,1684,1035,0,0,100,2,0,0,0,99,3.884,3.897,3.914,3.922,3.928,3.92,0,32,9821.3667519478,0,10,Assisted_Takeoff,
6500,2023-10-11 00:53:41,38.498210575322,-112.064426217772,0,,,9821.3667519478,0.984252,0.223694,0.57479988716,1.35735896732,18,5,0,9821.3667519478,0,0.223694,0.57479988716,-0.223694,0,-0.671082,155.6, 3.1, 1.3,0,0,1024,1024,1684,1041,0,0,100,3,0,0,0,99,3.884,3.897,3.914,3.922,3.928,3.92,0,32,9821.3667519478,0,6,P-GPS,
6600,2023-10-11 00:53:41,38.4982104701415,-112.064426260416,0,,,9821.3667519478,0.984252,0,0.61388125324,1.3976214358,19,5,0,9821.3667519478,0,0.223694,0.61388125324,0,0,-1.11847,154.9, 6, 0.8,0,0,1024,1024,1684,1043,0,0,100,3,0,0,0,99,3.884,3.897,3.914,3.922,3.928,3.92,0,32,9821.3667519478,0,6,P-GPS,
6700,2023-10-11 00:53:41,38.4982105849641,-112.064426316352,0.328084,,,9821.6948359478,1.312336,0,0.57357613384,1.4424541144,19,5,0,9821.6948359478,0.328084,0.223694,0.61388125324,0,0,-1.565858,154.4, 5.8, 0.8,0,0,1024,1024,1684,1043,0,0,100,3,0,0,0,99,3.884,3.897,3.914,3.922,3.928,3.92,0,32,9821.6948359478,0.328084,6,P-GPS,
6800,2023-10-11 00:53:42,38.4982106699391,-112.064426504928,0.656168,,,9822.0229199478,1.64042,0.3131716,0.55137140872,1.50458994316,19,5,0,9822.0229199478,0.656168,0.3131716,0.61388125324,0.223694,-0.223694,-1.789552,154.2, 4.2, 1.3,0,0,1024,1024,1684,1046,0,0,100,3,0,0,0,99,3.884,3.897,3.914,3.922,3.928,3.92,0,32,9822.0229199478,0.656168,6,P-GPS,
6900,2023-10-11 00:53:42,38.4982108202644,-112.064426739458,0.984252,,,9822.3510039478,1.968504,0.4921268,0.51736878296,1.59114834488,19,5,0,9822.3510039478,0.984252,0.4921268,0.61388125324,0.223694,-0.447388,-2.460634,154.1, 1, 1.1,0,0,1024,1024,1684,1046,0,0,100,3,0,0,0,99,3.884,3.897,3.914,3.922,3.928,3.92,0,32,9822.3510039478,0.984252,6,P-GPS,
7000,2023-10-11 00:53:42,38.4982109518596,-112.064427049802,1.312336,,,9822.6790879478,2.296588,0.4921268,0.51328085632,1.69193574968,18,5,0,9822.6790879478,1.312336,0.4921268,0.61388125324,0.223694,-0.447388,-2.908022,153.8, -1.6, 0.2,0,0,1024,1024,1684,1048,0,0,100,4,0,0,0,99,3.884,3.897,3.914,3.922,3.928,3.92,0,32,9822.6790879478,1.312336,6,P-GPS,
7100,2023-10-11 00:53:42,38.4982107897775,-112.064427769763,1.64042,,,9823.0071719478,2.624672,0.4921268,0.68692915584,1.90584979852,18,5,0,9823.0071719478,1.64042,0.4921268,0.68692915584,0.223694,-0.447388,-3.35541,153.3, -3.4, -0.8,0,0,1024,1024,1684,1050,0,0,100,4,0,0,0,99,3.884,3.897,3.914,3.922,3.928,3.92,0,32,9823.0071719478,1.64042,6,P-GPS,
7200,2023-10-11 00:53:42,38.4982108137255,-112.064428080209,2.296588,,,9823.6633399478,3.28084,0.4921268,0.74529858028,1.99492460452,18,5,0,9823.6633399478,2.296588,0.4921268,0.74529858028,0,-0.447388,-4.026492,152.8, -3.7, -1.5,0,0,1024,1024,1684,1049,0,0,100,4,0,0,0,99,3.884,3.897,3.914,3.922,3.928,3.92,0,32,9823.6633399478,2.296588,6,P-GPS,
7300,2023-10-11 00:53:42,38.4982110112049,-112.06442798633,2.952756,,,9824.3195079478,3.937008,0.223694,0.67894359128,2.0718012474,18,5,0,9824.3195079478,2.952756,0.4921268,0.74529858028,0,-0.223694,-4.47388,152, -3.1, -1.9,0,0,1024,1024,1684,1050,0,0,100,4,0,0,0,99,3.884,3.897,3.914,3.922,3.928,3.92,0,32,9824.3195079478,2.952756,6,P-GPS,"Home Point recorded. Return-to-Home Altitude:498.7 ft"
7400,2023-10-11 00:53:42,38.4982109501584,-112.064428119954,3.608924,,,9824.9756759478,4.593176,0,0.72277889452,2.11598103884,17,5,0,9824.9756759478,3.608924,0.4921268,0.74529858028,0,0,-5.144962,151.3, -1.7, -1.8,0,0,1024,1024,1684,1058,0,0,100,5,0,0,0,99,3.884,3.897,3.914,3.922,3.928,3.92,0,32,9824.9756759478,3.608924,6,P-GPS,
7500,2023-10-11 00:53:42,38.4982107077789,-112.064427932557,4.265092,,,9825.6318439478,5.249344,0,0.740813672,2.2193406222,17,5,0,9825.6318439478,4.265092,0.4921268,0.74529858028,0,0,-5.816044,150.5, -0.3, -1.3,0,0,1024,1024,1684,1102,0,0,100,12,0,0,0,99,3.884,3.897,3.914,3.922,3.928,3.92,0,32,9825.6318439478,4.265092,6,P-GPS,
7600,2023-10-11 00:53:42,38.498210612862,-112.064427958712,5.249344,,,9826.6160959478,6.233596,0,0.7708825706,2.25476713252,18,5,0,9826.6160959478,5.249344,0.4921268,0.7708825706,0,0,-6.487126,149.9, 0.5, -0.8,0,0,1024,1024,1684,1117,0,0,100,14,0,0,0,99,3.884,3.897,3.914,3.922,3.928,3.92,0,32,9826.6160959478,5.249344,6,P-GPS,
7700,2023-10-11 00:53:42,38.4982107935009,-112.064428284116,6.233596,,,9827.6003479478,7.217848,0,0.79486223016,2.368684459,18,5,0,9827.6003479478,6.233596,0.4921268,0.79486223016,0,0,-7.158208,149.3, 0.5, -0.9,0,0,1024,1024,1684,1118,0,0,100,14,0,0,0,99,3.884,3.897,3.914,3.922,3.928,3.92,0,32,9827.6003479478,6.233596,6,P-GPS,
7800,2023-10-11 00:53:43,38.4982107425802,-112.064428325922,7.545932,,,9828.9126839478,8.2021,0,0.8157972702,2.39076779304,18,5,0,9828.9126839478,7.545932,0.4921268,0.8157972702,0,0,-7.82929,149, 0, -1.1,0,0,1024,1024,1684,1114,0,0,100,14,0,0,0,99,3.884,3.897,3.914,3.922,3.928,3.92,0,32,9828.9126839478,7.545932,6,P-GPS,
7900,2023-10-11 00:53:43,38.4982105745682,-112.064428079483,8.530184,,,9829.8969359478,9.514436,0,0.804872073,2.48409128684,18,5,0,9829.8969359478,8.530184,0.4921268,0.8157972702,0,0,-8.500372,148.8, -0.5, -1.4,0,0,1024,1024,1684,1115,0,0,100,14,0,0,0,99,3.884,3.897,3.914,3.922,3.928,3.92,0,32,9829.8969359478,8.530184,6,P-GPS,
8000,2023-10-11 00:53:43,38.4982105116474,-112.064428035092,9.84252,,,9831.2092719478,10.826772,0,0.81275593152,2.51031504096,18,5,0,9831.2092719478,9.84252,0.4921268,0.8157972702,0,0,-9.171454,148.6, -0.5, -1.5,0,0,1071,1024,1684,1117,7,0,100,14,0,0,0,99,3.884,3.897,3.914,3.922,3.928,3.92,0,32,9831.2092719478,9.84252,6,P-GPS,
8100,2023-10-11 00:53:43,38.4982102157918,-112.064428137805,11.48294,,,9832.8496919478,12.139108,0,0.9134186644,2.62217199992,18,5,0,9832.8496919478,11.48294,0.4921268,0.9134186644,0,0,-9.842536,148.6, -0.4, -1.4,0,0,1418,1024,1684,1117,60,0,100,14,0,0,0,99,3.884,3.897,3.914,3.922,3.928,3.92,0,32,9832.8496919478,11.48294,6,P-GPS,
8200,2023-10-11 00:53:43,38.4982101328065,-112.064428033271,12.795276,,,9834.1620279478,13.451444,0,0.91878611864,2.66468840548,18,5,0,9834.1620279478,12.795276,0.4921268,0.91878611864,0,0,-10.513618,148.8, -0.3, -1.1,0,0,1684,1024,1684,1114,100,0,100,14,0,0,0,99,3.884,3.897,3.914,3.922,3.928,3.92,0,32,9834.1620279478,12.795276,6,P-GPS,
8300,2023-10-11 00:53:43,38.4982100391864,-112.064427801272,14.435696,,,9835.8024479478,14.76378,0.223694,0.90937995036,2.7392225286,18,5,0,9835.8024479478,14.435696,0.4921268,0.91878611864,0,0.223694,-10.961006,149.1, -2.7, -0.6,0,0,1684,1024,1684,1105,100,0,100,12,0,0,0,99,3.884,3.897,3.914,3.922,3.928,3.92,0,32,9835.8024479478,14.435696,6,P-GPS,
8400,2023-10-11 00:53:43,38.4982099199844,-112.064427614614,16.076116,,,9837.4428679478,16.4042,0.223694,0.92031170924,2.80801190088,18,5,0,9837.4428679478,16.076116,0.4921268,0.92031170924,0,0.223694,-11.1847,149.4, -9, 0,0,0,1684,1024,1684,1086,100,0,100,9,0,0,0,99,3.884,3.897,3.914,3.922,3.928,3.92,0,32,9837.4428679478,16.076116,6,P-GPS,
8500,2023-10-11 00:53:43,38.498209662618,-112.064427490171,17.716536,,,9839.0832879478,17.716536,0.6263432,0.9894849398,2.90841216656,18,5,0,9839.0832879478,17.716536,0.6263432,0.9894849398,-0.447388,0.447388,-11.632088,149.5, -17, 0,0,0,1684,1024,1684,1083,100,0,100,9,0,0,0,99,3.884,3.897,3.914,3.922,3.928,3.92,0,32,9839.0832879478,17.716536,6,P-GPS,
8600,2023-10-11 00:53:43,38.4982091576794,-112.064427030073,19.68504,,,9841.0517919478,19.356956,1.4987498,1.1226870438,3.13468185884,18,5,0,9841.0517919478,19.68504,1.4987498,1.1226870438,-1.342164,0.671082,-11.632088,149.6, -23.7, -0.3,0,0,1684,1024,1684,1079,100,0,100,8,0,0,0,99,3.884,3.897,3.914,3.922,3.928,3.92,0,32,9841.0517919478,19.68504,6,P-GPS,
8700,2023-10-11 00:53:44,38.498208194666,-112.064425998699,21.32546,,,9842.6922119478,20.997376,2.6172198,1.44277563672,3.5931431596,18,5,0,9842.6922119478,21.32546,2.6172198,1.44277563672,-2.23694,1.342164,-11.855782,149.6, -27.6, -0.8,0,0,1684,1024,1684,1065,100,0,100,6,0,0,0,99,3.884,3.897,3.914,3.922,3.928,3.92,0,32,9842.6922119478,21.32546,6,P-GPS,
8800,2023-10-11 00:53:44,38.4982068935033,-112.064424882927,23.293964,,,9844.6607159478,22.637796,3.914645,1.94864179464,4.164862338,19,5,0,9844.6607159478,23.293964,3.914645,1.94864179464,-3.35541,2.013246,-11.855782,149.4, -28.3, -0.9,0,0,1684,1024,1684,1062,100,0,100,6,0,0,0,99,3.884,3.897,3.914,3.922,3.928,3.92,0,32,9844.6607159478,23.293964,6,P-GPS,
8900,2023-10-11 00:53:44,38.4982054491206,-112.064423444254,24.934384,,,9846.3011359478,24.278216,5.1002232,2.55945546248,4.8330382124,19,5,0,9846.3011359478,24.934384,5.1002232,2.55945546248,-4.47388,2.460634,-11.855782,149.1, -26.6, -1,0,0,1684,1024,1684,1058,100,0,100,5,0,0,0,99,3.884,3.897,3.914,3.922,3.928,3.92,0,32,9846.3011359478,24.934384,6,P-GPS,
9000,2023-10-11 00:53:44,38.4982033717005,-112.064421643063,26.902888,,,9848.2696399478,25.918636,6.2186932,3.4461615276,5.749015932,19,5,0,9848.2696399478,26.902888,6.2186932,3.4461615276,-5.368656,3.131716,-11.855782,148.8, -23.3, -1,0,0,1684,1024,1684,1050,100,0,100,4,0,0,0,99,3.884,3.897,3.914,3.922,3.928,3.92,0,32,9848.2696399478,26.902888,6,P-GPS,
9100,2023-10-11 00:53:44,38.4982011844684,-112.064419127917,28.543308,,,9849.9100599478,27.88714,7.0239916,4.468668122,6.8226052052,19,5,0,9849.9100599478,28.543308,7.0239916,4.468668122,-6.039738,3.579104,-11.855782,148.5, -20.6, -0.9,0,0,1684,1024,1684,1050,100,0,100,4,0,0,0,99,3.884,3.897,3.914,3.922,3.928,3.92,0,32,9849.9100599478,28.543308,6,P-GPS,
9200,2023-10-11 00:53:44,38.4981985726145,-112.064416787331,30.511812,,,9851.8785639478,27.88714,7.6279654,5.6222770828,7.986548812,19,5,0,9851.8785639478,30.511812,7.6279654,5.6222770828,-6.487126,4.026492,-11.632088,148.3, -19.2, -0.8,0,0,1684,1024,1684,1046,100,0,100,3,0,0,0,99,3.884,3.897,3.914,3.922,3.928,3.92,0,32,9851.8785639478,30.511812,6,P-GPS,
9300,2023-10-11 00:53:44,38.4981958359741,-112.064414179663,32.152232,,,9853.5189839478,27.88714,8.4332638,6.8566931328,9.2320869096,19,5,0,9853.5189839478,32.152232,8.4332638,6.8566931328,-7.158208,4.47388,-11.632088,148.1, -19.8, -0.5,0,0,1684,1024,1684,1045,100,0,100,3,0,0,0,99,3.884,3.897,3.914,3.922,3.928,3.92,0,32,9853.5189839478,32.152232,6,P-GPS,
9400,2023-10-11 00:53:44,38.4981927858805,-112.06441143046,33.792652,,,9855.1594039478,27.88714,9.059607,8.213418898,10.5939307852,19,5,0,9855.1594039478,33.792652,9.059607,8.213418898,-7.605596,4.921268,-11.632088,147.8, -21, -0.4,0,0,1684,1024,1684,1035,100,0,100,2,0,0,0,99,3.884,3.897,3.914,3.922,3.928,3.92,0,32,9855.1594039478,33.792652,6,P-GPS,
9500,2023-10-11 00:53:44,38.4981897767588,-112.064408624735,35.761156,,,9857.1279079478,27.88714,9.8649054,9.567257524,11.9530187552,19,5,0,9857.1279079478,35.761156,9.8649054,9.567257524,-8.276678,5.368656,-11.408394,147.5, -22.1, -0.4,0,0,1684,1024,1684,1024,100,0,100,0,0,0,0,99,3.884,3.897,3.914,3.922,3.928,3.92,0,32,9857.1279079478,35.761156,6,P-GPS,
9600,2023-10-11 00:53:44,38.4981862554687,-112.064405448277,37.401576,,,9858.7683279478,27.88714,10.4912486,11.136975422,13.5256894092,19,5,0,9858.7683279478,37.401576,10.4912486,11.136975422,-8.724066,5.816044,-11.1847,147.2, -23.1, -0.7,0,0,1684,1024,1684,1024,100,0,100,0,0,0,0,99,3.884,3.897,3.914,3.922,3.928,3.92,0,32,9858.7683279478,37.401576,6,P-GPS,
9700,2023-10-11 00:53:44,38.4981821638974,-112.064401976086,39.041996,,,9860.4087479478,27.88714,10.4912486,12.9284452956,15.317749834,19,5,0,9860.4087479478,39.041996,10.4912486,12.9284452956,-9.395148,6.263432,-11.1847,146.9, -23.6, -0.6,0,0,1684,1024,1684,1024,100,0,100,0,0,0,0,99,3.884,3.897,3.914,3.922,3.928,3.92,0,32,9860.4087479478,39.041996,6,P-GPS,
9800,2023-10-11 00:53:45,38.4981781004491,-112.064398300294,40.682416,,,9862.0491679478,27.88714,12.2136924,14.7425857736,17.1342197084,19,5,0,9862.0491679478,40.682416,12.2136924,14.7425857736,-10.06623,6.934514,-11.1847,146.8, -23.5, -0.1,0,0,1684,1024,1684,1024,100,0,100,0,0,0,0,99,3.884,3.897,3.914,3.922,3.928,3.92,0,32,9862.0491679478,40.682416,6,P-GPS,
9900,2023-10-11 00:53:45,38.4981738460629,-112.064394775233,42.322836,,,9863.6895879478,27.88714,13.0189908,16.5925530244,18.9842197676,19,5,0,9863.6895879478,42.322836,13.0189908,16.5925530244,-10.737312,7.381902,-10.961006,146.7, -22.9, 0.5,0,0,1684,1024,1684,1024,100,0,100,0,0,0,0,99,3.884,3.897,3.914,3.922,3.928,3.92,0,32,9863.6895879478,42.322836,6,P-GPS,
10000,2023-10-11 00:53:45,38.4981692754557,-112.064390675276,43.963256,,,9865.3300079478,27.88714,13.8466586,18.6283798612,21.0217198328,20,5,0,9865.3300079478,43.963256,13.8466586,18.6283798612,-11.408394,7.82929,-10.961006,146.7, -22, 1.4,0,0,1684,1024,1684,1024,100,0,100,0,0,0,0,99,3.884,3.897,3.914,3.922,3.928,3.92,0,32,9865.3300079478,43.963256,6,P-GPS,
10100,2023-10-11 00:53:45,38.4981646578246,-112.064386659413,45.603676,,,9866.9704279478,27.88714,14.651957,20.665847118,23.0596464072,20,5,0,9866.9704279478,45.603676,14.651957,20.665847118,-12.079476,8.276678,-10.961006,146.8, -21.2, 2.2,0,0,1684,1024,1684,1024,100,0,100,0,0,0,0,99,3.884,3.897,3.914,3.922,3.928,3.92,0,32,9866.9704279478,45.603676,6,P-GPS,
10200,2023-10-11 00:53:45,38.4981596079844,-112.064382251175,47.244096,,,9868.6108479478,27.88714,14.651957,22.896654276,25.291011308,20,5,0,9868.6108479478,47.244096,14.651957,22.896654276,-12.526864,8.500372,-10.961006,146.9, -20.7, 2.4,0,0,1684,1024,1684,1024,100,0,100,0,0,0,0,99,3.884,3.897,3.914,3.922,3.928,3.92,0,32,9868.6108479478,47.244096,6,P-GPS,
10300,2023-10-11 00:53:45,38.4981542564737,-112.06437741596,48.884516,,,9870.2512679478,27.88714,15.9493822,25.2865165572,27.6823499672,20,5,0,9870.2512679478,48.884516,15.9493822,25.2865165572,-13.197946,8.94776,-11.1847,147.1, -21, 1.7,0,0,1684,1024,1684,1024,100,0,100,0,0,0,0,99,3.884,3.897,3.914,3.922,3.928,3.92,0,32,9870.2512679478,48.884516,6,P-GPS,
10400,2023-10-11 00:53:45,38.4981487403436,-112.064372706844,50.524936,,,9871.8916879478,27.88714,16.441509,27.7068906504,30.1027896772,20,5,0,9871.8916879478,50.524936,16.441509,27.7068906504,-13.645334,9.171454,-10.961006,147.1, -21.7, 1,0,0,1684,1024,1554,1024,100,0,80,0,0,0,0,99,3.884,3.897,3.914,3.922,3.928,3.92,0,32,9871.8916879478,50.524936,6,P-GPS,
10500,2023-10-11 00:53:45,38.4981434383871,-112.064368461909,52.165356,,,9873.5321079478,27.88714,17.2468074,29.9891413796,32.3855653408,20,5,0,9873.5321079478,52.165356,17.2468074,29.9891413796,-14.316416,9.618842,-10.961006,147, -22.7, 0.4,0,0,1684,1024,1503,1024,100,0,73,0,0,0,0,99,3.884,3.897,3.914,3.922,3.928,3.92,0,32,9873.5321079478,52.165356,6,P-GPS,
10600,2023-10-11 00:53:45,38.4981375204678,-112.064363463312,53.805776,,,9875.1725279478,27.88714,17.7389342,32.5773960556,34.9737544,20,5,0,9875.1725279478,53.805776,17.7389342,32.5773960556,-14.763804,9.842536,-10.737312,147, -23.6, 0,0,0,1684,1024,1441,1024,100,0,63,0,0,0,0,99,3.884,3.897,3.914,3.922,3.928,3.92,0,32,9875.1725279478,53.805776,6,P-GPS,
10700,2023-10-11 00:53:45,38.4981305326866,-112.064358053954,55.118112,,,9876.4848639478,27.88714,17.7389342,35.556431584,37.954725624,20,5,0,9876.4848639478,55.118112,17.7389342,35.556431584,-15.211192,10.289924,-10.06623,147.2, -24.5, -0.2,0,0,1684,1024,1423,1024,100,0,60,0,0,0,0,99,3.884,3.897,3.914,3.922,3.928,3.92,0,32,9876.4848639478,55.118112,6,P-GPS,
10800,2023-10-11 00:53:46,38.4981241657061,-112.064352697044,56.758532,,,9878.1252839478,27.88714,18.8574042,38.337927736,40.736221776,20,5,0,9878.1252839478,56.758532,18.8574042,38.337927736,-15.65858,10.513618,-9.618842,147.2, -25, -0.3,0,0,1684,1024,1416,1024,100,0,59,0,0,0,0,99,3.884,3.897,3.914,3.922,3.928,3.92,0,32,9878.1252839478,56.758532,6,P-GPS,
10900,2023-10-11 00:53:46,38.4981176198274,-112.064347168349,58.070868,,,9879.4376199478,27.88714,19.4837474,41.20078872,43.59908276,20,5,0,9879.4376199478,58.070868,19.4837474,41.20078872,-16.105968,10.961006,-8.94776,147.1, -25.1, 0,0,0,1684,1024,1407,1024,100,0,58,0,0,0,0,99,3.884,3.897,3.914,3.922,3.928,3.92,0,32,9879.4376199478,58.070868,6,P-GPS,
11000,2023-10-11 00:53:46,38.498110951138,-112.064341507258,59.383204,,,9880.7499559478,27.88714,19.9758742,44.121720572,46.520014612,20,5,0,9880.7499559478,59.383204,19.9758742,44.121720572,-16.553356,11.1847,-8.052984,147.1, -24.8, 0.8,0,0,1684,1024,1397,1024,100,0,57,0,0,0,0,99,3.884,3.897,3.914,3.922,3.928,3.92,0,32,9880.7499559478,59.383204,6,P-GPS,
11100,2023-10-11 00:53:46,38.4981039176988,-112.064335705275,60.367456,,,9881.7342079478,27.88714,20.2890458,47.176182612,49.574476652,20,5,0,9881.7342079478,60.367456,20.2890458,47.176182612,-16.77705,11.408394,-7.381902,147.1, -24.5, 1.6,0,0,1684,1024,1393,1024,100,0,56,0,0,0,0,99,3.884,3.897,3.914,3.922,3.928,3.92,0,32,9881.7342079478,60.367456,6,P-GPS,
11200,2023-10-11 00:53:46,38.4980969514878,-112.064329821506,61.679792,,,9883.0465439478,27.88714,20.7811726,50.222770636,52.62139276,20,5,0,9883.0465439478,61.679792,20.7811726,50.222770636,-17.224438,11.632088,-6.71082,147.1, -24.4, 1.8,0,0,1684,1024,1384,1024,100,0,55,0,0,0,0,99,3.884,3.897,3.914,3.922,3.928,3.92,0,32,9883.0465439478,61.679792,6,P-GPS,
11300,2023-10-11 00:53:46,38.4980905254825,-112.064324348814,62.33596,,,9883.7027119478,27.88714,21.0943442,53.040356028,55.438978152,20,5,0,9883.7027119478,62.33596,21.0943442,53.040356028,-17.448132,11.855782,-6.039738,147.4, -23.7, 1.4,0,0,1684,1024,1381,1024,100,0,54,0,0,0,0,99,3.884,3.897,3.914,3.922,3.928,3.92,0,32,9883.7027119478,62.33596,6,P-GPS,
11400,2023-10-11 00:53:46,38.4980833466178,-112.064318310159,63.320212,,,9884.6869639478,27.88714,21.586471,56.1761829,58.57447694,21,5,0,9884.6869639478,63.320212,21.586471,56.1761829,-17.89552,12.079476,-5.59235,147.4, -23.2, 1.6,0,0,1684,1024,1376,1024,100,0,53,0,0,0,0,99,3.884,3.897,3.914,3.922,3.928,3.92,0,32,9884.6869639478,63.320212,6,P-GPS,
11500,2023-10-11 00:53:46,38.4980752434621,-112.064311573412,63.97638,,,9885.3431319478,27.88714,21.8996426,59.7030859,62.101708024,21,5,0,9885.3431319478,63.97638,21.8996426,59.7030859,-18.119214,12.30317,-5.144962,147.3, -23, 2.5,0,0,1684,1024,1387,1024,100,0,55,0,0,0,0,99,3.884,3.897,3.914,3.922,3.928,3.92,0,32,9885.3431319478,63.97638,6,P-GPS,
11600,2023-10-11 00:53:46,38.49806770609,-112.064305293631,64.960632,,,9886.3273839478,27.88714,22.3917694,62.986222488,65.384844612,21,5,0,9886.3273839478,64.960632,22.3917694,62.986222488,-18.566602,12.526864,-4.921268,147.1, -22.9, 3.3,0,0,1684,1024,1390,1014,100,0,55,-2,0,0,0,99,3.884,3.897,3.914,3.922,3.928,3.92,0,32,9886.3273839478,64.960632,6,P-GPS,
11700,2023-10-11 00:53:47,38.4980612894442,-112.064299788531,65.6168,,,9886.9835519478,27.88714,22.7720492,65.805776384,68.204726592,21,5,0,9886.9835519478,65.6168,22.7720492,65.805776384,-19.01399,12.526864,-4.47388,147.1, -23, 3.5,0,0,1684,1024,1393,995,100,0,56,-4,0,0,0,99,3.884,3.897,3.914,3.922,3.928,3.92,0,32,9886.9835519478,65.6168,6,P-GPS,
11800,2023-10-11 00:53:47,38.4980535161355,-112.06429343355,66.272968,,,9887.6397199478,27.88714,23.264176,69.172574392,71.5715246,21,5,0,9887.6397199478,66.272968,23.264176,69.172574392,-19.461378,12.750558,-4.47388,147.1, -23.2, 2.9,0,0,1684,1024,1400,969,100,0,57,-8,0,0,0,99,3.884,3.897,3.914,3.922,3.928,3.92,0,32,9887.6397199478,66.272968,6,P-GPS,
11900,2023-10-11 00:53:47,38.4980440758665,-112.06428601275,66.929136,,,9888.2958879478,27.88714,23.7563028,73.214897356,75.615487984,21,5,0,9888.2958879478,66.929136,23.7563028,73.214897356,-19.908766,12.974252,-4.250186,147.1, -22.7, 1.7,0,0,1684,1024,1406,930,100,0,58,-14,0,0,0,99,3.884,3.897,3.914,3.922,3.928,3.92,0,32,9888.2958879478,66.929136,6,P-GPS,
12000,2023-10-11 00:53:47,38.4980358493864,-112.064279320819,67.585304,,,9888.9520559478,27.88714,24.382646,76.772968336,79.173558964,21,5,0,9888.9520559478,67.585304,24.382646,76.772968336,-20.356154,13.42164,-4.250186,147, -22.2, -0.3,0,0,1684,1024,1409,926,100,0,58,-15,0,0,0,99,3.884,3.897,3.914,3.922,3.928,3.92,0,32,9888.9520559478,67.585304,6,P-GPS,
12100,2023-10-11 00:53:47,38.4980282654572,-112.064273269899,68.241472,,,9889.6082239478,27.88714,24.6958176,80.03445138,82.435698176,21,5,0,9889.6082239478,68.241472,24.6958176,80.03445138,-20.579848,13.645334,-4.250186,146.6, -21.5, -3.6,0,0,1684,1024,1408,925,100,0,58,-15,0,0,0,99,3.884,3.897,3.914,3.922,3.928,3.92,0,32,9889.6082239478,68.241472,6,P-GPS,
12200,2023-10-11 00:53:47,38.4980198781982,-112.0642662651,68.89764,,,9890.2643919478,27.88714,25.1208362,83.690291392,86.091538188,21,5,0,9890.2643919478,68.89764,25.1208362,83.690291392,-20.803542,14.092722,-4.250186,145.8, -20.3, -7.4,0,0,1684,1024,1408,924,100,0,58,-15,0,0,0,98,3.884,3.897,3.914,3.922,3.928,3.92,0,32,9890.2643919478,68.89764,6,P-GPS,
12300,2023-10-11 00:53:47,38.4980105426033,-112.064258222513,69.553808,,,9890.9205599478,27.88714,25.501116,87.797574988,90.199477952,21,5,0,9890.9205599478,69.553808,25.501116,87.797574988,-20.803542,14.763804,-4.47388,144.6, -19, -10.9,0,0,1684,1024,1408,922,100,0,58,-15,0,0,0,98,3.884,3.897,3.914,3.922,3.928,3.92,0,32,9890.9205599478,69.553808,6,P-GPS,
12400,2023-10-11 00:53:47,38.4980020338009,-112.064250504786,70.209976,,,9891.5767279478,27.88714,26.0379816,91.601708968,94.006564688,21,5,0,9891.5767279478,70.209976,26.0379816,91.601708968,-20.803542,15.65858,-4.697574,143.2, -18.1, -14.1,0,0,1684,1024,1407,923,100,0,58,-15,0,0,0,98,3.884,3.897,3.914,3.922,3.928,3.92,0,32,9891.5767279478,70.209976,6,P-GPS,
12500,2023-10-11 00:53:47,38.4979943280544,-112.064242928378,70.866144,,,9892.2328959478,27.88714,26.2616756,95.139110656,97.553808896,21,5,0,9892.2328959478,70.866144,26.2616756,95.139110656,-20.579848,16.329662,-4.921268,142, -17.9, -16.8,0,0,1684,1024,1389,935,100,0,55,-13,0,0,0,98,3.884,3.897,3.914,3.922,3.928,3.92,0,32,9892.2328959478,70.866144,6,P-GPS,
12600,2023-10-11 00:53:47,38.4979860640341,-112.064234343188,71.522312,,,9892.8890639478,27.88714,26.8209106,99.006236764,101.439963876,21,5,0,9892.8890639478,71.522312,26.8209106,99.006236764,-20.356154,17.448132,-5.144962,140.6, -18, -16.9,0,0,1684,1024,1387,944,100,0,55,-12,0,0,0,98,3.884,3.897,3.914,3.922,3.928,3.92,0,32,9892.8890639478,71.522312,6,P-GPS,
12700,2023-10-11 00:53:48,38.4979781110907,-112.064225207767,72.17848,,,9893.5452319478,27.88714,27.2459292,102.868113528,105.341538804,21,5,0,9893.5452319478,72.17848,27.2459292,102.868113528,-20.13246,18.342908,-5.144962,139.2, -18.3, -14.7,0,0,1684,1024,1378,953,100,0,54,-11,0,0,0,98,3.884,3.897,3.914,3.922,3.928,3.92,0,32,9893.5452319478,72.17848,6,P-GPS,
12800,2023-10-11 00:53:48,38.4979700925204,-112.064215724718,73.162732,,,9894.5294839478,27.88714,27.5367314,106.808074284,109.328087488,21,5,0,9894.5294839478,73.162732,27.5367314,106.808074284,-19.908766,19.01399,-5.144962,137.7, -18.3, -10.9,0,0,1684,1024,1367,963,100,0,52,-9,0,0,0,98,3.884,3.897,3.914,3.922,3.928,3.92,0,32,9894.5294839478,73.162732,6,P-GPS,
12900,2023-10-11 00:53:48,38.4979628135199,-112.064206581223,73.8189,,,9895.1856519478,27.88714,27.6709478,110.474412984,113.052168972,21,5,0,9895.1856519478,73.8189,27.6709478,110.474412984,-19.685072,19.461378,-4.921268,136.3, -18.2, -7.2,0,0,1684,1024,1362,965,100,0,51,-9,0,0,0,98,3.884,3.897,3.914,3.922,3.928,3.92,0,32,9895.1856519478,73.8189,6,P-GPS,
13000,2023-10-11 00:53:48,38.4979549834385,-112.064196591983,74.475068,,,9895.8418199478,27.88714,27.849903,114.447838308,117.089242592,21,5,0,9895.8418199478,74.475068,27.849903,114.447838308,-19.461378,19.908766,-4.697574,135.2, -18.2, -4.2,0,0,1684,1024,1350,987,100,0,49,-6,0,0,0,98,3.884,3.897,3.914,3.922,3.928,3.92,0,32,9895.8418199478,74.475068,6,P-GPS,
13100,2023-10-11 00:53:48,38.4979464842609,-112.064185519549,75.131236,,,9896.4979879478,27.88714,28.0064888,118.803153408,121.517720424,21,5,0,9896.4979879478,75.131236,28.0064888,118.803153408,-19.461378,20.13246,-4.697574,134.5, -18.5, -2.2,0,0,1684,1024,1319,1024,100,0,45,0,0,0,0,98,3.884,3.897,3.914,3.922,3.928,3.92,0,32,9896.4979879478,75.131236,6,P-GPS,
13200,2023-10-11 00:53:48,38.4979386487506,-112.064175117929,75.787404,,,9897.1541559478,27.88714,28.3196604,122.855318892,125.640095884,23,5,0,9897.1541559478,75.787404,28.3196604,122.855318892,-19.461378,20.579848,-4.47388,133.8, -19.3, 0,0,0,1684,1024,1284,1024,100,0,39,0,0,0,0,98,3.884,3.897,3.914,3.922,3.928,3.92,0,32,9897.1541559478,75.787404,6,P-GPS,
13300,2023-10-11 00:53:48,38.4979305421012,-112.064164708147,76.443572,,,9897.8103239478,27.88714,28.4762462,126.993442384,129.833337488,23,5,0,9897.8103239478,76.443572,28.4762462,126.993442384,-19.461378,20.803542,-4.250186,133.2, -20.5, 2.2,0,0,1684,1024,1260,1024,100,0,36,0,0,0,0,98,3.884,3.897,3.914,3.922,3.928,3.92,0,32,9897.8103239478,76.443572,6,P-GPS,
13400,2023-10-11 00:53:48,38.4979226407757,-112.064154053847,77.09974,,,9898.4664919478,27.88714,28.4762462,131.116145928,134.024610588,23,5,0,9898.4664919478,77.09974,28.4762462,131.116145928,-19.685072,20.803542,-3.802798,132.6, -22.2, 3,0,0,1684,1024,1233,1024,100,0,32,0,0,0,0,98,3.884,3.897,3.914,3.922,3.928,3.92,0,32,9898.4664919478,77.09974,6,P-GPS,
13500,2023-10-11 00:53:48,38.4979146634448,-112.064143234902,77.755908,,,9899.1226599478,27.88714,28.968373,135.293311416,138.269033296,23,5,0,9899.1226599478,77.755908,28.968373,135.293311416,-19.685072,21.25093,-3.35541,132.3, -23.4, 2.8,0,0,1684,1024,1136,1024,100,0,17,0,0,0,0,98,3.884,3.897,3.914,3.922,3.928,3.92,0,32,9899.1226599478,77.755908,6,P-GPS,
13600,2023-10-11 00:53:48,38.4979066744341,-112.064132304355,78.083992,,,9899.4507439478,27.88714,28.968373,139.497051708,142.53937464,23,5,0,9899.4507439478,78.083992,28.968373,139.497051708,-19.685072,21.474624,-2.908022,132.1, -23.8, 2.3,0,0,1684,1024,1098,1024,100,0,11,0,0,0,0,98,3.884,3.897,3.914,3.922,3.928,3.92,0,32,9899.4507439478,78.083992,6,P-GPS,
13700,2023-10-11 00:53:48,38.4978995639192,-112.064122154912,78.74016,,,9900.1069119478,27.88714,29.4604998,143.314637132,146.429138544,23,5,0,9900.1069119478,78.74016,29.4604998,143.314637132,-19.685072,21.922012,-2.460634,132, -23.7, 2.4,0,0,1684,1024,1024,1024,100,0,0,0,0,0,0,98,3.884,3.897,3.914,3.922,3.928,3.92,0,32,9900.1069119478,78.74016,6,P-GPS,
13800,2023-10-11 00:53:49,38.4978916042282,-112.064111014882,79.068244,,,9900.4349959478,27.88714,29.7960408,147.55413858,150.736225296,23,5,0,9900.4349959478,79.068244,29.7960408,147.55413858,-19.685072,22.3694,-2.013246,131.8, -23.2, 3.4,0,0,1684,1024,1024,1024,100,0,0,0,0,0,0,98,3.884,3.897,3.914,3.922,3.928,3.92,0,32,9900.4349959478,79.068244,6,P-GPS,
13900,2023-10-11 00:53:49,38.4978835864457,-112.064099485492,79.068244,,,9900.4349959478,27.88714,29.7960408,151.882222708,155.140424912,23,5,0,9900.4349959478,79.068244,29.7960408,151.882222708,-19.908766,22.593094,-1.565858,131.5, -23.2, 4.9,0,0,1684,1024,1024,1024,100,0,0,0,0,0,0,98,3.884,3.897,3.914,3.922,3.928,3.92,0,32,9900.4349959478,79.068244,6,P-GPS,
14000,2023-10-11 00:53:49,38.4978755616758,-112.064088118385,79.396328,,,9900.7630799478,27.88714,30.2881676,156.187997124,159.511488044,23,5,0,9900.7630799478,79.396328,30.2881676,156.187997124,-19.908766,22.816788,-0.894776,131.3, -23.5, 6.1,0,0,1684,1024,1024,1024,100,0,0,0,0,0,0,98,3.884,3.897,3.914,3.922,3.928,3.92,0,32,9900.7630799478,79.396328,6,P-GPS,
14100,2023-10-11 00:53:49,38.4978660235487,-112.064074699227,79.396328,,,9900.7630799478,27.88714,30.2881676,161.293968416,164.687669312,23,5,0,9900.7630799478,79.396328,30.2881676,161.293968416,-20.13246,23.040482,-0.447388,131.1, -23.4, 6.5,0,0,1684,1024,1024,1024,100,0,0,0,0,0,0,98,3.884,3.897,3.914,3.922,3.928,3.92,0,32,9900.7630799478,79.396328,6,P-GPS,
14200,2023-10-11 00:53:49,38.4978576892433,-112.064062894268,79.396328,,,9900.7630799478,27.88714,31.0710966,165.773299268,169.22736762,23,5,0,9900.7630799478,79.396328,31.0710966,165.773299268,-20.579848,23.264176,0,131.1, -22.5, 6.7,0,0,1684,1024,1024,1024,100,0,0,0,0,0,0,98,3.884,3.897,3.914,3.922,3.928,3.92,0,32,9900.7630799478,79.396328,6,P-GPS,
14300,2023-10-11 00:53:49,38.4978501717459,-112.06405192302,79.724412,,,9901.0911639478,27.88714,31.4066376,169.874677352,173.391081664,23,5,0,9901.0911639478,79.724412,31.4066376,169.874677352,-20.579848,23.711564,0,131.2, -21, 7,0,0,1684,1024,1024,1024,100,0,0,0,0,0,0,98,3.884,3.897,3.914,3.922,3.928,3.92,0,32,9901.0911639478,79.724412,6,P-GPS,
14400,2023-10-11 00:53:49,38.497841774999,-112.064039925909,79.396328,,,9900.7630799478,27.88714,31.7198092,174.412407156,177.986882336,23,5,0,9901.0911639478,79.724412,31.7198092,174.412407156,-20.803542,23.935258,0.223694,131.2, -19.4, 7.2,0,0,1684,1024,1024,1024,100,0,0,0,0,0,0,98,3.884,3.897,3.914,3.922,3.928,3.92,0,32,9900.7630799478,79.396328,6,P-GPS,
14500,2023-10-11 00:53:49,38.4978333523233,-112.064027813127,79.396328,,,9900.7630799478,27.88714,31.876395,178.981633024,182.613522904,23,5,0,9901.0911639478,79.724412,31.876395,178.981633024,-20.803542,24.158952,0.223694,131.1, -18.2, 7.2,0,0,1684,1024,1024,1024,100,0,0,0,0,0,0,98,3.884,3.897,3.914,3.922,3.928,3.92,0,32,9900.7630799478,79.396328,6,P-GPS,
14600,2023-10-11 00:53:49,38.4978248920389,-112.064015634258,79.396328,,,9900.7630799478,27.88714,32.0329808,183.57612136,187.263457436,23,5,0,9901.0911639478,79.724412,32.0329808,183.57612136,-21.027236,24.158952,0.223694,131, -17.7, 8.1,0,0,1684,1024,1024,1024,100,0,0,0,0,0,0,98,3.884,3.897,3.914,3.922,3.928,3.92,0,32,9900.7630799478,79.396328,6,P-GPS,
14700,2023-10-11 00:53:49,38.4978168268859,-112.0640045662,79.396328,,,9900.7630799478,27.88714,32.1895666,187.859586064,191.581699044,23,5,0,9901.0911639478,79.724412,32.1895666,187.859586064,-21.027236,24.382646,0.223694,131, -17.8, 9.1,0,0,1684,1024,1024,1024,100,0,0,0,0,0,0,98,3.884,3.897,3.914,3.922,3.928,3.92,0,32,9900.7630799478,79.396328,6,P-GPS,
14800,2023-10-11 00:53:50,38.4978083343703,-112.063992400768,79.396328,,,9900.7630799478,27.88714,32.3461524,192.46555734,196.236554836,23,5,0,9901.0911639478,79.724412,32.3461524,192.46555734,-21.25093,24.382646,0.223694,131, -17.9, 9.7,0,0,1684,1024,1024,1024,100,0,0,0,0,0,0,98,3.884,3.897,3.914,3.922,3.928,3.92,0,32,9900.7630799478,79.396328,6,P-GPS,
14900,2023-10-11 00:53:50,38.497799722418,-112.063980011082,79.396328,,,9900.7630799478,27.88714,32.3461524,197.148300272,200.968182284,23,5,0,9901.0911639478,79.724412,32.3461524,197.148300272,-21.25093,24.382646,0.223694,131.1, -18.3, 9.7,0,0,1684,1024,1024,1024,100,0,0,0,0,0,0,98,3.884,3.897,3.914,3.922,3.928,3.92,0,32,9900.7630799478,79.396328,6,P-GPS,
15000,2023-10-11 00:53:50,38.4977911289617,-112.063967789105,79.396328,,,9900.7630799478,27.88714,32.659324,201.797250552,205.6594554,23,5,0,9901.0911639478,79.724412,32.659324,201.797250552,-21.474624,24.60634,0,131.2, -18.7, 9.3,0,0,1684,1024,1024,1024,100,0,0,0,0,0,0,98,3.884,3.897,3.914,3.922,3.928,3.92,0,32,9900.7630799478,79.396328,6,P-GPS,
15100,2023-10-11 00:53:50,38.4977817433246,-112.063954445594,79.396328,,,9900.7630799478,27.88714,32.8159098,206.875990872,210.78248706,23,5,0,9901.0911639478,79.724412,32.8159098,206.875990872,-21.698318,24.60634,0,131.2, -19.2, 8.8,0,0,1684,1036,1024,1024,100,2,0,0,0,0,0,98,3.884,3.897,3.914,3.922,3.928,3.92,0,32,9900.7630799478,79.396328,6,P-GPS,
15200,2023-10-11 00:53:50,38.4977729620988,-112.063942051225,79.396328,,,9900.7630799478,27.88714,32.8159098,211.61253958,215.55610926,23,5,0,9901.0911639478,79.724412,32.8159098,211.61253958,-21.698318,24.60634,0,131.3, -19.5, 8.5,0,0,1684,1035,1024,1024,100,2,0,0,0,0,0,98,3.884,3.897,3.914,3.922,3.928,3.92,0,32,9900.7630799478,79.396328,6,P-GPS,
15300,2023-10-11 00:53:50,38.4977638250629,-112.063929818175,79.396328,,,9900.7630799478,27.88714,33.1290814,216.41897018,220.384849572,23,5,0,9901.0911639478,79.724412,33.1290814,216.41897018,-21.922012,24.830034,0,131.4, -19.5, 8.1,0,0,1684,1024,1024,1024,100,0,0,0,0,0,0,98,3.884,3.897,3.914,3.922,3.928,3.92,0,32,9900.7630799478,79.396328,6,P-GPS,
15400,2023-10-11 00:53:50,38.497754870008,-112.063917318988,79.068244,,,9900.4349959478,27.88714,33.2632978,221.226056948,225.223432404,23,5,0,9901.0911639478,79.724412,33.2632978,221.226056948,-22.145706,24.830034,0,131.5, -19.2, 7.7,0,0,1684,1024,1024,1024,100,0,0,0,0,0,0,98,3.884,3.897,3.914,3.922,3.928,3.92,0,32,9900.4349959478,79.068244,6,P-GPS,
15500,2023-10-11 00:53:50,38.4977458598416,-112.063904792316,79.068244,,,9900.4349959478,27.88714,33.5764694,226.05479726,230.081372192,23,5,0,9901.0911639478,79.724412,33.5764694,226.05479726,-22.3694,25.053728,0,131.5, -18.9, 7.3,0,0,1684,1024,1024,1024,100,0,0,0,0,0,0,98,3.884,3.897,3.914,3.922,3.928,3.92,0,32,9900.4349959478,79.068244,6,P-GPS,
15600,2023-10-11 00:53:50,38.4977367877818,-112.063892161132,79.068244,,,9900.4349959478,27.88714,33.7330552,230.921595316,234.976713556,23,5,0,9901.0911639478,79.724412,33.7330552,230.921595316,-22.593094,25.053728,0,131.6, -18.6, 7,0,0,1684,1024,1024,1024,100,0,0,0,0,0,0,98,3.884,3.897,3.914,3.922,3.928,3.92,0,32,9900.4349959478,79.068244,6,P-GPS,
15700,2023-10-11 00:53:51,38.4977283399309,-112.063880601326,79.396328,,,9900.7630799478,27.88714,33.9120104,235.416018032,239.4931179,23,5,0,9901.0911639478,79.724412,33.9120104,235.416018032,-22.593094,25.277422,0,131.6, -18.6, 6.8,0,0,1684,1024,1024,1024,100,0,0,0,0,0,0,98,3.884,3.897,3.914,3.922,3.928,3.92,0,32,9900.7630799478,79.396328,6,P-GPS,
15800,2023-10-11 00:53:51,38.4977192461553,-112.063867940119,79.396328,,,9900.7630799478,27.88714,34.0685962,240.296595616,244.399942204,23,5,0,9901.0911639478,79.724412,34.0685962,240.296595616,-22.593094,25.501116,0,131.7, -18.5, 6.9,0,0,1684,1024,1024,1024,100,0,0,0,0,0,0,98,3.884,3.897,3.914,3.922,3.928,3.92,0,32,9900.7630799478,79.396328,6,P-GPS,
15900,2023-10-11 00:53:51,38.4977100533914,-112.063855357646,79.396328,,,9900.7630799478,27.88714,34.225182,245.189968476,249.314968608,23,5,0,9901.0911639478,79.724412,34.225182,245.189968476,-22.816788,25.501116,-0.223694,131.7, -18.6, 7.2,0,0,1684,1024,1024,1024,100,0,0,0,0,0,0,98,3.884,3.897,3.914,3.922,3.928,3.92,0,32,9900.7630799478,79.396328,6,P-GPS,
16000,2023-10-11 00:53:51,38.4977008860082,-112.063842611927,79.396328,,,9900.7630799478,27.88714,34.225182,250.108603804,254.257882152,23,5,0,9901.0911639478,79.724412,34.225182,250.108603804,-22.816788,25.501116,0,131.6, -18.9, 7.7,0,0,1684,1024,1024,1024,100,0,0,0,0,0,0,98,3.884,3.897,3.914,3.922,3.928,3.92,0,32,9900.7630799478,79.396328,6,P-GPS,
16100,2023-10-11 00:53:51,38.4976907661789,-112.063828672464,79.396328,,,9900.7630799478,27.88714,34.5383536,255.514115788,259.687016184,23,5,0,9901.0911639478,79.724412,34.5383536,255.514115788,-23.040482,25.72481,0,131.6, -19, 7.8,0,0,1684,1024,1024,1024,100,0,0,0,0,0,0,98,3.884,3.897,3.914,3.922,3.928,3.92,0,32,9900.7630799478,79.396328,6,P-GPS,
16200,2023-10-11 00:53:51,38.497681416849,-112.063815714702,79.396328,,,9900.7630799478,27.88714,34.5383536,260.524614636,264.71949666,23,5,0,9901.0911639478,79.724412,34.5383536,260.524614636,-23.040482,25.72481,0,131.7, -18.7, 7.6,0,0,1684,1024,1024,1024,100,0,0,0,0,0,0,98,3.884,3.897,3.914,3.922,3.928,3.92,0,32,9900.7630799478,79.396328,6,P-GPS,
16300,2023-10-11 00:53:51,38.4976722614882,-112.063802871737,79.396328,,,9900.7630799478,27.88714,34.8515252,265.4609665,269.68012674,23,5,0,9901.0911639478,79.724412,34.8515252,265.4609665,-23.264176,25.948504,0,131.9, -18.1, 7.5,0,0,1684,1024,1024,1024,100,0,0,0,0,0,0,98,3.884,3.897,3.914,3.922,3.928,3.92,0,32,9900.7630799478,79.396328,6,P-GPS,
16400,2023-10-11 00:53:51,38.4976628616023,-112.063789836511,79.396328,,,9900.7630799478,27.88714,34.8515252,270.501320992,274.741150524,23,5,0,9901.0911639478,79.724412,34.8515252,270.501320992,-23.264176,25.948504,0,131.9, -17.7, 7.2,0,0,1684,1027,1024,1024,100,0,0,0,0,0,0,98,3.884,3.897,3.914,3.922,3.928,3.92,0,32,9900.7630799478,79.396328,6,P-GPS,
16500,2023-10-11 00:53:51,38.4976534361301,-112.063776915468,79.396328,,,9900.7630799478,27.88714,35.008111,275.527567872,279.784785856,23,5,0,9901.0911639478,79.724412,35.008111,275.527567872,-23.264176,26.172198,0,132, -17.7, 7.2,0,0,1684,1033,1024,1024,100,1,0,0,0,0,0,98,3.884,3.897,3.914,3.922,3.928,3.92,0,32,9900.7630799478,79.396328,6,P-GPS,
16600,2023-10-11 00:53:51,38.4976440068902,-112.06376379363,79.396328,,,9900.7630799478,27.88714,35.008111,280.593841,284.871728276,23,5,0,9901.0911639478,79.724412,35.008111,280.593841,-23.264176,26.172198,0,131.9, -18, 7.4,0,0,1684,1077,1024,1024,100,8,0,0,0,0,0,98,3.884,3.897,3.914,3.922,3.928,3.92,0,32,9900.7630799478,79.396328,6,P-GPS,
16700,2023-10-11 00:53:51,38.4976345246281,-112.063750948958,79.396328,,,9900.7630799478,27.88714,35.008111,285.622056384,289.913395104,23,5,0,9901.0911639478,79.724412,35.008111,285.622056384,-23.48787,26.395892,0,131.7, -18.1, 7.9,0,0,1684,1077,1024,1024,100,8,0,0,0,0,0,98,3.884,3.897,3.914,3.922,3.928,3.92,0,32,9900.7630799478,79.396328,6,P-GPS,
16800,2023-10-11 00:53:52,38.497625058122,-112.063737778803,79.396328,,,9900.7630799478,27.88714,35.343652,290.708998804,295.01969448,23,5,0,9901.0911639478,79.724412,35.343652,290.708998804,-23.48787,26.395892,0,131.6, -17.9, 8.6,0,0,1684,1114,1024,1024,100,14,0,0,0,0,0,98,3.884,3.897,3.914,3.922,3.928,3.92,0,32,9900.7630799478,79.396328,6,P-GPS,
16900,2023-10-11 00:53:52,38.497616491485,-112.063725646326,79.396328,,,9900.7630799478,27.88714,35.343652,295.354668244,299.685377044,23,5,0,9901.0911639478,79.724412,35.343652,295.354668244,-23.48787,26.395892,0,131.7, -17.8, 9.1,0,0,1684,1113,1024,1024,100,13,0,0,0,0,0,98,3.884,3.897,3.914,3.922,3.928,3.92,0,32,9900.7630799478,79.396328,6,P-GPS,
17000,2023-10-11 00:53:52,38.4976070449136,-112.063712531884,79.396328,,,9900.7630799478,27.88714,35.1646968,300.426846884,304.774944136,23,5,0,9901.0911639478,79.724412,35.343652,300.426846884,-23.48787,26.172198,0,131.6, -17.6, 9.6,0,0,1684,1101,1024,1024,100,12,0,0,0,0,0,98,3.884,3.897,3.914,3.922,3.928,3.92,0,32,9900.7630799478,79.396328,6,P-GPS,
17100,2023-10-11 00:53:52,38.4975967130643,-112.063698317311,79.396328,,,9900.7630799478,27.88714,35.3212826,305.950141024,310.314314392,23,5,0,9901.0911639478,79.724412,35.343652,305.950141024,-23.711564,26.172198,0,131.5, -17.5, 9.9,0,0,1684,1108,1024,1024,100,13,0,0,0,0,0,98,3.884,3.897,3.914,3.922,3.928,3.92,0,32,9900.7630799478,79.396328,6,P-GPS,
17200,2023-10-11 00:53:52,38.4975870876973,-112.06368510374,79.396328,,,9900.7630799478,27.88714,35.3212826,311.090561136,315.468514032,23,5,0,9901.0911639478,79.724412,35.343652,311.090561136,-23.935258,26.172198,0,131.5, -17.3, 9.9,0,0,1684,1108,1024,1024,100,13,0,0,0,0,0,98,3.884,3.897,3.914,3.922,3.928,3.92,0,32,9900.7630799478,79.396328,6,P-GPS,
17300,2023-10-11 00:53:52,38.4975774266397,-112.06367194794,79.396328,,,9900.7630799478,27.88714,35.455499,316.229668912,320.620089,23,5,0,9901.0911639478,79.724412,35.455499,316.229668912,-23.935258,26.172198,0,131.6, -17.4, 9.6,0,0,1684,1076,1024,1024,100,8,0,0,0,0,0,98,3.884,3.897,3.914,3.922,3.928,3.92,0,32,9900.7630799478,79.396328,6,P-GPS,
17400,2023-10-11 00:53:52,38.4975676885835,-112.063658729555,79.396328,,,9900.7630799478,27.88714,35.455499,321.401913172,325.803488116,23,5,0,9901.0911639478,79.724412,35.455499,321.401913172,-23.935258,25.948504,0,131.7, -17.6, 9,0,0,1684,1075,1024,1024,100,8,0,0,0,0,0,98,3.884,3.897,3.914,3.922,3.928,3.92,0,32,9900.7630799478,79.396328,6,P-GPS,
17500,2023-10-11 00:53:52,38.4975581569985,-112.063645651133,79.396328,,,9900.7630799478,27.88714,35.455499,326.492136432,330.9055224,23,5,0,9901.0911639478,79.724412,35.455499,326.492136432,-24.158952,25.948504,0,131.6, -17.8, 8.5,0,0,1684,1060,1024,1024,100,5,0,0,0,0,0,98,3.884,3.897,3.914,3.922,3.928,3.92,0,32,9900.7630799478,79.396328,6,P-GPS,
