time(millisecond),datetime(utc),latitude,longitude,height_above_takeoff(feet),height_above_ground_at_drone_location(feet),ground_elevation_at_drone_location(feet),altitude_above_seaLevel(feet),height_sonar(feet),speed(mph),distance(feet),mileage(feet),satellites,gpslevel,voltage(v),max_altitude(feet),max_ascent(feet),max_speed(mph),max_distance(feet), xSpeed(mph), ySpeed(mph), zSpeed(mph), compass_heading(degrees), pitch(degrees), roll(degrees),isPhoto,isVideo,rc_elevator,rc_aileron,rc_throttle,rc_rudder,rc_elevator(percent),rc_aileron(percent),rc_throttle(percent),rc_rudder(percent),gimbal_heading(degrees),gimbal_pitch(degrees),gimbal_roll(degrees),battery_percent,voltageCell1,voltageCell2,voltageCell3,voltageCell4,voltageCell5,voltageCell6,current(A),battery_temperature(f),altitude(feet),ascent(feet),flycStateRaw,flycState,message
0,2023-10-11 00:25:14,38.4981873729155,-112.064438306963,0,Available with any HD 360 subscription,Available with any HD 360 subscription,9821.3242998467,0.656168,0,0,0,16,5,0,9821.3242998467,0,0,0,0,0,0,143.1, -5.3, -1.1,0,0,1024,1024,1024,1024,0,0,0,0,0,0,0,97,,,,,,,0,32,9821.3242998467,0,41,Motors_Started,
100,2023-10-11 00:25:14,38.4981874026466,-112.06443830213,0,,,9821.3242998467,0.656168,0,0.0109348100612,0.0109348100612,16,5,0,9821.3242998467,0,0,0.0109348100612,0,0,0,143, -5.3, -1.1,0,0,364,364,364,1684,-100,-100,-100,100,0,0,0,97,,,,,,,0,32,9821.3242998467,0,41,Motors_Started,
200,2023-10-11 00:25:14,38.4981873892274,-112.064438296987,0,,,9821.3242998467,0.656168,0,0.0065979660904,0.0160463587812,16,5,0,9821.3242998467,0,0,0.0109348100612,0,0,0,143.1, -5.3, -1.1,0,0,364,364,364,1684,-100,-100,-100,100,0,0,0,97,,,,,,,0,32,9821.3242998467,0,41,Motors_Started,
300,2023-10-11 00:25:14,38.4981874152318,-112.064438297688,0,,,9821.3242998467,0.656168,0,0.0156645674304,0.0255361556728,16,5,0,9821.3242998467,0,0,0.0156645674304,0,0,0,143, -5.3, -1.1,0,0,364,364,364,1684,-100,-100,-100,100,0,0,0,97,,,,,,,0,32,9821.3242998467,0,41,Motors_Started,
400,2023-10-11 00:25:14,38.4981874037774,-112.064438291294,0,,,9821.3242998467,0.656168,0,0.012116306162,0.0300967201232,16,5,0,9821.3242998467,0,0,0.0156645674304,0,0,0,143, -5.3, -1.1,0,0,364,364,364,1684,-100,-100,-100,100,0,0,0,97,,,,,,,0,32,9821.3242998467,0,41,Motors_Started,
500,2023-10-11 00:25:14,38.4981874258377,-112.06443845738,0,,,9821.3242998467,0.656168,0,0.047090880772,0.078199477568,16,5,0,9821.3242998467,0,0,0.047090880772,0,0,0,143, -5.3, -1.1,0,0,364,364,364,1684,-100,-100,-100,100,0,0,0,97,,,,,,,0,32,9821.3242998467,0,41,Motors_Started,
600,2023-10-11 00:25:15,38.4981874174268,-112.064438465795,0,,,9821.3242998467,0.656168,0,0.048173229888,0.082096787404,16,5,0,9821.3242998467,0,0,0.048173229888,0,0,0,143, -5.3, -1.1,0,0,364,364,364,1684,-100,-100,-100,100,0,0,0,97,,,,,,,0,32,9821.3242998467,0,41,Motors_Started,
700,2023-10-11 00:25:15,38.4981874353934,-112.064438284937,0,,,9821.3242998467,0.656168,0,0.0236467199168,0.134153875684,16,5,0,9821.3242998467,0,0,0.048173229888,0,0,0,143, -5.3, -1.1,0,0,533,393,441,1665,-74,-96,-88,97,0,0,0,97,,,,,,,0,32,9821.3242998467,0,41,Motors_Started,
800,2023-10-11 00:25:15,38.4981874287317,-112.064438276245,0,,,9821.3242998467,0.656168,0,0.0221731306308,0.137627629076,16,5,0,9821.3242998467,0,0,0.048173229888,0,0,0,143, -5.3, -1.1,0,0,1024,1024,1024,1024,0,0,0,0,0,0,0,97,,,,,,,0,32,9821.3242998467,0,41,Motors_Started,
900,2023-10-11 00:25:15,38.498187286076,-112.064438448878,0,,,9821.3242998467,0.656168,0,0.05143864994,0.209313326908,16,5,0,9821.3242998467,0,0,0.05143864994,0,0,0,143, -5.2, -1.1,0,0,1024,1024,1024,1024,0,0,0,0,0,0,0,97,,,,,,,0,32,9821.3242998467,0,41,Motors_Started,"Setting new Return-To-Home altitude to 152m (499 ft). Data Recorder File Index is 24. Setting new Maximum Flight Altitude to 244m (801 ft)"
1000,2023-10-11 00:25:15,38.4981872657924,-112.064438453517,0,,,9821.3242998467,0.656168,0,0.057260172436,0.216831371768,16,5,0,9821.3242998467,0,0,0.057260172436,0,0,0,143.1, -5.2, -1.1,0,0,1024,1024,1024,1024,0,0,0,0,0,0,0,97,,,,,,,0,32,9821.3242998467,0,41,Motors_Started,
1100,2023-10-11 00:25:15,38.498187297534,-112.064438441585,0,,,9821.3242998467,0.656168,0,0.047265749544,0.228903222548,16,5,0,9821.3242998467,0,0,0.057260172436,0,0,0,143, -5.3, -1.1,0,0,1024,1024,1024,1024,0,0,0,0,0,0,0,97,,,,,,,0,32,9821.3242998467,0,41,Motors_Started,
1200,2023-10-11 00:25:15,38.4981872840579,-112.064438447737,0,,,9821.3242998467,0.656168,0,0.051641405852,0.234124351324,16,5,0,9821.3242998467,0,0,0.057260172436,0,0,0,143, -5.3, -1.1,0,0,1024,1024,1024,1024,0,0,0,0,0,0,0,97,,,,,,,0,32,9821.3242998467,0,41,Motors_Started,
1300,2023-10-11 00:25:15,38.4981873139658,-112.064438272045,0,,,9821.3242998467,0.656168,0,0.023706365588,0.285464576064,16,5,0,9821.3242998467,0,0,0.057260172436,0,0,0,143, -5.2, -1.1,0,0,1024,1024,1024,1024,0,0,0,0,0,0,0,97,,,,,,,0,32,9821.3242998467,0,41,Motors_Started,
1400,2023-10-11 00:25:15,38.4981873030008,-112.064438257567,0,,,9821.3242998467,0.656168,0,0.0291481636624,0.291217529004,16,5,0,9821.3242998467,0,0,0.057260172436,0,0,0,142.9, -5.3, -1.1,0,0,1024,1024,1024,1024,0,0,0,0,0,0,0,97,,,,,,,0,32,9821.3242998467,0,41,Motors_Started,
1500,2023-10-11 00:25:15,38.4981873331275,-112.064438437544,0,,,9821.3242998467,0.656168,0,0.040012796556,0.34376969604,16,5,0,9821.3242998467,0,0,0.057260172436,0,0,0,142.9, -5.2, -1.1,0,0,1024,1024,1024,1024,0,0,0,0,0,0,0,97,,,,,,,0,32,9821.3242998467,0,41,Motors_Started,
1600,2023-10-11 00:25:16,38.4981873260111,-112.064438443307,0,,,9821.3242998467,0.656168,0,0.042527232332,0.34684384312,16,5,0,9821.3242998467,0,0,0.057260172436,0,0,0,142.9, -5.2, -1.1,0,0,1024,1024,1024,1024,0,0,0,0,0,0,0,97,,,,,,,0,32,9821.3242998467,0,41,Motors_Started,
1700,2023-10-11 00:25:16,38.4981873469079,-112.064438276544,0,,,9821.3242998467,0.656168,0,0.0128638783644,0.39506891028,16,5,0,9821.3242998467,0,0,0.057260172436,0,0,0,142.9, -5.3, -1.1,0,0,1024,1024,1024,1024,0,0,0,0,0,0,0,97,,,,,,,0,32,9821.3242998467,0,41,Motors_Started,
1800,2023-10-11 00:25:16,38.4981873451341,-112.064438265578,0,,,9821.3242998467,0.656168,0,0.0155687012856,0.39826772928,16,5,0,9821.3242998467,0,0,0.057260172436,0,0,0,142.9, -5.3, -1.1,0,0,1024,1024,1024,1024,0,0,0,0,0,0,0,97,,,,,,,0,32,9821.3242998467,0,41,Motors_Started,
1900,2023-10-11 00:25:16,38.4981873750323,-112.064438278285,0,,,9821.3242998467,0.656168,0,0.008224901838,0.40976379264,16,5,0,9821.3242998467,0,0,0.057260172436,0,0,0,142.9, -5.3, -1.1,0,0,1024,1024,1024,1024,0,0,0,0,0,0,0,97,,,,,,,0,32,9821.3242998467,0,41,Motors_Started,
2000,2023-10-11 00:25:16,38.4981873773965,-112.064438270482,0,,,9821.3242998467,0.656168,0,0.0105441604424,0.41215224416,16,5,0,9821.3242998467,0,0,0.057260172436,0,0,0,142.9, -5.2, -1.1,0,0,1024,1024,1024,1024,0,0,0,0,0,0,0,97,,,,,,,0,32,9821.3242998467,0,10,Assisted_Takeoff,
2100,2023-10-11 00:25:16,38.4981873805205,-112.064438280684,0,,,9821.3242998467,0.656168,0,0.008000164298,0.41527888468,16,5,0,9821.3242998467,0,0,0.057260172436,0,0,0,142.9, -5.3, -1.1,0,0,1024,1024,1024,1024,0,0,0,0,0,0,0,97,,,,,,,0,32,9821.3242998467,0,10,Assisted_Takeoff,
2200,2023-10-11 00:25:16,38.4981873845344,-112.064438272686,0,,,9821.3242998467,0.656168,0,0.0106660436484,0.41799213936,16,5,0,9821.3242998467,0,0,0.057260172436,0,0,0,142.9, -5.2, -1.1,0,0,1024,1024,1024,1024,0,0,0,0,0,0,0,97,,,,,,,0,32,9821.3242998467,0,10,Assisted_Takeoff,
2300,2023-10-11 00:25:16,38.4981873880217,-112.064438291276,0,,,9821.3242998467,0.656168,0,0.007102034348,0.42345145712,16,5,0,9821.3242998467,0,0,0.057260172436,0,0,0,142.9, -5.2, -1.1,0,0,1024,1024,1024,1024,0,0,0,0,0,0,0,97,,,,,,,0,32,9821.3242998467,0,10,Assisted_Takeoff,
2400,2023-10-11 00:25:16,38.4981873913328,-112.06443828582,0,,,9821.3242998467,0.656168,0,0.009033300814,0.42542324196,16,5,0,9821.3242998467,0,0,0.057260172436,0,0,0,142.9, -5.3, -1.1,0,0,1024,1024,1024,1024,0,0,0,0,0,0,0,97,,,,,,,0,32,9821.3242998467,0,10,Assisted_Takeoff,
2500,2023-10-11 00:25:16,38.4981872221954,-112.064438302659,0,,,9821.3242998467,0.656168,0,0.055003938768,0.4873195694,16,5,0,9821.3242998467,0,0,0.057260172436,0,0,0,142.9, -5.2, -1.1,0,0,1024,1024,1024,1024,0,0,0,0,0,0,0,97,,,,,,,0,32,9821.3242998467,0,10,Assisted_Takeoff,
2600,2023-10-11 00:25:17,38.498187211414,-112.064438299621,0,,,9821.3242998467,0.656168,0,0.058960959892,0.49134844092,16,5,0,9821.3242998467,0,0,0.058960959892,0,0,0,142.9, -5.3, -1.1,0,0,1024,1024,1024,1024,0,0,0,0,0,0,0,97,,,,,,,0,32,9821.3242998467,0,10,Assisted_Takeoff,
2700,2023-10-11 00:25:17,38.4981872281182,-112.064438312156,0,,,9821.3242998467,0.656168,0,0.052850067308,0.49841537028,16,5,0,9821.3242998467,0,0,0.058960959892,0,0,0,142.9, -5.3, -1.1,0,0,1024,1024,1024,1024,0,0,0,0,0,0,0,97,,,,,,,0,32,9821.3242998467,0,10,Assisted_Takeoff,
2800,2023-10-11 00:25:17,38.4981872194471,-112.064438312659,0,,,9821.3242998467,0.656168,0,0.056016405992,0.50158466172,16,5,0,9821.3242998467,0,0,0.058960959892,0,0,0,142.9, -5.3, -1.1,0,0,1024,1024,1024,1024,0,0,0,0,0,0,0,97,,,,,,,0,32,9821.3242998467,0,10,Assisted_Takeoff,
2900,2023-10-11 00:25:17,38.4981872371512,-112.064438318171,0,,,9821.3242998467,0.656168,0,0.049636812612,0.50823164356,16,5,0,9821.3242998467,0,0,0.058960959892,0,0,0,142.9, -5.3, -1.1,0,0,1024,1024,1024,1024,0,0,0,0,0,0,0,97,,,,,,,0,32,9821.3242998467,0,10,Assisted_Takeoff,
3000,2023-10-11 00:25:17,38.4981872307658,-112.06443831864,0,,,9821.3242998467,0.656168,0,0.05197014602,0.5105643208,16,5,0,9821.3242998467,0,0,0.058960959892,0,0,0,142.9, -5.3, -1.1,0,0,1024,1024,1024,1024,0,0,0,0,0,0,0,97,,,,,,,0,32,9821.3242998467,0,10,Assisted_Takeoff,
3100,2023-10-11 00:25:17,38.4981872469006,-112.064438322483,0,,,9821.3242998467,0.656168,0,0.046189634024,0.5165518538,16,5,0,9821.3242998467,0,0,0.058960959892,0,0,0,142.9, -5.3, -1.1,0,0,1024,1024,1024,1024,0,0,0,0,0,0,0,97,,,,,,,0,32,9821.3242998467,0,10,Assisted_Takeoff,
3200,2023-10-11 00:25:17,38.4981872427851,-112.064438323516,0,,,9821.3242998467,0.656168,0,0.047712599952,0.51808400608,16,5,0,9821.3242998467,0,0,0.058960959892,0,0,0,142.9, -5.3, -1.1,0,0,1024,1024,1024,1024,0,0,0,0,0,0,0,97,,,,,,,0,32,9821.3242998467,0,10,Assisted_Takeoff,
3300,2023-10-11 00:25:17,38.4981872575472,-112.06443832028,0,,,9821.3242998467,0.656168,0,0.042263452796,0.52354660468,16,5,0,9821.3242998467,0,0,0.058960959892,0,0,0,142.9, -5.3, -1.1,0,0,1024,1024,1024,1024,0,0,0,0,0,0,0,97,,,,,,,0,32,9821.3242998467,0,10,Assisted_Takeoff,
3400,2023-10-11 00:25:17,38.4981872559569,-112.064438320983,0,,,9821.3242998467,0.656168,0,0.042859581424,0.5241634026,16,5,0,9821.3242998467,0,0,0.058960959892,0,0,0,142.9, -5.3, -1.1,0,0,1024,1024,1024,1024,0,0,0,0,0,0,0,97,,,,,,,0,32,9821.3242998467,0,10,Assisted_Takeoff,
3500,2023-10-11 00:25:17,38.4981872651552,-112.064438319988,0,,,9821.3242998467,0.656168,0,0.039491799164,0.52752954444,16,5,0,9821.3242998467,0,0,0.058960959892,0,0,0,142.9, -5.3, -1.1,0,0,1024,1024,1024,1024,0,0,0,0,0,0,0,97,,,,,,,0,32,9821.3242998467,0,10,Assisted_Takeoff,
3600,2023-10-11 00:25:17,38.4981872641246,-112.064438321523,0,,,9821.3242998467,0.656168,0,0.039909450096,0.52810697228,16,5,0,9821.3242998467,0,0,0.058960959892,0,0,0,142.9, -5.3, -1.1,0,0,1024,1024,1024,1024,0,0,0,0,0,0,0,97,,,,,,,0,32,9821.3242998467,0,10,Assisted_Takeoff,
3700,2023-10-11 00:25:18,38.498187109108,-112.064438322517,0,,,9821.3242998467,0.656168,0,0.096352365288,0.58466537304,16,5,0,9821.3242998467,0,0,0.096352365288,0,0,0,142.9, -5.3, -1.1,0,0,1024,1024,1024,1024,0,0,0,0,0,0,0,97,,,,,,,0,32,9821.3242998467,0,10,Assisted_Takeoff,
3800,2023-10-11 00:25:18,38.4981870951697,-112.064438325078,0,,,9821.3242998467,0.656168,0,0.101467194848,0.58980316848,16,5,0,9821.3242998467,0,0,0.101467194848,0,0,0,142.9, -5.2, -1.1,0,0,1024,1024,1024,1024,0,0,0,0,0,0,0,97,,,,,,,0,32,9821.3242998467,0,10,Assisted_Takeoff,
3900,2023-10-11 00:25:18,38.4981871222822,-112.064438322957,0,,,9821.3242998467,0.656168,0,0.091557417628,0.59971458612,16,5,0,9821.3242998467,0,0,0.101467194848,0,0,0,142.9, -5.2, -1.1,0,0,1024,1024,1130,1024,0,0,16,0,0,0,0,97,,,,,,,0,32,9821.3242998467,0,10,Assisted_Takeoff,
4000,2023-10-11 00:25:18,38.4981871110699,-112.064438325001,0,,,9821.3242998467,0.656168,0,0.095672903324,0.60384516368,16,5,0,9821.3242998467,0,0,0.101467194848,0,0,0,142.9, -5.3, -1.1,0,0,1024,1024,1265,1024,0,0,37,0,0,0,0,97,,,,,,,0,32,9821.3242998467,0,10,Assisted_Takeoff,
4100,2023-10-11 00:25:18,38.4981871338502,-112.064438325658,0,,,9821.3242998467,0.656168,0,0.087386157652,0.61215881224,16,5,0,9821.3242998467,0,0,0.101467194848,0,0,0,142.9, -5.3, -1.1,0,0,1024,1024,1387,1024,0,0,55,0,0,0,0,97,,,,,,,0,32,9821.3242998467,0,10,Assisted_Takeoff,
4200,2023-10-11 00:25:18,38.4981871262721,-112.064438329911,0,,,9821.3242998467,0.656168,0,0.090226052756,0.61518046588,16,5,0,9821.3242998467,0,0,0.101467194848,0,0,0,142.9, -5.2, -1.1,0,0,1024,1024,1684,1024,0,0,100,0,0,0,0,97,,,,,,,0,32,9821.3242998467,0,10,Assisted_Takeoff,
4300,2023-10-11 00:25:18,38.498187147239,-112.064438331988,0,,,9821.3242998467,0.656168,0,0.082647312356,0.6228510698,16,5,0,9821.3242998467,0,0,0.101467194848,0,0,0,142.9, -5.1, -1.1,0,0,1024,1024,1684,1024,0,0,100,0,0,0,0,97,,,,,,,0,32,9821.3242998467,0,10,Assisted_Takeoff,
4400,2023-10-11 00:25:18,38.4981871423571,-112.064438335139,0,,,9821.3242998467,0.656168,0,0.08450295546,0.62484910136,16,5,0,9821.3242998467,0,0,0.101467194848,0,0,0,142.9, -5.1, -1.1,0,0,1024,1024,1684,1024,0,0,100,0,0,0,0,97,,,,,,,0,32,9821.3242998467,0,10,Assisted_Takeoff,
4500,2023-10-11 00:25:18,38.4981871555649,-112.064438328729,0,,,9821.3242998467,0.656168,0,0.079543309632,0.630003301,16,5,0,9821.3242998467,0,0,0.101467194848,0,0,0,142.9, -5.1, -1.1,0,0,1024,1024,1684,1024,0,0,100,0,0,0,0,97,,,,,,,0,32,9821.3242998467,0,10,Assisted_Takeoff,
4600,2023-10-11 00:25:18,38.4981871520453,-112.064438329218,0,,,9821.3242998467,0.656168,0,0.080834648256,0.63129595196,16,5,0,9821.3242998467,0,0,0.101467194848,0,0,0,142.9, -5.1, -1.1,0,0,1024,1024,1684,1024,0,0,100,0,0,0,0,97,,,,,,,0,32,9821.3242998467,0,10,Assisted_Takeoff,
4700,2023-10-11 00:25:19,38.498187158685,-112.064438318959,0,,,9821.3242998467,0.656168,0,0.078236879144,0.63509516468,16,5,0,9821.3242998467,0,0,0.101467194848,0,0,0,142.9, -5.1, -1.1,0,0,1024,1024,1684,1024,0,0,100,0,0,0,0,97,,,,,,,0,32,9821.3242998467,0,10,Assisted_Takeoff,
4800,2023-10-11 00:25:19,38.4981871579994,-112.064438320847,0,,,9821.3242998467,0.656168,0,0.07851214162,0.63568899672,16,5,0,9821.3242998467,0,0,0.101467194848,0,0,0,142.9, -5, -1.1,0,0,1024,1024,1684,1024,0,0,100,0,0,0,0,97,,,,,,,0,32,9821.3242998467,0,10,Assisted_Takeoff,
4900,2023-10-11 00:25:19,38.4981869994071,-112.064438313142,0,,,9821.3242998467,0.656168,0,0.136285765516,0.69359254188,16,5,0,9821.3242998467,0,0,0.136285765516,0,0,0,142.8, -4.9, -1.2,0,0,1024,1024,1684,1024,0,0,100,0,0,0,0,97,,,,,,,0,32,9821.3242998467,0,10,Assisted_Takeoff,
5000,2023-10-11 00:25:19,38.4981869784914,-112.064438302616,0,,,9821.3242998467,0.656168,0,0.14391076576,0.70179464188,16,5,0,9821.3242998467,0,0,0.14391076576,0,0,0,142.7, -4.5, -1.1,0,0,1024,1024,1684,1024,0,0,100,0,0,0,0,97,,,,,,,0,32,9821.3242998467,0,10,Assisted_Takeoff,
5100,2023-10-11 00:25:19,38.4981869886475,-112.06443826249,0,,,9821.3242998467,0.656168,0,0.140773954636,0.71383860552,16,5,0,9821.3242998467,0,0,0.14391076576,0,0,0,142, -2.8, -0.9,0,0,1024,1024,1684,1024,0,0,100,0,0,0,0,97,,,,,,,0,32,9821.3242998467,0,10,Assisted_Takeoff,
5200,2023-10-11 00:25:19,38.4981869282742,-112.064438165363,0,,,9821.3242998467,0.656168,0,0.167189637896,0.74925527332,16,5,0,9821.3242998467,0,0,0.167189637896,0,0,-0.447388,140.8, -0.2, -0.2,0,0,1024,1024,1684,1024,0,0,100,0,0,0,0,97,,,,,,,0,32,9821.3242998467,0,6,P-GPS,
5300,2023-10-11 00:25:19,38.4981869075199,-112.064438058673,0,,,9821.3242998467,0.984252,0,0.1840059114,0.78064635044,16,5,0,9821.3242998467,0,0,0.1840059114,0,0,-0.894776,139.8, 2.3, -0.1,0,0,1024,1024,1684,1024,0,0,100,0,0,0,0,97,,,,,,,0,32,9821.3242998467,0,6,P-GPS,
5400,2023-10-11 00:25:19,38.4981868891592,-112.064437992617,0.328084,,,9821.6523838467,0.984252,0,0.198010833108,0.80066275528,16,5,0,9821.6523838467,0.328084,0,0.198010833108,0,0,-1.342164,139.3, 4.4, 0.2,0,0,1024,1024,1684,1024,0,0,100,0,0,0,0,97,,,,,,,0,32,9821.6523838467,0.328084,6,P-GPS,
5500,2023-10-11 00:25:19,38.4981870261216,-112.064438036847,0.328084,,,9821.6523838467,1.312336,0,0.148182747524,0.85220475168,16,5,0,9821.6523838467,0.328084,0,0.198010833108,0,0,-1.789552,139, 4.6, 0.9,0,0,1024,1024,1684,1024,0,0,100,0,0,0,0,97,,,,,,,0,32,9821.6523838467,0.328084,6,P-GPS,
5600,2023-10-11 00:25:19,38.4981871334018,-112.0644381477,0.656168,,,9821.9804678467,1.64042,0.3131716,0.098511158008,0.9025426798,16,5,0,9821.9804678467,0.656168,0.3131716,0.198010833108,0.223694,-0.223694,-2.23694,138.8, 4, 1.7,0,0,1024,1024,1684,1024,0,0,100,0,0,0,0,97,,,,,,,0,32,9821.9804678467,0.656168,6,P-GPS,
5700,2023-10-11 00:25:20,38.4981871876054,-112.064438151646,0.984252,,,9822.3085518467,1.968504,0.4921268,0.08085794222,0.92234911088,16,5,0,9822.3085518467,0.984252,0.4921268,0.198010833108,0.223694,-0.447388,-2.684328,139, 2.1, 2.3,0,0,1024,1024,1684,1024,0,0,100,0,0,0,0,97,,,,,,,0,32,9822.3085518467,0.984252,6,P-GPS,
5800,2023-10-11 00:25:20,38.4981873193343,-112.064438466864,1.64042,,,9822.9647198467,2.296588,0.7158208,0.049667324424,1.02438651572,16,5,0,9822.9647198467,1.64042,0.7158208,0.198010833108,0.223694,-0.671082,-3.131716,139.3, -0.3, 2,0,0,1024,1024,1684,1024,0,0,100,0,0,0,0,97,,,,,,,0,32,9822.9647198467,1.64042,6,P-GPS,
5900,2023-10-11 00:25:20,38.4981874441664,-112.064439058606,1.968504,,,9823.2928038467,2.952756,0.671082,0.216193904556,1.19938324048,16,5,0,9823.2928038467,1.968504,0.7158208,0.216193904556,0,-0.671082,-3.579104,139.6, -2.7, 0.6,0,0,1024,1024,1684,1024,0,0,100,0,0,0,0,97,,,,,,,0,32,9823.2928038467,1.968504,6,P-GPS,
6000,2023-10-11 00:25:20,38.4981875027792,-112.064439436343,2.624672,,,9823.9489718467,3.28084,0.671082,0.325946860824,1.30934387392,16,5,0,9823.9489718467,2.624672,0.7158208,0.325946860824,0,-0.671082,-4.026492,139.9, -4.2, -0.8,0,0,1024,1024,1684,1024,0,0,100,0,0,0,0,97,,,,,,,0,32,9823.9489718467,2.624672,6,P-GPS,
6100,2023-10-11 00:25:20,38.4981876664732,-112.064439821889,3.28084,,,9824.6051398467,3.937008,0.447388,0.4456364972,1.43458994092,16,5,0,9824.6051398467,3.28084,0.7158208,0.4456364972,0,-0.447388,-4.697574,140.1, -4.3, -2,0,0,1024,1024,1684,1024,0,0,100,0,0,0,0,97,,,,,,,0,32,9824.6051398467,3.28084,6,P-GPS,
6200,2023-10-11 00:25:20,38.4981876440089,-112.064440053488,3.937008,,,9825.2613078467,4.92126,0.223694,0.50841865144,1.50122708216,16,5,0,9825.2613078467,3.937008,0.7158208,0.50841865144,0,-0.223694,-5.368656,140.1, -3.4, -2.4,0,0,1024,1024,1684,1024,0,0,100,0,0,0,0,97,,,,,,,0,32,9825.2613078467,3.937008,6,P-GPS,
6300,2023-10-11 00:25:20,38.4981872204558,-112.064440366591,4.92126,,,9826.2455598467,5.577428,0.223694,0.59073492704,1.6797572716,16,5,0,9826.2455598467,4.92126,0.7158208,0.59073492704,0,-0.223694,-6.039738,140.2, -2, -2.1,0,0,1024,1024,1684,1024,0,0,100,0,0,0,0,97,,,,,,,0,32,9826.2455598467,4.92126,6,P-GPS,
6400,2023-10-11 00:25:20,38.4981871397421,-112.064440472853,5.905512,,,9827.2298118467,6.56168,0,0.62427495436,1.72204073752,16,5,0,9827.2298118467,5.905512,0.7158208,0.62427495436,0,0,-6.71082,140.4, -0.7, -1.9,0,0,1024,1024,1684,1024,0,0,100,0,0,0,0,97,,,,,,,0,32,9827.2298118467,5.905512,6,P-GPS,
6500,2023-10-11 00:25:20,38.4981870657509,-112.064440445198,6.889764,,,9828.2140638467,7.545932,0,0.62075461304,1.75016737884,16,5,0,9828.2140638467,6.889764,0.7158208,0.62427495436,0,0,-7.381902,140.6, 0, -1.8,0,0,1024,1024,1684,889,0,0,100,-20,0,0,0,97,,,,,,,0,32,9828.2140638467,6.889764,6,P-GPS,
6600,2023-10-11 00:25:20,38.4981870060444,-112.06444047651,7.874016,,,9829.1983158467,8.530184,0,0.63378939036,1.77371396752,16,5,0,9829.1983158467,7.874016,0.7158208,0.63378939036,0,0,-8.052984,140.6, -0.1, -1.6,0,0,1024,1024,1684,867,0,0,100,-24,0,0,0,97,,,,,,,0,32,9829.1983158467,7.874016,6,P-GPS,
6700,2023-10-11 00:25:21,38.4981868021958,-112.064440369374,9.186352,,,9830.5106518467,9.84252,0,0.62463256592,1.8541339176,16,5,0,9830.5106518467,9.186352,0.7158208,0.63378939036,0,0,-8.724066,140, -0.7, -1.1,0,0,1024,1024,1684,863,0,0,100,-24,0,0,0,97,,,,,,,0,32,9830.5106518467,9.186352,6,P-GPS,
6800,2023-10-11 00:25:21,38.4981867391917,-112.064440333274,10.498688,,,9831.8229878467,11.154856,0,0.62308400944,1.87932748796,16,5,0,9831.8229878467,10.498688,0.7158208,0.63378939036,0,0,-9.395148,139, -1.4, -0.6,0,0,1024,1024,1684,861,0,0,100,-25,0,0,0,97,,,,,,,0,32,9831.8229878467,10.498688,6,P-GPS,
6900,2023-10-11 00:25:21,38.4981869063522,-112.064440502546,12.139108,,,9833.4634078467,12.467192,0,0.64962928588,1.95714573192,16,5,0,9833.4634078467,12.139108,0.7158208,0.64962928588,0,0,-10.06623,137.7, -1.6, -0.4,0,0,1024,1024,1684,858,0,0,100,-25,0,0,0,97,,,,,,,0,32,9833.4634078467,12.139108,6,P-GPS,
7000,2023-10-11 00:25:21,38.4981868082998,-112.064440436924,13.451444,,,9834.7757438467,13.779528,0,0.64213256648,1.99752959148,16,5,0,9834.7757438467,13.451444,0.7158208,0.64962928588,0,0,-10.513618,136.3, -1.4, -0.7,0,0,1024,1024,1684,817,0,0,100,-31,0,0,0,97,,,,,,,0,32,9834.7757438467,13.451444,6,P-GPS,
7100,2023-10-11 00:25:21,38.4981868815757,-112.064440073642,15.091864,,,9836.4161638467,15.091864,0.223694,0.53536419036,2.10465229832,16,5,0,9836.4161638467,15.091864,0.7158208,0.64962928588,-0.223694,0,-10.961006,134.7, -1.1, -1.3,0,0,1024,1024,1684,810,0,0,100,-32,0,0,0,97,,,,,,,0,32,9836.4161638467,15.091864,6,P-GPS,
7200,2023-10-11 00:25:21,38.4981867849017,-112.064439919533,16.732284,,,9838.0565838467,16.732284,0,0.50798229972,2.16104665708,16,5,0,9838.0565838467,16.732284,0.7158208,0.64962928588,0,0,-11.408394,132.8, -0.6, -1.7,0,0,1024,1024,1684,805,0,0,100,-33,0,0,0,97,,,,,,,0,32,9838.0565838467,16.732284,6,P-GPS,
7300,2023-10-11 00:25:21,38.4981868804072,-112.064439518937,18.372704,,,9839.6970038467,18.04462,0,0.38993767652,2.28062343256,16,5,0,9839.6970038467,18.372704,0.7158208,0.64962928588,0,0.223694,-11.632088,130.8, -0.1, -2,0,0,1024,1024,1684,821,0,0,100,-31,0,0,0,97,,,,,,,0,32,9839.6970038467,18.372704,6,P-GPS,
7400,2023-10-11 00:25:21,38.4981868292441,-112.064439290414,20.013124,,,9841.3374238467,19.68504,0.223694,0.34380906612,2.34849416964,16,5,0,9841.3374238467,20.013124,0.7158208,0.64962928588,0,0.223694,-11.632088,128.7, 0, -2,0,0,1024,1024,1684,865,0,0,100,-24,0,0,0,97,,,,,,,0,32,9841.3374238467,20.013124,6,P-GPS,
7500,2023-10-11 00:25:21,38.4981865403633,-112.064439233598,21.981628,,,9843.3059278467,20.997376,0.223694,0.4028379394,2.455134593,16,5,0,9843.3059278467,21.981628,0.7158208,0.64962928588,0,0.223694,-11.855782,126.6, 0, -1.7,0,0,1024,1024,1684,923,0,0,100,-15,0,0,0,97,,,,,,,0,32,9843.3059278467,21.981628,6,P-GPS,
7600,2023-10-11 00:25:22,38.4981865142661,-112.064438993265,23.622048,,,9844.9463478467,22.637796,0.223694,0.3695210092,2.52441609128,16,5,0,9844.9463478467,23.622048,0.7158208,0.64962928588,0,0.223694,-11.855782,124.9, -0.2, -1.4,0,0,1024,1024,1684,976,0,0,100,-7,0,0,0,97,,,,,,,0,32,9844.9463478467,23.622048,6,P-GPS,
7700,2023-10-11 00:25:22,38.4981862999215,-112.064438657674,25.262468,,,9846.5867678467,24.278216,0.223694,0.40408793944,2.64810047844,16,5,0,9846.5867678467,25.262468,0.7158208,0.64962928588,0,0.223694,-11.855782,123.7, -0.6, -1.3,0,0,1024,1024,1684,999,0,0,100,-4,0,0,0,97,,,,,,,0,32,9846.5867678467,25.262468,6,P-GPS,
7800,2023-10-11 00:25:22,38.4981862754428,-112.064438362787,27.230972,,,9848.5552718467,25.918636,0.447388,0.40072835928,2.732775678,16,5,0,9848.5552718467,27.230972,0.7158208,0.64962928588,0,0.447388,-11.632088,122.8, -0.7, -1.2,0,0,1100,1024,1684,1024,12,0,100,0,0,0,0,97,,,,,,,0,32,9848.5552718467,27.230972,6,P-GPS,
7900,2023-10-11 00:25:22,38.4981861918982,-112.064437840751,28.871392,,,9850.1956918467,27.559056,0.447388,0.45098754724,2.884924633,16,5,0,9850.1956918467,28.871392,0.7158208,0.64962928588,0,0.447388,-11.632088,122.1, -0.6, -0.7,0,0,1627,1024,1684,1024,91,0,100,0,0,0,0,97,,,,,,,0,32,9850.1956918467,28.871392,6,P-GPS,
8000,2023-10-11 00:25:22,38.4981861645529,-112.064437471226,30.511812,,,9851.8361118467,29.199476,0.447388,0.501312352,2.99090888836,16,5,0,9851.8361118467,30.511812,0.7158208,0.64962928588,0,0.447388,-11.408394,121.8, -0.2, 0,0,0,1684,1024,1663,1024,100,0,97,0,0,0,0,97,,,,,,,0,32,9851.8361118467,30.511812,6,P-GPS,
8100,2023-10-11 00:25:22,38.4981863284449,-112.064437234368,32.480316,,,9853.8046158467,30.839896,0.447388,0.4888943726,3.0811844818,16,5,0,9853.8046158467,32.480316,0.7158208,0.64962928588,0,0.447388,-11.408394,121.6, -2.1, 0.7,0,0,1684,1024,1636,1024,100,0,93,0,0,0,0,97,,,,,,,0,32,9853.8046158467,32.480316,6,P-GPS,
8200,2023-10-11 00:25:22,38.4981862810808,-112.06443684937,34.120736,,,9855.4450358467,30.839896,0.447388,0.57611878484,3.19246729376,16,5,0,9855.4450358467,34.120736,0.7158208,0.64962928588,0,0.447388,-11.408394,121.4, -8.9, 1.5,0,0,1684,1024,1589,1024,100,0,86,0,0,0,0,97,,,,,,,0,32,9855.4450358467,34.120736,6,P-GPS,
8300,2023-10-11 00:25:22,38.4981862432102,-112.064436125589,35.761156,,,9857.0854558467,30.839896,0.447388,0.74689634936,3.399606408,16,5,0,9857.0854558467,35.761156,0.7158208,0.74689634936,-0.223694,0.894776,-11.1847,121.3, -17.1, 1.5,0,0,1684,1024,1586,1024,100,0,85,0,0,0,0,97,,,,,,,0,32,9857.0854558467,35.761156,6,P-GPS,
8400,2023-10-11 00:25:22,38.4981859715448,-112.064435374226,37.401576,,,9858.7258758467,30.839896,1.4987498,0.98116472956,3.6359253132,16,5,0,9858.7258758467,37.401576,1.4987498,0.98116472956,-0.671082,1.342164,-10.961006,121.3, -23.9, 0.9,0,0,1684,1024,1592,1024,100,0,86,0,0,0,0,97,,,,,,,0,32,9858.7258758467,37.401576,6,P-GPS,
8500,2023-10-11 00:25:22,38.4981856057345,-112.064434511587,39.041996,,,9860.3662958467,30.839896,1.4987498,1.26103022408,3.9160762408,16,5,0,9860.3662958467,39.041996,1.4987498,1.26103022408,-1.11847,2.23694,-10.513618,121.4, -28.4, 0.1,0,0,1684,1024,1586,1024,100,0,85,0,0,0,0,97,,,,,,,0,32,9860.3662958467,39.041996,6,P-GPS,
8600,2023-10-11 00:25:23,38.4981849388919,-112.064432951294,40.682416,,,9862.0067158467,30.839896,3.5119958,1.76841213008,4.423720614,16,5,0,9862.0067158467,40.682416,3.5119958,1.76841213008,-1.565858,3.131716,-10.06623,121.5, -29.6, 0,0,0,1684,1024,1576,1024,100,0,84,0,0,0,0,97,,,,,,,0,32,9862.0067158467,40.682416,6,P-GPS,
8700,2023-10-11 00:25:23,38.4981841355702,-112.064430590734,41.994752,,,9863.3190518467,30.839896,4.6080964,2.49992790152,5.1587271992,16,5,0,9863.3190518467,41.994752,4.6080964,2.49992790152,-2.23694,4.026492,-9.842536,121.4, -29, 0.1,0,0,1684,1024,1576,1024,100,0,84,0,0,0,0,97,,,,,,,0,32,9863.3190518467,41.994752,6,P-GPS,
8800,2023-10-11 00:25:23,38.4981830307166,-112.064428043661,43.635172,,,9864.9594718467,30.839896,4.6080964,3.3313977444,5.9902560972,16,5,0,9864.9594718467,43.635172,4.6080964,3.3313977444,-2.684328,4.921268,-9.395148,121.4, -27.2, 0.5,0,0,1684,1024,1576,1024,100,0,84,0,0,0,0,97,,,,,,,0,32,9864.9594718467,43.635172,6,P-GPS,
8900,2023-10-11 00:25:23,38.4981815207853,-112.064424652828,44.947508,,,9866.2718078467,30.839896,6.71082,4.4451773076,7.1042325108,16,5,0,9866.2718078467,44.947508,6.71082,4.4451773076,-3.35541,5.816044,-9.171454,121.3, -25.1, 0.7,0,0,1684,1024,1582,1024,100,0,85,0,0,0,0,97,,,,,,,0,32,9866.2718078467,44.947508,6,P-GPS,
9000,2023-10-11 00:25:23,38.4981799912399,-112.064421244682,46.259844,,,9867.5841438467,30.839896,7.5161184,5.5668308868,8.226050132,16,5,0,9867.5841438467,46.259844,7.5161184,5.5668308868,-3.802798,6.487126,-8.94776,121.4, -23.4, 0.7,0,0,1684,1024,1590,1024,100,0,86,0,0,0,0,97,,,,,,,0,32,9867.5841438467,46.259844,6,P-GPS,
9100,2023-10-11 00:25:23,38.4981782048068,-112.064417073548,47.57218,,,9868.8964798467,30.839896,8.3214168,6.924540904,9.5837601492,16,5,0,9868.8964798467,47.57218,8.3214168,6.924540904,-4.250186,7.158208,-8.724066,121.3, -22.3, 0.6,0,0,1684,1024,1632,1024,100,0,92,0,0,0,0,97,,,,,,,0,32,9868.8964798467,47.57218,6,P-GPS,
9200,2023-10-11 00:25:23,38.498176313164,-112.064412915054,48.884516,,,9870.2088158467,30.839896,9.1267152,8.2976708692,10.95718539,16,5,0,9870.2088158467,48.884516,9.1267152,8.2976708692,-4.697574,7.82929,-8.500372,121.2, -21.6, 0.5,0,0,1684,1024,1684,1024,100,0,100,0,0,0,0,97,,,,,,,0,32,9870.2088158467,48.884516,6,P-GPS,
9300,2023-10-11 00:25:23,38.4981741651531,-112.064408607625,50.196852,,,9871.5211518467,30.839896,9.8201666,9.7538717032,12.4155843868,16,5,0,9871.5211518467,50.196852,9.8201666,9.7538717032,-4.921268,8.500372,-8.500372,121.2, -21.3, 0.7,0,0,1684,1024,1684,1024,100,0,100,0,0,0,0,97,,,,,,,0,32,9871.5211518467,50.196852,6,P-GPS,
9400,2023-10-11 00:25:23,38.4981719108006,-112.064403761833,51.509188,,,9872.8334878467,30.839896,10.9386366,11.3632877652,14.025262916,15,5,0,9872.8334878467,51.509188,10.9386366,11.3632877652,-5.59235,9.395148,-8.724066,121.2, -21.2, 1.2,0,0,1684,1024,1684,1024,100,0,100,0,0,0,0,97,,,,,,,0,32,9872.8334878467,51.509188,6,P-GPS,
9500,2023-10-11 00:25:23,38.4981693395253,-112.064398463639,52.821524,,,9874.1458238467,30.839896,11.743935,13.1424544888,15.8053810832,15,5,0,9874.1458238467,52.821524,11.743935,13.1424544888,-6.039738,10.06623,-8.94776,121.2, -21.1, 1.6,0,0,1684,1024,1684,1024,100,0,100,0,0,0,0,97,,,,,,,0,32,9874.1458238467,52.821524,6,P-GPS,
9600,2023-10-11 00:25:23,38.4981666552742,-112.064392889883,54.13386,,,9875.4581598467,30.839896,11.743935,15.0105319764,17.6741147388,16,5,0,9875.4581598467,54.13386,11.743935,15.0105319764,-6.71082,10.737312,-9.395148,121.3, -21, 1.5,0,0,1684,1024,1684,1024,100,0,100,0,0,0,0,97,,,,,,,0,32,9875.4581598467,54.13386,6,P-GPS,
9700,2023-10-11 00:25:24,38.4981637262873,-112.064386986056,55.446196,,,9876.7704958467,30.839896,13.4663788,17.0052826964,19.6700793696,16,5,0,9876.7704958467,55.446196,13.4663788,17.0052826964,-7.158208,11.408394,-9.618842,121.3, -20.8, 1.1,0,0,1684,1024,1684,1024,100,0,100,0,0,0,0,97,,,,,,,0,32,9876.7704958467,55.446196,6,P-GPS,
9800,2023-10-11 00:25:24,38.4981606287872,-112.064380707043,56.758532,,,9878.0828318467,30.839896,14.2716772,19.1237867012,21.7894363928,16,5,0,9878.0828318467,56.758532,14.2716772,19.1237867012,-7.605596,12.079476,-10.06623,121.3, -20.6, 0.6,0,0,1684,1024,1684,1024,100,0,100,0,0,0,0,97,,,,,,,0,32,9878.0828318467,56.758532,6,P-GPS,
9900,2023-10-11 00:25:24,38.4981571884612,-112.064374120474,58.398952,,,9879.7232518467,30.839896,15.0769756,21.3820872984,24.0505585124,16,5,0,9879.7232518467,58.398952,15.0769756,21.3820872984,-8.052984,12.750558,-10.289924,121.3, -20.3, 0,0,0,1684,1024,1684,1024,100,0,100,0,0,0,0,97,,,,,,,0,32,9879.7232518467,58.398952,6,P-GPS,
10000,2023-10-11 00:25:24,38.498153724724,-112.064367165965,60.039372,,,9881.3636718467,30.839896,15.882274,23.7352041716,26.4043971704,16,5,0,9881.3636718467,60.039372,15.882274,23.7352041716,-8.500372,13.42164,-10.513618,121.4, -20.2, -0.3,0,0,1684,1024,1684,1024,100,0,100,0,0,0,0,97,,,,,,,0,32,9881.3636718467,60.039372,6,P-GPS,
10100,2023-10-11 00:25:24,38.4981500581209,-112.064359684236,61.679792,,,9883.0040918467,30.839896,16.6875724,26.2555454596,28.9250009256,16,5,0,9883.0040918467,61.679792,16.6875724,26.2555454596,-8.94776,14.092722,-10.737312,121.4, -20.1, -0.5,0,0,1684,1024,1684,1024,100,0,100,0,0,0,0,97,,,,,,,0,32,9883.0040918467,61.679792,6,P-GPS,
10200,2023-10-11 00:25:24,38.498146290164,-112.064352070085,62.992128,,,9884.3164278467,30.839896,17.3810238,28.8274615524,31.4973435276,16,5,0,9884.3164278467,62.992128,17.3810238,28.8274615524,-9.171454,14.763804,-10.961006,121.5, -20, -0.9,0,0,1684,1024,1684,1024,100,0,100,0,0,0,0,97,,,,,,,0,32,9884.3164278467,62.992128,6,P-GPS,
10300,2023-10-11 00:25:24,38.4981422362974,-112.064344025605,64.632548,,,9885.9568478467,30.839896,18.007367,31.5586624272,34.229331804,16,5,0,9885.9568478467,64.632548,18.007367,31.5586624272,-9.618842,15.211192,-10.961006,121.4, -19.7, -0.9,0,0,1684,1024,1684,1024,100,0,100,0,0,0,0,97,,,,,,,0,32,9885.9568478467,64.632548,6,P-GPS,
10400,2023-10-11 00:25:24,38.4981382004559,-112.064335801354,66.272968,,,9887.5972678467,30.839896,18.678449,34.330381676,37.00131352,16,5,0,9887.5972678467,66.272968,18.678449,34.330381676,-9.842536,15.882274,-11.1847,121.4, -19.2, -0.6,0,0,1684,1024,1684,1024,100,0,100,0,0,0,0,97,,,,,,,0,32,9887.5972678467,66.272968,6,P-GPS,
10500,2023-10-11 00:25:24,38.498133922363,-112.064327469834,67.913388,,,9889.2376878467,30.839896,19.1929452,37.174541872,39.846457968,16,5,0,9889.2376878467,67.913388,19.1929452,37.174541872,-10.06623,16.329662,-11.1847,121.4, -19.1, -0.3,0,0,1684,1024,1684,1024,100,0,100,0,0,0,0,97,,,,,,,0,32,9889.2376878467,67.913388,6,P-GPS,
10600,2023-10-11 00:25:24,38.4981296342258,-112.064318740771,69.553808,,,9890.8781078467,30.839896,19.796919,40.117127268,42.789371448,16,5,0,9890.8781078467,69.553808,19.796919,40.117127268,-10.513618,16.77705,-11.408394,121.4, -19.6, -0.1,0,0,1684,1024,1684,1024,100,0,100,0,0,0,0,97,,,,,,,0,32,9890.8781078467,69.553808,6,P-GPS,
10700,2023-10-11 00:25:25,38.4981252684778,-112.06430968069,71.522312,,,9892.8466118467,30.839896,20.2890458,43.155185108,45.827429288,16,5,0,9892.8466118467,71.522312,20.2890458,43.155185108,-10.737312,17.224438,-11.408394,121.4, -20.1, -0.2,0,0,1684,1024,1684,1024,100,0,100,0,0,0,0,97,,,,,,,0,32,9892.8466118467,71.522312,6,P-GPS,
10800,2023-10-11 00:25:25,38.498120735653,-112.064300428062,73.162732,,,9894.4870318467,30.839896,21.0943442,46.271983108,48.944227288,16,5,0,9894.4870318467,73.162732,21.0943442,46.271983108,-11.1847,17.89552,-11.1847,121.5, -20.4, -0.4,0,0,1684,1024,1684,1024,100,0,100,0,0,0,0,97,,,,,,,0,32,9894.4870318467,73.162732,6,P-GPS,
10900,2023-10-11 00:25:25,38.4981163054514,-112.064291632422,74.803152,,,9896.1274518467,30.839896,21.6088404,49.258203676,51.931104024,16,5,0,9896.1274518467,74.803152,21.6088404,49.258203676,-11.408394,18.342908,-11.1847,121.4, -20.1, -0.5,0,0,1684,1024,1684,1024,100,0,100,0,0,0,0,97,,,,,,,0,32,9896.1274518467,74.803152,6,P-GPS,
11000,2023-10-11 00:25:25,38.4981115833116,-112.064281908934,76.443572,,,9897.7678718467,30.839896,22.2799224,52.525920316,55.19849258,16,5,0,9897.7678718467,76.443572,22.2799224,52.525920316,-11.632088,19.01399,-11.408394,121.1, -19.6, -0.5,0,0,1684,1024,1684,1024,100,0,100,0,0,0,0,97,,,,,,,0,32,9897.7678718467,76.443572,6,P-GPS,
11100,2023-10-11 00:25:25,38.4981068075847,-112.064271784468,78.083992,,,9899.4082918467,30.839896,22.6825716,55.901248508,58.574148856,16,5,0,9899.4082918467,78.083992,22.6825716,55.901248508,-11.632088,19.461378,-11.1847,120.9, -19.1, -0.6,0,0,1684,1024,1684,1024,100,0,100,0,0,0,0,97,,,,,,,0,32,9899.4082918467,78.083992,6,P-GPS,
11200,2023-10-11 00:25:25,38.4981019772173,-112.064261556388,79.724412,,,9901.0487118467,30.839896,23.1746984,59.312009772,61.985238204,16,5,0,9901.0487118467,79.724412,23.1746984,59.312009772,-11.855782,19.908766,-11.1847,120.9, -18.7, -0.3,0,0,1684,1024,1646,1024,100,0,94,0,0,0,0,97,,,,,,,0,32,9901.0487118467,79.724412,6,P-GPS,
11300,2023-10-11 00:25:25,38.4980969099461,-112.064251014806,81.364832,,,9902.6891318467,30.839896,23.5549782,62.8444902,65.517718632,16,5,0,9902.6891318467,81.364832,23.5549782,62.8444902,-11.855782,20.356154,-11.1847,120.8, -18.5, 0.6,0,0,1684,1024,1599,1024,100,0,87,0,0,0,0,97,,,,,,,0,32,9902.6891318467,81.364832,6,P-GPS,
11400,2023-10-11 00:25:25,38.4980919628394,-112.064240353733,83.005252,,,9904.3295518467,30.839896,23.8681498,66.38287614,69.05676074,16,5,0,9904.3295518467,83.005252,23.8681498,66.38287614,-12.079476,20.579848,-11.1847,120.8, -18.4, 1.8,0,0,1684,1024,1549,1024,100,0,80,0,0,0,0,97,,,,,,,0,32,9904.3295518467,83.005252,6,P-GPS,
11500,2023-10-11 00:25:25,38.4980870158268,-112.064229560566,84.645672,,,9905.9699718467,30.839896,24.3602766,69.953742396,72.628283164,16,5,0,9905.9699718467,84.645672,24.3602766,69.953742396,-12.30317,21.027236,-10.961006,120.8, -18.7, 2.8,0,0,1684,1024,1470,1024,100,0,68,0,0,0,0,97,,,,,,,0,32,9905.9699718467,84.645672,6,P-GPS,
11600,2023-10-11 00:25:25,38.4980819692781,-112.064218653018,86.286092,,,9907.6103918467,30.839896,24.3602766,73.57119658,76.246393516,16,5,0,9907.6103918467,86.286092,24.3602766,73.57119658,-12.30317,21.027236,-10.513618,120.7, -20.2, 3,0,0,1684,1024,1317,1024,100,0,44,0,0,0,0,97,,,,,,,0,32,9907.6103918467,86.286092,6,P-GPS,
11700,2023-10-11 00:25:26,38.4980768777137,-112.06420756507,87.926512,,,9909.2508118467,30.839896,24.8524034,77.241472288,79.916997308,16,5,0,9909.2508118467,87.926512,24.8524034,77.241472288,-12.526864,21.474624,-9.842536,120.7, -22.8, 2.8,0,0,1684,1024,1246,1024,100,0,34,0,0,0,0,97,,,,,,,0,32,9909.2508118467,87.926512,6,P-GPS,
11800,2023-10-11 00:25:26,38.4980717173884,-112.064196390619,89.238848,,,9910.5631478467,30.839896,25.053728,80.945868732,83.62204992,16,5,0,9910.5631478467,89.238848,25.053728,80.945868732,-12.526864,21.698318,-9.171454,120.8, -25.3, 2.6,0,0,1684,1024,1208,1024,100,0,28,0,0,0,0,97,,,,,,,0,32,9910.5631478467,89.238848,6,P-GPS,
11900,2023-10-11 00:25:26,38.4980664523549,-112.064185281663,90.551184,,,9911.8754838467,30.839896,25.5458548,84.654202184,87.330383372,16,5,0,9911.8754838467,90.551184,25.5458548,84.654202184,-12.750558,22.145706,-8.276678,121, -27, 1.9,0,0,1684,1024,1163,1024,100,0,21,0,0,0,0,97,,,,,,,0,32,9911.8754838467,90.551184,6,P-GPS,
12000,2023-10-11 00:25:26,38.4980611355067,-112.064173738073,91.86352,,,9913.1878198467,30.839896,26.060351,88.478349288,91.15485856,16,5,0,9913.1878198467,91.86352,26.060351,88.478349288,-12.974252,22.593094,-7.381902,120.9, -27.5, 2.3,0,0,1684,1024,1055,1024,100,0,5,0,0,0,0,97,,,,,,,0,32,9913.1878198467,91.86352,6,P-GPS,
12100,2023-10-11 00:25:26,38.4980556615362,-112.06416182401,92.847772,,,9914.1720718467,30.839896,26.3511532,92.422575136,95.099740576,16,5,0,9914.1720718467,92.847772,26.3511532,92.422575136,-13.197946,22.816788,-6.487126,121, -26.6, 3.2,0,0,1684,1024,1031,1024,100,0,1,0,0,0,0,97,,,,,,,0,32,9914.1720718467,92.847772,6,P-GPS,
12200,2023-10-11 00:25:26,38.4980501946729,-112.064149886444,93.832024,,,9915.1563238467,30.839896,26.8656494,96.37139416,99.049215768,16,5,0,9915.1563238467,93.832024,26.8656494,96.37139416,-13.42164,23.264176,-5.59235,121.1, -24.7, 4,0,0,1684,1024,1024,1024,100,0,0,0,0,0,0,97,,,,,,,0,32,9915.1563238467,93.832024,6,P-GPS,
12300,2023-10-11 00:25:26,38.4980446881972,-112.064137850538,94.488192,,,9915.8124918467,30.839896,27.0446046,100.351709248,103.030187024,16,5,0,9915.8124918467,94.488192,27.0446046,100.351709248,-13.42164,23.48787,-4.697574,121.2, -23, 4.6,0,0,1684,1024,1024,1024,100,0,0,0,0,0,0,97,,,,,,,0,32,9915.8124918467,94.488192,6,P-GPS,
12400,2023-10-11 00:25:26,38.4980390821938,-112.064125669419,95.14436,,,9916.4686598467,30.839896,27.3577762,104.38648628,107.064964056,16,5,0,9916.4686598467,95.14436,27.3577762,104.38648628,-13.645334,23.711564,-3.802798,121.3, -22, 4.7,0,0,1684,1024,1024,1024,100,0,0,0,0,0,0,97,,,,,,,0,32,9916.4686598467,95.14436,6,P-GPS,
12500,2023-10-11 00:25:26,38.4980330996928,-112.064112285103,95.472444,,,9916.7967438467,30.839896,27.6709478,108.78609272,111.466210916,16,5,0,9916.7967438467,95.472444,27.6709478,108.78609272,-13.869028,23.935258,-2.908022,121.2, -22.1, 4.7,0,0,1684,1024,1024,1024,100,0,0,0,0,0,0,97,,,,,,,0,32,9916.7967438467,95.472444,6,P-GPS,
12600,2023-10-11 00:25:26,38.4980273668714,-112.064099849729,96.128612,,,9917.4529118467,30.839896,27.849903,112.907155844,115.58727404,16,5,0,9917.4529118467,96.128612,27.849903,112.907155844,-13.869028,24.158952,-2.23694,121, -22.7, 4.5,0,0,1684,1024,1024,1024,100,0,0,0,0,0,0,97,,,,,,,0,32,9917.4529118467,96.128612,6,P-GPS,
12700,2023-10-11 00:25:27,38.4980216471344,-112.064087452212,96.128612,,,9917.4529118467,30.839896,28.1630746,117.01607986,119.696854224,16,5,0,9917.4529118467,96.128612,28.1630746,117.01607986,-14.092722,24.382646,-1.342164,120.8, -23.2, 4.3,0,0,1684,1024,1024,1024,100,0,0,0,0,0,0,97,,,,,,,0,32,9917.4529118467,96.128612,6,P-GPS,
12800,2023-10-11 00:25:27,38.4980158022749,-112.064074786698,96.456696,,,9917.7809958467,30.839896,28.1630746,121.214242724,123.895017088,16,5,0,9917.7809958467,96.456696,28.1630746,121.214242724,-14.092722,24.60634,-0.894776,120.5, -23, 4,0,0,1684,1024,1024,1024,100,0,0,0,0,0,0,97,,,,,,,0,32,9917.7809958467,96.456696,6,P-GPS,
12900,2023-10-11 00:25:27,38.4980104411046,-112.064063332324,96.456696,,,9917.7809958467,30.839896,28.856526,125.025266468,127.706040832,16,5,0,9917.7809958467,96.456696,28.856526,125.025266468,-14.316416,25.053728,-0.447388,120.2, -21.9, 4,0,0,1684,1024,1024,1019,100,0,0,-1,0,0,0,97,,,,,,,0,32,9917.7809958467,96.456696,6,P-GPS,
13000,2023-10-11 00:25:27,38.4980045217813,-112.06405049875,96.456696,,,9917.7809958467,30.839896,29.1696976,129.278547444,131.959649892,16,5,0,9917.7809958467,96.456696,29.1696976,129.278547444,-14.54011,25.277422,0,120, -20.6, 4.3,0,0,1684,1024,1024,988,100,0,0,-5,0,0,0,97,,,,,,,0,32,9917.7809958467,96.456696,6,P-GPS,
13100,2023-10-11 00:25:27,38.4979979845867,-112.064036761336,96.78478,,,9918.1090798467,30.839896,29.4604998,133.869426856,136.550529304,16,5,0,9918.1090798467,96.78478,29.4604998,133.869426856,-14.763804,25.501116,0,119.9, -19.8, 4.8,0,0,1684,1024,1024,988,100,0,0,-5,0,0,0,97,,,,,,,0,32,9918.1090798467,96.78478,6,P-GPS,
13200,2023-10-11 00:25:27,38.4979918824435,-112.064023649765,96.456696,,,9917.7809958467,30.839896,29.7736714,138.22507004,140.906172488,16,5,0,9918.1090798467,96.78478,29.7736714,138.22507004,-14.987498,25.72481,0.223694,120.1, -19.7, 2.3,0,0,1684,1024,1024,988,100,0,0,-5,0,0,0,97,,,,,,,0,32,9917.7809958467,96.456696,6,P-GPS,
13300,2023-10-11 00:25:27,38.4979864500291,-112.064011599198,96.456696,,,9917.7809958467,30.839896,29.7736714,142.195542608,144.877301224,16,5,0,9918.1090798467,96.78478,29.7736714,142.195542608,-14.987498,25.948504,0.223694,119.7, -19.6, 0,0,0,1684,1024,1024,973,100,0,0,-8,0,0,0,97,,,,,,,0,32,9917.7809958467,96.456696,6,P-GPS,
13400,2023-10-11 00:25:27,38.4979803656112,-112.063998311384,96.456696,,,9917.7809958467,30.839896,30.3552758,146.590883956,149.27329874,16,5,0,9918.1090798467,96.78478,30.3552758,146.590883956,-14.987498,26.395892,0.223694,119.3, -19.6, -2,0,0,1684,1024,1024,978,100,0,0,-7,0,0,0,97,,,,,,,0,32,9917.7809958467,96.456696,6,P-GPS,
13500,2023-10-11 00:25:27,38.4979737498083,-112.063984034737,96.456696,,,9917.7809958467,30.839896,30.7355556,151.328416916,154.0108317,16,5,0,9918.1090798467,96.78478,30.7355556,151.328416916,-14.987498,26.84328,0.223694,118.7, -19.4, -4.1,0,0,1684,1024,1024,965,100,0,0,-9,0,0,0,97,,,,,,,0,32,9917.7809958467,96.456696,6,P-GPS,
13600,2023-10-11 00:25:27,38.4979676910966,-112.063970327782,96.456696,,,9917.7809958467,30.839896,30.7355556,155.82185538,158.505910584,16,5,0,9918.1090798467,96.78478,30.7355556,155.82185538,-14.763804,27.290668,0.223694,118, -19, -6.4,0,0,1684,1024,1024,917,100,0,0,-16,0,0,0,97,,,,,,,0,32,9917.7809958467,96.456696,6,P-GPS,
13700,2023-10-11 00:25:28,38.4979617563599,-112.063956195517,96.456696,,,9917.7809958467,30.839896,31.31716,160.396330592,163.085307056,16,5,0,9918.1090798467,96.78478,31.31716,160.396330592,-14.54011,27.738056,0.223694,117.1, -18.3, -8.9,0,0,1684,1024,1024,900,100,0,0,-19,0,0,0,97,,,,,,,0,32,9917.7809958467,96.456696,6,P-GPS,
13800,2023-10-11 00:25:28,38.4979559209539,-112.063942062507,96.456696,,,9917.7809958467,30.839896,31.31716,164.952761184,167.648299328,16,5,0,9918.1090798467,96.78478,31.31716,164.952761184,-14.092722,27.96175,0.223694,116.2, -16.6, -13.3,0,0,1684,1024,1024,943,100,0,0,-12,0,0,0,97,,,,,,,0,32,9917.7809958467,96.456696,6,P-GPS,
13900,2023-10-11 00:25:28,38.4979503597178,-112.063927884682,96.456696,,,9917.7809958467,30.839896,31.5184846,169.469493612,172.176514696,16,5,0,9918.1090798467,96.78478,31.5184846,169.469493612,-13.645334,28.409138,0,114.8, -15.1, -17.2,0,0,1684,1024,1024,979,100,0,0,-7,0,0,0,97,,,,,,,0,32,9917.7809958467,96.456696,6,P-GPS,
14000,2023-10-11 00:25:28,38.4979450594988,-112.06391333275,96.128612,,,9917.4529118467,30.839896,31.540854,174.03051738,176.759520092,16,5,0,9918.1090798467,96.78478,31.540854,174.03051738,-12.750558,28.856526,0,113.5, -15, -16.9,0,0,1684,1024,1024,1017,100,0,0,-1,0,0,0,97,,,,,,,0,32,9917.4529118467,96.128612,6,P-GPS,
14100,2023-10-11 00:25:28,38.4979401894676,-112.063898622257,96.128612,,,9917.4529118467,30.839896,31.6974398,178.552171068,181.32054386,16,5,0,9918.1090798467,96.78478,31.6974398,178.552171068,-12.079476,29.303914,0,112.6, -16.2, -13,0,0,1684,1024,1024,1024,100,0,0,0,0,0,0,97,,,,,,,0,32,9917.4529118467,96.128612,6,P-GPS,
14200,2023-10-11 00:25:28,38.4979354395922,-112.063883688297,96.456696,,,9917.7809958467,30.839896,31.6974398,183.108929744,185.92356238,16,5,0,9918.1090798467,96.78478,31.6974398,183.108929744,-11.408394,29.527608,0,112, -18.1, -5.9,0,0,1684,1024,1024,1024,100,0,0,0,0,0,0,97,,,,,,,0,32,9917.7809958467,96.456696,6,P-GPS,
14300,2023-10-11 00:25:28,38.4979311765402,-112.063868743397,96.456696,,,9917.7809958467,30.839896,31.8540256,187.582355084,190.465557276,16,5,0,9918.1090798467,96.78478,31.8540256,187.582355084,-11.408394,29.751302,0,111.2, -19.7, 1.6,0,0,1684,1024,1024,998,100,0,0,-4,0,0,0,97,,,,,,,0,32,9917.7809958467,96.456696,6,P-GPS,
14400,2023-10-11 00:25:28,38.4979265728695,-112.063853522249,96.456696,,,9917.7809958467,30.839896,31.8540256,192.188654444,195.125006244,16,5,0,9918.1090798467,96.78478,31.8540256,192.188654444,-11.408394,29.974996,0,110.8, -20.1, 7.4,0,0,1684,1024,1024,1003,100,0,0,-3,0,0,0,97,,,,,,,0,32,9917.7809958467,96.456696,6,P-GPS,
14500,2023-10-11 00:25:28,38.4979219813753,-112.063838227532,96.456696,,,9917.7809958467,30.839896,32.3685218,196.813982676,199.802499832,16,5,0,9918.1090798467,96.78478,32.3685218,196.813982676,-11.632088,30.19869,0,110.7, -19.4, 10.3,0,0,1684,1024,1024,995,100,0,0,-4,0,0,0,97,,,,,,,0,32,9917.7809958467,96.456696,6,P-GPS,
14600,2023-10-11 00:25:28,38.4979171831534,-112.063822848961,96.456696,,,9917.7809958467,30.839896,32.43563,201.49935028,204.529862188,16,5,0,9918.1090798467,96.78478,32.43563,201.49935028,-11.855782,30.19869,0,110.9, -18.4, 10.1,0,0,1684,1024,1024,999,100,0,0,-4,0,0,0,97,,,,,,,0,32,9917.7809958467,96.456696,6,P-GPS,
14700,2023-10-11 00:25:29,38.4979122797265,-112.063807531661,96.456696,,,9917.7809958467,30.839896,32.5251076,206.189967228,209.25525604,16,5,0,9918.1090798467,96.78478,32.5251076,206.189967228,-12.079476,30.19869,0,111.3, -17.6, 6.9,0,0,1684,1024,1024,1024,100,0,0,0,0,0,0,97,,,,,,,0,32,9917.7809958467,96.456696,6,P-GPS,
14800,2023-10-11 00:25:29,38.4979073172663,-112.063792104291,96.456696,,,9917.7809958467,30.839896,32.8159098,210.919954256,214.018051468,16,5,0,9918.1090798467,96.78478,32.8159098,210.919954256,-12.30317,30.422384,0,111.4, -17.6, 3.1,0,0,1684,1024,1024,994,100,0,0,-5,0,0,0,97,,,,,,,0,32,9917.7809958467,96.456696,6,P-GPS,
14900,2023-10-11 00:25:29,38.4979023006195,-112.063776611886,96.456696,,,9917.7809958467,30.839896,33.0172344,215.677172256,218.805453196,16,5,0,9918.1090798467,96.78478,33.0172344,215.677172256,-12.30317,30.646078,0,111.3, -18.3, 0.9,0,0,1684,1024,1024,1003,100,0,0,-3,0,0,0,97,,,,,,,0,32,9917.7809958467,96.456696,6,P-GPS,
15000,2023-10-11 00:25:29,38.4978973797583,-112.063760979651,96.456696,,,9917.7809958467,30.839896,33.1514508,220.45440338,223.616805056,16,5,0,9918.1090798467,96.78478,33.1514508,220.45440338,-12.079476,30.869772,0,110.9, -19.2, 0.5,0,0,1684,1024,1024,1010,100,0,0,-2,0,0,0,97,,,,,,,0,32,9917.7809958467,96.456696,6,P-GPS,
15100,2023-10-11 00:25:29,38.4978922305393,-112.06374539582,96.456696,,,9917.7809958467,30.839896,33.3527754,225.260177812,228.446857704,16,5,0,9918.1090798467,96.78478,33.3527754,225.260177812,-12.079476,31.093466,0,111, -19.9, -0.8,0,0,1684,1024,1024,1012,100,0,0,-2,0,0,0,97,,,,,,,0,32,9917.7809958467,96.456696,6,P-GPS,
15200,2023-10-11 00:25:29,38.4978874039909,-112.063729467119,96.456696,,,9917.7809958467,30.839896,33.3527754,230.097776392,233.324154448,16,5,0,9918.1090798467,96.78478,33.3527754,230.097776392,-11.855782,31.31716,0,111, -20, -2,0,0,1684,1024,1024,1012,100,0,0,-2,0,0,0,97,,,,,,,0,32,9917.7809958467,96.456696,6,P-GPS,
15300,2023-10-11 00:25:29,38.4978831465391,-112.063714701394,96.456696,,,9917.7809958467,30.839896,33.5317306,234.546267348,237.817592912,16,5,0,9918.1090798467,96.78478,33.5317306,234.546267348,-11.408394,31.540854,0,110.3, -19.2, 0,0,0,1684,1024,1024,986,100,0,0,-6,0,0,0,97,,,,,,,0,32,9917.7809958467,96.456696,6,P-GPS,
15400,2023-10-11 00:25:29,38.4978785565006,-112.063698554478,96.456696,,,9917.7809958467,30.839896,33.7554246,239.401582464,242.722776796,16,5,0,9918.1090798467,96.78478,33.7554246,239.401582464,-11.408394,31.764548,0,109.9, -18.2, 3.2,0,0,1684,1024,1024,1024,100,0,0,0,0,0,0,97,,,,,,,0,32,9917.7809958467,96.456696,6,P-GPS,
15500,2023-10-11 00:25:29,38.497873920359,-112.063681812923,96.456696,,,9917.7809958467,30.839896,33.889641,244.416674488,247.7936431,16,5,0,9918.1090798467,96.78478,33.889641,244.416674488,-11.1847,31.988242,0,110.3, -17.2, 3.8,0,0,1684,1024,1024,985,100,0,0,-6,0,0,0,97,,,,,,,0,32,9917.7809958467,96.456696,6,P-GPS,
15600,2023-10-11 00:25:29,38.4978694193414,-112.063665433307,96.78478,,,9918.1090798467,30.839896,34.0909656,249.319889868,252.750664256,16,5,0,9918.1090798467,96.78478,34.0909656,249.319889868,-11.1847,32.211936,-0.223694,110.2, -16.7, 6,0,0,1684,1024,1024,1007,100,0,0,-3,0,0,0,97,,,,,,,0,32,9918.1090798467,96.78478,6,P-GPS,
15700,2023-10-11 00:25:30,38.4978649063698,-112.063648897536,96.78478,,,9918.1090798467,30.839896,34.0238574,254.266412336,257.751320584,16,5,0,9918.1090798467,96.78478,34.0909656,254.266412336,-10.961006,32.211936,-0.223694,109.7, -17.4, 9.1,0,0,1684,1024,1024,1024,100,0,0,0,0,0,0,97,,,,,,,0,32,9918.1090798467,96.78478,6,P-GPS,
15800,2023-10-11 00:25:30,38.4978604967365,-112.063632458662,96.78478,,,9918.1090798467,30.839896,34.0238574,259.17323664,262.713263,16,5,0,9918.1090798467,96.78478,34.0909656,259.17323664,-10.961006,32.211936,0,109.4, -18.3, 11.3,0,0,1684,1024,1024,1017,100,0,0,-1,0,0,0,97,,,,,,,0,32,9918.1090798467,96.78478,6,P-GPS,
15900,2023-10-11 00:25:30,38.4978560326083,-112.063615904509,96.78478,,,9918.1090798467,30.839896,34.0238574,264.120415276,267.712935076,16,5,0,9918.1090798467,96.78478,34.0909656,264.120415276,-10.961006,32.211936,0,109.2, -18.8, 12.3,0,0,1684,1024,1024,1003,100,0,0,-3,0,0,0,97,,,,,,,0,32,9918.1090798467,96.78478,6,P-GPS,
16000,2023-10-11 00:25:30,38.4978515790297,-112.063599419594,96.78478,,,9918.1090798467,30.839896,34.0238574,269.05020546,272.692594028,16,5,0,9918.1090798467,96.78478,34.0909656,269.05020546,-11.1847,32.211936,0,109.1, -19.1, 11.8,0,0,1684,1024,1024,1010,100,0,0,-2,0,0,0,97,,,,,,,0,32,9918.1090798467,96.78478,6,P-GPS,
16100,2023-10-11 00:25:30,38.4978466781546,-112.063581487359,96.78478,,,9918.1090798467,30.839896,34.3146596,274.42422138,278.116478716,16,5,0,9918.1090798467,96.78478,34.3146596,274.42422138,-11.1847,32.43563,0.223694,109, -19, 10.6,0,0,1684,1024,1024,1018,100,0,0,-1,0,0,0,97,,,,,,,0,32,9918.1090798467,96.78478,6,P-GPS,
16200,2023-10-11 00:25:30,38.4978421403846,-112.063564762872,96.456696,,,9917.7809958467,30.839896,34.3146596,279.43242364,283.170612736,16,5,0,9918.1090798467,96.78478,34.3146596,279.43242364,-11.1847,32.43563,0,108.9, -18.8, 8,0,0,1684,1024,1024,942,100,0,0,-12,0,0,0,97,,,,,,,0,32,9917.7809958467,96.456696,6,P-GPS,
16300,2023-10-11 00:25:30,38.4978377965836,-112.063549400275,96.456696,,,9917.7809958467,30.839896,34.448876,284.063001216,287.834982964,16,5,0,9918.1090798467,96.78478,34.448876,284.063001216,-10.961006,32.659324,0,108.7, -18.7, 6.7,0,0,1684,1024,1024,880,100,0,0,-22,0,0,0,97,,,,,,,0,32,9917.7809958467,96.456696,6,P-GPS,
16400,2023-10-11 00:25:30,38.4978333600282,-112.063532615042,96.456696,,,9917.7809958467,30.839896,34.67257,289.073500064,292.89371016,16,5,0,9918.1090798467,96.78478,34.67257,289.073500064,-10.961006,32.883018,0,109, -18.4, 3.6,0,0,1684,1024,1024,877,100,0,0,-22,0,0,0,97,,,,,,,0,32,9917.7809958467,96.456696,6,P-GPS,
16500,2023-10-11 00:25:30,38.4978286565814,-112.063515478898,96.456696,,,9917.7809958467,30.839896,34.8067864,294.218185268,298.07907778,16,5,0,9918.1090798467,96.78478,34.8067864,294.218185268,-10.737312,33.106712,0,109.2, -18.1, -4.9,0,0,1684,1024,1024,887,100,0,0,-21,0,0,0,97,,,,,,,0,32,9917.7809958467,96.456696,6,P-GPS,
16600,2023-10-11 00:25:30,38.4978244687638,-112.063498425121,96.456696,,,9917.7809958467,30.839896,34.8067864,299.26018018,303.182752484,16,5,0,9918.1090798467,96.78478,34.8067864,299.26018018,-10.06623,33.330406,0,107.8, -14.5, -12.9,0,0,1684,1024,1024,883,100,0,0,-21,0,0,0,97,,,,,,,0,32,9917.7809958467,96.456696,6,P-GPS,
16700,2023-10-11 00:25:31,38.4978207233447,-112.063481165822,96.456696,,,9917.7809958467,30.839896,34.9410028,304.286098976,308.296925876,16,5,0,9918.1090798467,96.78478,34.9410028,304.286098976,-8.94776,33.777794,0,105.2, -10.9, -20.5,0,0,1684,1024,1024,888,100,0,0,-21,0,0,0,97,,,,,,,0,32,9917.7809958467,96.456696,6,P-GPS,
16800,2023-10-11 00:25:31,38.4978174276882,-112.06346383361,96.456696,,,9917.7809958467,30.839896,34.8515252,309.26182092,313.390101892,16,5,0,9918.1090798467,96.78478,34.9410028,309.26182092,-7.605596,34.001488,-0.223694,102, -7.8, -25.5,0,0,1684,1024,1024,926,100,0,0,-15,0,0,0,97,,,,,,,0,32,9917.7809958467,96.456696,6,P-GPS,
16900,2023-10-11 00:25:31,38.4978147828535,-112.063446294212,96.456696,,,9917.7809958467,30.839896,34.5383536,314.191939188,318.490495756,16,5,0,9918.1090798467,96.78478,34.9410028,314.191939188,-6.039738,34.001488,-0.223694,99.6, -6.1, -27,0,0,1684,1024,1024,950,100,0,0,-11,0,0,0,96,,,,,,,0,32,9917.7809958467,96.456696,6,P-GPS,
17000,2023-10-11 00:25:31,38.4978127222204,-112.063428911407,96.456696,,,9917.7809958467,30.839896,34.2922902,318.995417032,323.51050904,16,5,0,9918.1090798467,96.78478,34.9410028,318.995417032,-4.47388,34.001488,0,98.2, -6.7, -22.6,0,0,1684,1024,1024,987,100,0,0,-6,0,0,0,96,,,,,,,0,32,9917.7809958467,96.456696,6,P-GPS,
17100,2023-10-11 00:25:31,38.4978111161453,-112.063411409735,96.456696,,,9917.7809958467,30.839896,33.9343798,323.765758392,328.5433176,16,5,0,9918.1090798467,96.78478,34.9410028,323.765758392,-3.35541,33.777794,0,97.5, -9.4, -13.9,0,0,1684,1024,1024,1005,100,0,0,-3,0,0,0,96,,,,,,,0,32,9917.7809958467,96.456696,6,P-GPS,
17200,2023-10-11 00:25:31,38.4978099575038,-112.063394047937,96.78478,,,9918.1090798467,30.839896,33.8672716,328.43833072,333.51707104,16,5,0,9918.1090798467,96.78478,34.9410028,328.43833072,-2.460634,33.777794,0,97, -13.4, -2.5,0,0,1684,1024,1024,1024,100,0,0,0,0,0,0,96,,,,,,,0,32,9918.1090798467,96.78478,6,P-GPS,
17300,2023-10-11 00:25:31,38.4978091795387,-112.06337657909,96.78478,,,9918.1090798467,30.839896,34.0685962,333.09056184,338.51379036,16,5,0,9918.1090798467,96.78478,34.9410028,333.09056184,-2.23694,34.001488,0,96.1, -17.2, 10.1,0,0,1684,1024,1024,1024,100,0,0,0,0,0,0,96,,,,,,,0,32,9918.1090798467,96.78478,6,P-GPS,
17400,2023-10-11 00:25:31,38.4978081761614,-112.063359086083,96.78478,,,9918.1090798467,30.839896,34.0909656,337.7952864,343.52363304,16,5,0,9918.1090798467,96.78478,34.9410028,337.7952864,-2.460634,34.001488,0.223694,95.5, -18.6, 18.7,0,0,1684,1024,1024,1024,100,0,0,0,0,0,0,96,,,,,,,0,32,9918.1090798467,96.78478,6,P-GPS,
17500,2023-10-11 00:25:31,38.497806641125,-112.063340012973,96.78478,,,9918.1090798467,30.839896,34.560723,342.9954178,348.99607416,16,5,0,9918.1090798467,96.78478,34.9410028,342.9954178,-2.908022,34.448876,0.447388,95.2, -19.4, 21.9,0,0,1684,1024,1024,1024,100,0,0,0,0,0,0,96,,,,,,,0,32,9918.1090798467,96.78478,6,P-GPS,
17600,2023-10-11 00:25:31,38.4978051827445,-112.063322134219,96.456696,,,9917.7809958467,30.839896,34.560723,347.8838694,354.13058876,16,5,0,9918.1090798467,96.78478,34.9410028,347.8838694,-3.579104,34.67257,0.447388,96.1, -17.8, 19.5,0,0,1684,1024,1024,1024,100,0,0,0,0,0,0,96,,,,,,,0,32,9917.7809958467,96.456696,6,P-GPS,
17700,2023-10-11 00:25:32,38.497803116597,-112.063304071038,96.456696,,,9917.7809958467,30.839896,35.1646968,352.91339712,359.34384352,16,5,0,9918.1090798467,96.78478,35.1646968,352.91339712,-4.250186,34.896264,0.447388,97, -15.7, 13.7,0,0,1684,1024,1024,1024,100,0,0,0,0,0,0,96,,,,,,,0,32,9917.7809958467,96.456696,6,P-GPS,
17800,2023-10-11 00:25:32,38.4978012846644,-112.063285955076,96.128612,,,9917.4529118467,30.839896,35.4107602,357.92980148,364.55709828,16,5,0,9918.1090798467,96.78478,35.4107602,357.92980148,-4.47388,35.119958,0.223694,97.5, -13.8, 7.9,0,0,1684,1024,1024,1024,100,0,0,0,0,0,0,96,,,,,,,0,32,9917.4529118467,96.128612,6,P-GPS,
17900,2023-10-11 00:25:32,38.4977991627547,-112.063269505348,96.128612,,,9917.4529118467,30.839896,35.6344542,362.55250504,369.31759712,16,5,0,9918.1090798467,96.78478,35.6344542,362.55250504,-4.47388,35.343652,0,97.4, -12.9, 4.4,0,0,1684,1024,1024,1024,100,0,0,0,0,0,0,96,,,,,,,0,32,9917.4529118467,96.128612,6,P-GPS,
18000,2023-10-11 00:25:32,38.4977973819603,-112.063251421685,96.128612,,,9917.4529118467,30.839896,35.5897154,367.56234772,374.5242902,16,5,0,9918.1090798467,96.78478,35.6344542,367.56234772,-4.250186,35.343652,0,97, -13, 3.6,0,0,1684,1024,1024,1024,100,0,0,0,0,0,0,96,,,,,,,0,32,9917.4529118467,96.128612,6,P-GPS,
18100,2023-10-11 00:25:32,38.4977954564513,-112.063231654194,96.128612,,,9917.4529118467,30.839896,35.79104,373.04463136,380.20998592,16,5,0,9918.1090798467,96.78478,35.79104,373.04463136,-4.026492,35.567346,0,96.5, -13.5, 5,0,0,1684,1024,1024,1024,100,0,0,0,0,0,0,96,,,,,,,0,32,9917.4529118467,96.128612,6,P-GPS,
18200,2023-10-11 00:25:32,38.4977938024235,-112.063213321068,96.128612,,,9917.4529118467,30.839896,35.7686706,378.11352916,385.4822958,16,5,0,9918.1090798467,96.78478,35.79104,378.11352916,-3.802798,35.567346,0,96.2, -13.8, 7.2,0,0,1684,1024,1024,1024,100,0,0,0,0,0,0,96,,,,,,,0,32,9917.4529118467,96.128612,6,P-GPS,
18300,2023-10-11 00:25:32,38.4977923252387,-112.063195086239,96.128612,,,9917.4529118467,30.839896,35.9923646,383.1364952,390.7152356,16,5,0,9918.1090798467,96.78478,35.9923646,383.1364952,-3.802798,35.79104,0,96.1, -13.6, 9,0,0,1684,1024,1048,1024,100,0,4,0,0,0,0,96,,,,,,,0,32,9917.4529118467,96.128612,6,P-GPS,
18400,2023-10-11 00:25:32,38.4977906672034,-112.063176625319,96.128612,,,9917.4529118467,30.839896,36.014734,388.25132476,396.02035388,16,5,0,9918.1090798467,96.78478,36.014734,388.25132476,-4.026492,35.79104,0,96.1, -13.3, 9.9,0,0,1684,1024,1113,1024,100,0,13,0,0,0,0,96,,,,,,,0,32,9917.4529118467,96.128612,6,P-GPS,
18500,2023-10-11 00:25:32,38.4977889526524,-112.063158246677,96.128612,,,9917.4529118467,30.839896,36.238428,393.3563118,401.30578712,16,5,0,9918.1090798467,96.78478,36.238428,393.3563118,-4.026492,36.014734,0,96.3, -13, 9.7,0,0,1684,1024,1192,1024,100,0,25,0,0,0,0,96,,,,,,,0,32,9917.4529118467,96.128612,6,P-GPS,
18600,2023-10-11 00:25:32,38.497787214399,-112.063139665315,96.128612,,,9917.4529118467,30.839896,36.2607974,398.5236348,406.65027548,16,5,0,9918.1090798467,96.78478,36.2607974,398.5236348,-4.250186,36.014734,0,96.7, -12.9, 9,0,0,1684,1024,1203,1024,100,0,27,0,0,0,0,96,,,,,,,0,32,9917.4529118467,96.128612,6,P-GPS,
18700,2023-10-11 00:25:33,38.4977854332278,-112.063121244658,96.128612,,,9917.4529118467,30.839896,36.4844914,403.6581494,411.94883208,16,5,0,9918.1090798467,96.78478,36.4844914,403.6581494,-4.250186,36.238428,0,97.2, -12.1, 8.6,0,0,1684,1024,1216,1024,100,0,29,0,0,0,0,96,,,,,,,0,32,9917.4529118467,96.128612,6,P-GPS,
18800,2023-10-11 00:25:33,38.4977836088307,-112.063102561585,96.128612,,,9917.4529118467,30.839896,36.5068608,408.87140416,417.32612884,16,5,0,9918.1090798467,96.78478,36.5068608,408.87140416,-4.47388,36.238428,0,97.5, -10.9, 8.6,0,0,1684,1024,1264,1024,100,0,36,0,0,0,0,96,,,,,,,0,32,9917.4529118467,96.128612,6,P-GPS,
18900,2023-10-11 00:25:33,38.4977815898139,-112.063084100927,96.128612,,,9917.4529118467,30.839896,36.7305548,414.05513136,422.64765132,16,5,0,9918.1090798467,96.78478,36.7305548,414.05513136,-4.47388,36.462122,-0.447388,97.7, -9.4, 8.5,0,0,1684,1024,1295,1024,100,0,41,0,0,0,0,96,,,,,,,0,32,9917.4529118467,96.128612,6,P-GPS,
