time(millisecond),datetime(utc),latitude,longitude,height_above_takeoff(feet),height_above_ground_at_drone_location(feet),ground_elevation_at_drone_location(feet),altitude_above_seaLevel(feet),height_sonar(feet),speed(mph),distance(feet),mileage(feet),satellites,gpslevel,voltage(v),max_altitude(feet),max_ascent(feet),max_speed(mph),max_distance(feet), xSpeed(mph), ySpeed(mph), zSpeed(mph), compass_heading(degrees), pitch(degrees), roll(degrees),isPhoto,isVideo,rc_elevator,rc_aileron,rc_throttle,rc_rudder,rc_elevator(percent),rc_aileron(percent),rc_throttle(percent),rc_rudder(percent),gimbal_heading(degrees),gimbal_pitch(degrees),gimbal_roll(degrees),battery_percent,voltageCell1,voltageCell2,voltageCell3,voltageCell4,voltageCell5,voltageCell6,current(A),battery_temperature(f),altitude(feet),ascent(feet),flycStateRaw,flycState,message
0,2023-10-09 20:54:46,38.4981285947739,-112.064395333618,0,Available with any HD 360 subscription,Available with any HD 360 subscription,9819.3947236694,0.656168,0,0,0,16,5,0,9819.3947236694,0,0,0,0,0,0,311.6, 8.6, 0.4,0,0,1024,1024,1024,1024,0,0,0,0,0,0,0,100,4.026,4.022,4.037,4.043,4.032,4.045,0,32,9819.3947236694,0,41,Motors_Started,
100,2023-10-09 20:54:46,38.4981285942879,-112.064395332727,0,,,9819.3947236694,0.656168,0,0.00031028380258,0.00031028380258,16,5,0,9819.3947236694,0,0,0.00031028380258,0,0,0,311.6, 8.6, 0.4,0,0,364,389,364,1674,-100,-96,-100,98,0,0,0,100,4.026,4.022,4.037,4.043,4.032,4.045,0,32,9819.3947236694,0,41,Motors_Started,
200,2023-10-09 20:54:46,38.4981285953923,-112.06439532897,0,,,9819.3947236694,0.656168,0,0.001346292694,0.00145609912796,16,5,0,9819.3947236694,0,0,0.001346292694,0,0,0,311.6, 8.6, 0.4,0,0,364,374,364,1679,-100,-98,-100,99,0,0,0,100,4.026,4.022,4.037,4.043,4.032,4.045,0,32,9819.3947236694,0,41,Motors_Started,
300,2023-10-09 20:54:46,38.4981285952926,-112.064395326662,0,,,9819.3947236694,0.656168,0,0.001995406888,0.00211626319108,16,5,0,9819.3947236694,0,0,0.001995406888,0,0,0,311.6, 8.6, 0.4,0,0,364,375,364,1676,-100,-98,-100,99,0,0,0,100,4.026,4.022,4.037,4.043,4.032,4.045,0,32,9819.3947236694,0,41,Motors_Started,"Setting new Return-To-Home altitude to 122m (400 ft). Data Recorder File Index is 19. Setting new Maximum Flight Altitude to 183m (600 ft)"
400,2023-10-09 20:54:46,38.4981285959221,-112.064395325768,0,,,9819.3947236694,0.656168,0,0.00228032815696,0.00245951123356,16,5,0,9819.3947236694,0,0,0.00228032815696,0,0,0,311.6, 8.6, 0.4,0,0,364,370,364,1676,-100,-99,-100,99,0,0,0,100,4.026,4.022,4.037,4.043,4.032,4.045,0,32,9819.3947236694,0,41,Motors_Started,
500,2023-10-09 20:54:46,38.4981285953838,-112.064395323155,0,,,9819.3947236694,0.656168,0,0.00299613854732,0.00323126978844,16,5,0,9819.3947236694,0,0,0.00299613854732,0,0,0,311.6, 8.6, 0.4,0,0,364,364,364,1677,-100,-100,-100,99,0,0,0,100,4.026,4.022,4.037,4.043,4.032,4.045,0,32,9819.3947236694,0,41,Motors_Started,
600,2023-10-09 20:54:46,38.4981285967845,-112.064395480448,0,,,9819.3947236694,0.656168,0,0.04193241604,0.04814796742,16,5,0,9819.3947236694,0,0,0.04193241604,0,0,0,311.6, 8.6, 0.4,0,0,364,364,364,1681,-100,-100,-100,100,0,0,0,100,4.026,4.022,4.037,4.043,4.032,4.045,0,32,9819.3947236694,0,41,Motors_Started,
700,2023-10-09 20:54:46,38.4981285960477,-112.064395490939,0,,,9819.3947236694,0.656168,0,0.044923885952,0.051155513448,16,5,0,9819.3947236694,0,0,0.044923885952,0,0,0,311.6, 8.6, 0.4,0,0,364,364,364,1684,-100,-100,-100,100,0,0,0,100,4.026,4.022,4.037,4.043,4.032,4.045,0,32,9819.3947236694,0,41,Motors_Started,
800,2023-10-09 20:54:47,38.4981287520044,-112.064395469532,0,,,9819.3947236694,0.656168,0,0.069259844736,0.108383533652,16,5,0,9819.3947236694,0,0,0.069259844736,0,0,0,311.6, 8.6, 0.4,0,0,489,508,688,1422,-81,-78,-51,60,0,0,0,100,4.026,4.022,4.037,4.043,4.032,4.045,0,32,9819.3947236694,0,41,Motors_Started,
900,2023-10-09 20:54:47,38.4981287657845,-112.064395477249,0,,,9819.3947236694,0.656168,0,0.07466535672,0.11387303514,16,5,0,9819.3947236694,0,0,0.07466535672,0,0,0,311.6, 8.6, 0.4,0,0,1024,1024,1024,1024,0,0,0,0,0,0,0,100,4.026,4.022,4.037,4.043,4.032,4.045,0,32,9819.3947236694,0,41,Motors_Started,
1000,2023-10-09 20:54:47,38.4981287381551,-112.064395301508,0,,,9819.3947236694,0.656168,0,0.053109909836,0.165056763812,16,5,0,9819.3947236694,0,0,0.07466535672,0,0,0,311.5, 8.6, 0.4,0,0,1024,1024,1024,1024,0,0,0,0,0,0,0,100,4.026,4.022,4.037,4.043,4.032,4.045,0,32,9819.3947236694,0,41,Motors_Started,
1100,2023-10-09 20:54:47,38.4981287473221,-112.064395289156,0,,,9819.3947236694,0.656168,0,0.057086616,0.169917656356,16,5,0,9819.3947236694,0,0,0.07466535672,0,0,0,311.6, 8.6, 0.4,0,0,1024,1024,1024,1024,0,0,0,0,0,0,0,100,4.026,4.022,4.037,4.043,4.032,4.045,0,32,9819.3947236694,0,41,Motors_Started,
1200,2023-10-09 20:54:47,38.4981287250637,-112.064395295929,0,,,9819.3947236694,0.656168,0,0.048739174788,0.178265425652,16,5,0,9819.3947236694,0,0,0.07466535672,0,0,0,311.8, 8.6, 0.4,0,0,1024,1024,1024,1024,0,0,0,0,0,0,0,100,4.026,4.022,4.037,4.043,4.032,4.045,0,32,9819.3947236694,0,41,Motors_Started,
1300,2023-10-09 20:54:47,38.498128732681,-112.064395284989,0,,,9819.3947236694,0.656168,0,0.052196195896,0.182446528148,16,5,0,9819.3947236694,0,0,0.07466535672,0,0,0,311.8, 8.6, 0.4,0,0,1024,1024,1024,1024,0,0,0,0,0,0,0,100,4.026,4.022,4.037,4.043,4.032,4.045,0,32,9819.3947236694,0,41,Motors_Started,
1400,2023-10-09 20:54:47,38.4981287104401,-112.064395447419,0,,,9819.3947236694,0.656168,0,0.053261812728,0.229531831492,16,5,0,9819.3947236694,0,0,0.07466535672,0,0,0,311.9, 8.6, 0.4,0,0,1024,1024,1024,1024,0,0,0,0,0,0,0,100,4.026,4.022,4.037,4.043,4.032,4.045,0,32,9819.3947236694,0,41,Motors_Started,
1500,2023-10-09 20:54:47,38.4981287138904,-112.064395450532,0,,,9819.3947236694,0.656168,0,0.05480151094,0.23107284204,16,5,0,9819.3947236694,0,0,0.07466535672,0,0,0,312, 8.6, 0.5,0,0,1024,1024,1024,1024,0,0,0,0,0,0,0,100,4.026,4.022,4.037,4.043,4.032,4.045,0,32,9819.3947236694,0,41,Motors_Started,
1600,2023-10-09 20:54:47,38.4981287324063,-112.064395450582,0,,,9819.3947236694,0.656168,0,0.060307416628,0.237828419684,16,5,0,9819.3947236694,0,0,0.07466535672,0,0,0,312, 8.6, 0.5,0,0,1024,1024,1024,1024,0,0,0,0,0,0,0,100,4.026,4.022,4.037,4.043,4.032,4.045,0,32,9819.3947236694,0,41,Motors_Started,
1700,2023-10-09 20:54:48,38.4981287370399,-112.064395455004,0,,,9819.3947236694,0.656168,0,0.062414372076,0.239938327888,16,5,0,9819.3947236694,0,0,0.07466535672,0,0,0,312, 8.6, 0.5,0,0,1024,1024,1024,1024,0,0,0,0,0,0,0,100,4.026,4.022,4.037,4.043,4.032,4.045,0,32,9819.3947236694,0,41,Motors_Started,
1800,2023-10-09 20:54:48,38.4981287379277,-112.064395294773,0,,,9819.3947236694,0.656168,0,0.053394358664,0.28569226636,16,5,0,9819.3947236694,0,0,0.07466535672,0,0,0,311.9, 8.7, 0.5,0,0,1024,1024,1024,1024,0,0,0,0,0,0,0,100,4.026,4.022,4.037,4.043,4.032,4.045,0,32,9819.3947236694,0,41,Motors_Started,
1900,2023-10-09 20:54:48,38.4981287417013,-112.064395285043,0,,,9819.3947236694,0.656168,0,0.055371720932,0.288792988244,16,5,0,9819.3947236694,0,0,0.07466535672,0,0,0,311.9, 8.6, 0.5,0,0,1024,1024,1024,1024,0,0,0,0,0,0,0,100,4.026,4.022,4.037,4.043,4.032,4.045,0,32,9819.3947236694,0,41,Motors_Started,
2000,2023-10-09 20:54:48,38.4981287334793,-112.064395301077,0,,,9819.3947236694,0.656168,0,0.051452429468,0.294266413616,16,5,0,9819.3947236694,0,0,0.07466535672,0,0,0,311.8, 8.6, 0.5,0,0,1024,1024,1024,1024,0,0,0,0,0,0,0,100,4.026,4.022,4.037,4.043,4.032,4.045,0,32,9819.3947236694,0,10,Assisted_Takeoff,
2100,2023-10-09 20:54:48,38.4981287337399,-112.064395290844,0,,,9819.3947236694,0.656168,0,0.05215223264,0.29718997014,16,5,0,9819.3947236694,0,0,0.07466535672,0,0,0,311.8, 8.6, 0.4,0,0,1024,1024,1024,1024,0,0,0,0,0,0,0,100,4.026,4.022,4.037,4.043,4.032,4.045,0,32,9819.3947236694,0,10,Assisted_Takeoff,
2200,2023-10-09 20:54:48,38.4981287175866,-112.064395306533,0,,,9819.3947236694,0.656168,0,0.04547080198,0.304592857516,16,5,0,9819.3947236694,0,0,0.07466535672,0,0,0,311.8, 8.6, 0.4,0,0,1024,1024,1024,1024,0,0,0,0,0,0,0,100,4.026,4.022,4.037,4.043,4.032,4.045,0,32,9819.3947236694,0,10,Assisted_Takeoff,
2300,2023-10-09 20:54:48,38.4981287158682,-112.064395296245,0,,,9819.3947236694,0.656168,0,0.045451773108,0.30759679462,16,5,0,9819.3947236694,0,0,0.07466535672,0,0,0,311.8, 8.6, 0.4,0,0,1024,1024,1024,1024,0,0,0,0,0,0,0,100,4.026,4.022,4.037,4.043,4.032,4.045,0,32,9819.3947236694,0,10,Assisted_Takeoff,
2400,2023-10-09 20:54:48,38.4981287095398,-112.064395460182,0,,,9819.3947236694,0.656168,0,0.055311025392,0.35446523444,16,5,0,9819.3947236694,0,0,0.07466535672,0,0,0,311.8, 8.6, 0.4,0,0,1024,1024,1024,1024,0,0,0,0,0,0,0,100,4.026,4.022,4.037,4.043,4.032,4.045,0,32,9819.3947236694,0,10,Assisted_Takeoff,
2500,2023-10-09 20:54:48,38.4981287079614,-112.06439546378,0,,,9819.3947236694,0.656168,0,0.055558400728,0.355643056,16,5,0,9819.3947236694,0,0,0.07466535672,0,0,0,311.8, 8.6, 0.4,0,0,1024,1024,1024,1024,0,0,0,0,0,0,0,100,4.026,4.022,4.037,4.043,4.032,4.045,0,32,9819.3947236694,0,10,Assisted_Takeoff,
2600,2023-10-09 20:54:48,38.4981287084152,-112.064395450179,0,,,9819.3947236694,0.656168,0,0.053167980704,0.35952757056,16,5,0,9819.3947236694,0,0,0.07466535672,0,0,0,311.8, 8.6, 0.4,0,0,1024,1024,1024,1024,0,0,0,0,0,0,0,100,4.026,4.022,4.037,4.043,4.032,4.045,0,32,9819.3947236694,0,10,Assisted_Takeoff,
2700,2023-10-09 20:54:48,38.4981287063042,-112.064395452355,0,,,9819.3947236694,0.656168,0,0.052965224792,0.36051838424,16,5,0,9819.3947236694,0,0,0.07466535672,0,0,0,311.8, 8.6, 0.4,0,0,1024,1024,1024,1024,0,0,0,0,0,0,0,100,4.026,4.022,4.037,4.043,4.032,4.045,0,32,9819.3947236694,0,10,Assisted_Takeoff,
2800,2023-10-09 20:54:49,38.4981287046937,-112.064395444663,0,,,9819.3947236694,0.656168,0,0.051124673552,0.36279200636,16,5,0,9819.3947236694,0,0,0.07466535672,0,0,0,311.8, 8.6, 0.5,0,0,1024,1024,1024,1024,0,0,0,0,0,0,0,100,4.026,4.022,4.037,4.043,4.032,4.045,0,32,9819.3947236694,0,10,Assisted_Takeoff,
2900,2023-10-09 20:54:49,38.4981287025637,-112.064395446527,0,,,9819.3947236694,0.656168,0,0.05085302,0.36373360744,16,5,0,9819.3947236694,0,0,0.07466535672,0,0,0,311.8, 8.6, 0.5,0,0,1024,1024,1024,1024,0,0,0,0,0,0,0,100,4.026,4.022,4.037,4.043,4.032,4.045,0,32,9819.3947236694,0,10,Assisted_Takeoff,
3000,2023-10-09 20:54:49,38.49812870518,-112.064395442597,0,,,9819.3947236694,0.656168,0,0.050901248348,0.3652067046,16,5,0,9819.3947236694,0,0,0.07466535672,0,0,0,311.8, 8.6, 0.5,0,0,1024,1024,1024,1024,0,0,0,0,0,0,0,100,4.026,4.022,4.037,4.043,4.032,4.045,0,32,9819.3947236694,0,10,Assisted_Takeoff,
3100,2023-10-09 20:54:49,38.4981287019123,-112.064395442343,0,,,9819.3947236694,0.656168,0,0.0499179806,0.36640093036,16,5,0,9819.3947236694,0,0,0.07466535672,0,0,0,311.8, 8.6, 0.4,0,0,1024,1024,1024,1024,0,0,0,0,0,0,0,100,4.026,4.022,4.037,4.043,4.032,4.045,0,32,9819.3947236694,0,10,Assisted_Takeoff,
3200,2023-10-09 20:54:49,38.4981287038012,-112.064395437747,0,,,9819.3947236694,0.656168,0,0.049662731248,0.36788387004,17,5,0,9819.3947236694,0,0,0.07466535672,0,0,0,311.8, 8.6, 0.4,0,0,1024,1024,1024,1024,0,0,0,0,0,0,0,100,4.026,4.022,4.037,4.043,4.032,4.045,0,32,9819.3947236694,0,10,Assisted_Takeoff,
3300,2023-10-09 20:54:49,38.4981287004715,-112.064395436075,0,,,9819.3947236694,0.656168,0,0.048405185276,0.36918964436,17,5,0,9819.3947236694,0,0,0.07466535672,0,0,0,311.8, 8.6, 0.4,0,0,1024,1024,1024,1024,0,0,0,0,0,0,0,100,4.026,4.022,4.037,4.043,4.032,4.045,0,32,9819.3947236694,0,10,Assisted_Takeoff,
3400,2023-10-09 20:54:49,38.4981288577547,-112.064395434187,0,,,9819.3947236694,0.656168,0,0.100153546512,0.42657809764,17,5,0,9819.3947236694,0,0,0.100153546512,0,0,0,311.8, 8.6, 0.4,0,0,1024,1024,1024,1024,0,0,0,0,0,0,0,100,4.026,4.022,4.037,4.043,4.032,4.045,0,32,9819.3947236694,0,10,Assisted_Takeoff,
3500,2023-10-09 20:54:49,38.4981288686161,-112.064395432711,0,,,9819.3947236694,0.656168,0,0.103840554504,0.4305610374,17,5,0,9819.3947236694,0,0,0.103840554504,0,0,0,311.8, 8.6, 0.4,0,0,1024,1024,1024,1024,0,0,0,0,0,0,0,100,4.026,4.022,4.037,4.043,4.032,4.045,0,32,9819.3947236694,0,10,Assisted_Takeoff,
3600,2023-10-09 20:54:49,38.4981288478851,-112.064395587345,0,,,9819.3947236694,0.656168,0,0.11737533184,0.4753609076,17,5,0,9819.3947236694,0,0,0.11737533184,0,0,0,311.7, 8.6, 0.4,0,0,1024,1024,1024,1024,0,0,0,0,0,0,0,100,4.026,4.022,4.037,4.043,4.032,4.045,0,32,9819.3947236694,0,10,Assisted_Takeoff,
3700,2023-10-09 20:54:49,38.4981288570371,-112.064395600427,0,,,9819.3947236694,0.656168,0,0.12231135562,0.48037075028,17,5,0,9819.3947236694,0,0,0.12231135562,0,0,0,311.7, 8.6, 0.4,0,0,1024,1024,1024,1024,0,0,0,0,0,0,0,100,4.026,4.022,4.037,4.043,4.032,4.045,0,32,9819.3947236694,0,10,Assisted_Takeoff,
3800,2023-10-09 20:54:50,38.498128839162,-112.064395579676,0,,,9819.3947236694,0.656168,0,0.113520016756,0.48917980568,17,5,0,9819.3947236694,0,0,0.12231135562,0,0,0,311.7, 8.6, 0.4,0,0,1024,1024,1024,1024,0,0,0,0,0,0,0,100,4.026,4.022,4.037,4.043,4.032,4.045,0,32,9819.3947236694,0,10,Assisted_Takeoff,
3900,2023-10-09 20:54:50,38.4981288459009,-112.064395589976,0,,,9819.3947236694,0.656168,0,0.117274281968,0.49301510764,17,5,0,9819.3947236694,0,0,0.12231135562,0,0,0,311.7, 8.6, 0.5,0,0,1024,1024,1024,1024,0,0,0,0,0,0,0,100,4.026,4.022,4.037,4.043,4.032,4.045,0,32,9819.3947236694,0,10,Assisted_Takeoff,
4000,2023-10-09 20:54:50,38.4981288288507,-112.064395724918,0,,,9819.3947236694,0.656168,0,0.140633534684,0.53204398028,17,5,0,9819.3947236694,0,0,0.140633534684,0,0,0,311.7, 8.6, 0.5,0,0,1024,1024,1024,1024,0,0,0,0,0,0,0,100,4.026,4.022,4.037,4.043,4.032,4.045,0,32,9819.3947236694,0,10,Assisted_Takeoff,
4100,2023-10-09 20:54:50,38.4981288318141,-112.06439574788,0,,,9819.3947236694,0.656168,0,0.146532485004,0.53869096212,17,5,0,9819.3947236694,0,0,0.146532485004,0,0,0,311.8, 8.6, 0.4,0,0,1024,1024,1024,1024,0,0,0,0,0,0,0,100,4.026,4.022,4.037,4.043,4.032,4.045,0,32,9819.3947236694,0,10,Assisted_Takeoff,
4200,2023-10-09 20:54:50,38.4981288219249,-112.064395709403,0,,,9819.3947236694,0.656168,0,0.135580713,0.55025264228,17,5,0,9819.3947236694,0,0,0.146532485004,0,0,0,311.7, 8.6, 0.4,0,0,1024,1024,1024,1024,0,0,0,0,0,0,0,100,4.026,4.022,4.037,4.043,4.032,4.045,0,32,9819.3947236694,0,10,Assisted_Takeoff,
4300,2023-10-09 20:54:50,38.4981288242725,-112.064395726014,0,,,9819.3947236694,0.656168,0,0.139875660644,0.55507547708,17,5,0,9819.3947236694,0,0,0.146532485004,0,0,0,311.7, 8.6, 0.5,0,0,1024,1024,1024,1024,0,0,0,0,0,0,0,100,4.026,4.022,4.037,4.043,4.032,4.045,0,32,9819.3947236694,0,10,Assisted_Takeoff,
4400,2023-10-09 20:54:50,38.4981288142306,-112.06439569174,0,,,9819.3947236694,0.656168,0,0.129875988408,0.56552495248,17,5,0,9819.3947236694,0,0,0.146532485004,0,0,0,311.7, 8.6, 0.4,0,0,1024,1024,1024,1024,0,0,0,0,0,0,0,100,4.026,4.022,4.037,4.043,4.032,4.045,0,32,9819.3947236694,0,10,Assisted_Takeoff,
4500,2023-10-09 20:54:50,38.4981288139179,-112.064395705391,0,,,9819.3947236694,0.656168,0,0.132898298216,0.5694225904,17,5,0,9819.3947236694,0,0,0.146532485004,0,0,0,311.7, 8.6, 0.4,0,0,1024,1024,1024,1024,0,0,0,0,0,0,0,100,4.026,4.022,4.037,4.043,4.032,4.045,0,32,9819.3947236694,0,10,Assisted_Takeoff,
4600,2023-10-09 20:54:50,38.4981288097313,-112.064395832867,0,,,9819.3947236694,0.656168,0,0.162705385784,0.6058563186,17,5,0,9819.3947236694,0,0,0.162705385784,0,0,0,311.7, 8.6, 0.5,0,0,1024,1024,1024,1024,0,0,0,0,0,0,0,100,4.026,4.022,4.037,4.043,4.032,4.045,0,32,9819.3947236694,0,10,Assisted_Takeoff,
4700,2023-10-09 20:54:50,38.4981288097892,-112.064395856828,0,,,9819.3947236694,0.656168,0,0.168742131384,0.61269687,17,5,0,9819.3947236694,0,0,0.168742131384,0,0,0,311.7, 8.6, 0.4,0,0,1024,1024,1024,1024,0,0,0,0,0,0,0,100,4.026,4.022,4.037,4.043,4.032,4.045,0,32,9819.3947236694,0,10,Assisted_Takeoff,
4800,2023-10-09 20:54:51,38.4981288080811,-112.064395810312,0,,,9819.3947236694,0.656168,0,0.156793640188,0.62599411452,17,5,0,9819.3947236694,0,0,0.168742131384,0,0,0,311.7, 8.6, 0.4,0,0,1024,1024,1281,1024,0,0,39,0,0,0,0,100,4.026,4.022,4.037,4.043,4.032,4.045,0,32,9819.3947236694,0,10,Assisted_Takeoff,
4900,2023-10-09 20:54:51,38.4981288068417,-112.064395828897,0,,,9819.3947236694,0.656168,0,0.161204401484,0.63131891784,17,5,0,9819.3947236694,0,0,0.168742131384,0,0,0,311.7, 8.6, 0.4,0,0,1024,1024,1624,1024,0,0,91,0,0,0,0,100,4.026,4.022,4.037,4.043,4.032,4.045,0,32,9819.3947236694,0,10,Assisted_Takeoff,
5000,2023-10-09 20:54:51,38.4981288045651,-112.064395790367,0,,,9819.3947236694,0.656168,0,0.151222773868,0.64235238276,17,5,0,9819.3947236694,0,0,0.168742131384,0,0,0,311.7, 8.6, 0.4,0,0,1024,1024,1684,1024,0,0,100,0,0,0,0,100,4.026,4.022,4.037,4.043,4.032,4.045,0,32,9819.3947236694,0,10,Assisted_Takeoff,
5100,2023-10-09 20:54:51,38.4981288035623,-112.064395805083,0,,,9819.3947236694,0.656168,0,0.154680779228,0.646571543,17,5,0,9819.3947236694,0,0,0.168742131384,0,0,0,311.7, 8.5, 0.4,0,0,1024,1024,1684,1024,0,0,100,0,0,0,0,100,4.026,4.022,4.037,4.043,4.032,4.045,0,32,9819.3947236694,0,10,Assisted_Takeoff,
5200,2023-10-09 20:54:51,38.4981288073171,-112.064395779758,0,,,9819.3947236694,0.656168,0,0.149137471964,0.65393046712,17,5,0,9819.3947236694,0,0,0.168742131384,0,0,0,311.6, 8.5, 0.4,0,0,1024,1024,1684,1029,0,0,100,1,0,0,0,100,4.026,4.022,4.037,4.043,4.032,4.045,0,32,9819.3947236694,0,10,Assisted_Takeoff,
5300,2023-10-09 20:54:51,38.4981288038164,-112.064395784952,0,,,9819.3947236694,0.656168,0,0.149751973296,0.6558891286,17,5,0,9819.3947236694,0,0,0.168742131384,0,0,0,311.6, 8.6, 0.5,0,0,1024,1024,1684,1060,0,0,100,5,0,0,0,100,4.026,4.022,4.037,4.043,4.032,4.045,0,32,9819.3947236694,0,10,Assisted_Takeoff,
5400,2023-10-09 20:54:51,38.49812880043,-112.06439575789,0,,,9819.3947236694,0.656168,0,0.142501316896,0.663713932,17,5,0,9819.3947236694,0,0,0.168742131384,0,0,0,311.6, 8.6, 0.5,0,0,1024,1024,1684,1067,0,0,100,7,0,0,0,100,4.026,4.022,4.037,4.043,4.032,4.045,0,32,9819.3947236694,0,10,Assisted_Takeoff,
5500,2023-10-09 20:54:51,38.4981287978036,-112.064395763316,0,,,9819.3947236694,0.656168,0,0.1433234954,0.6655347982,17,5,0,9819.3947236694,0,0,0.168742131384,0,0,0,311.6, 8.6, 0.5,0,0,1024,1024,1684,1087,0,0,100,10,0,0,0,100,4.026,4.022,4.037,4.043,4.032,4.045,0,32,9819.3947236694,0,10,Assisted_Takeoff,
5600,2023-10-09 20:54:51,38.4981287911332,-112.064395891547,0,,,9819.3947236694,0.656168,0,0.174679139448,0.7022309936,17,5,0,9819.3947236694,0,0,0.174679139448,0,0,0,311.7, 8.7, 0.5,0,0,1024,1024,1684,1100,0,0,100,12,0,0,0,100,4.026,4.022,4.037,4.043,4.032,4.045,0,32,9819.3947236694,0,10,Assisted_Takeoff,
5700,2023-10-09 20:54:51,38.4981287734754,-112.064395885101,0,,,9819.3947236694,0.656168,0,0.170435044824,0.70893374972,17,5,0,9819.3947236694,0,0,0.174679139448,0,0,0,311.7, 9, 0.6,0,0,1024,1024,1684,1117,0,0,100,14,0,0,0,100,4.026,4.022,4.037,4.043,4.032,4.045,0,32,9819.3947236694,0,10,Assisted_Takeoff,
5800,2023-10-09 20:54:52,38.4981287354354,-112.064395806982,0,,,9819.3947236694,0.656168,0,0.14458005712,0.7352034356,17,5,0,9819.3947236694,0,0,0.174679139448,0,0,0,311.1, 9.4, 0.7,0,0,1024,1024,1684,1117,0,0,100,14,0,0,0,100,4.026,4.022,4.037,4.043,4.032,4.045,0,32,9819.3947236694,0,10,Assisted_Takeoff,
5900,2023-10-09 20:54:52,38.4981286330272,-112.064395709893,0,,,9819.3947236694,0.656168,0.3131716,0.10834481974,0.78172902764,17,5,0,9819.3947236694,0,0.3131716,0.174679139448,-0.223694,0.223694,0,309.7, 9.9, 1.1,0,0,1024,1024,1684,1128,0,0,100,16,0,0,0,100,4.026,4.022,4.037,4.043,4.032,4.045,0,32,9819.3947236694,0,10,Assisted_Takeoff,
6000,2023-10-09 20:54:52,38.498128460619,-112.064395466137,0,,,9819.3947236694,0.656168,0.6263432,0.061867456048,0.87554464744,17,5,0,9819.3947236694,0,0.6263432,0.174679139448,-0.447388,0.447388,-0.223694,308.1, 9.8, 2,0,0,1024,1024,1684,1132,0,0,100,16,0,0,0,100,4.026,4.022,4.037,4.043,4.032,4.045,0,32,9819.3947236694,0,6,P-GPS,
6100,2023-10-09 20:54:52,38.4981282020417,-112.064395090977,0,,,9819.3947236694,0.656168,0.9395148,0.159159781996,1.01828743416,17,5,0,9819.3947236694,0,0.9395148,0.174679139448,-0.671082,0.671082,-0.671082,307.2, 7.4, 2.8,0,0,1024,1024,1684,1131,0,0,100,16,0,0,0,100,4.026,4.022,4.037,4.043,4.032,4.045,0,32,9819.3947236694,0,6,P-GPS,
6200,2023-10-09 20:54:52,38.4981279317219,-112.064394480785,0,,,9819.3947236694,0.984252,1.2974252,0.34325460416,1.21850069516,17,5,0,9819.3947236694,0,1.2974252,0.34325460416,-0.671082,1.11847,-1.11847,306.6, 2.3, 2.6,0,0,1024,1024,1684,1129,0,0,100,16,0,0,0,100,4.026,4.022,4.037,4.043,4.032,4.045,0,32,9819.3947236694,0,6,P-GPS,
6300,2023-10-09 20:54:52,38.4981276388593,-112.064393887194,0.328084,,,9819.7228076694,1.312336,1.2974252,0.54057088344,1.4188648748,17,5,0,9819.7228076694,0.328084,1.2974252,0.54057088344,-0.671082,1.11847,-1.565858,306.1, -2.9, 1.1,0,0,1024,1024,1684,1123,0,0,100,15,0,0,0,100,4.026,4.022,4.037,4.043,4.032,4.045,0,32,9819.7228076694,0.328084,6,P-GPS,
6400,2023-10-09 20:54:52,38.4981271930753,-112.064393349504,0.656168,,,9820.0508916694,1.64042,1.2974252,0.76322509004,1.64252629928,17,5,0,9820.0508916694,0.656168,1.2974252,0.76322509004,-0.447388,0.894776,-2.23694,305.8, -6.4, -1.3,0,0,1024,1024,1684,1112,0,0,100,13,0,0,0,100,4.026,4.022,4.037,4.043,4.032,4.045,0,32,9820.0508916694,0.656168,6,P-GPS,
6500,2023-10-09 20:54:52,38.4981269773325,-112.06439298957,0.984252,,,9820.3789756694,1.968504,0.6263432,0.8923228632,1.77198496484,17,5,0,9820.3789756694,0.984252,1.2974252,0.8923228632,-0.447388,0.447388,-2.684328,305.5, -7.2, -2.4,0,0,1024,1024,1684,1106,0,0,100,12,0,0,0,100,4.026,4.022,4.037,4.043,4.032,4.045,0,32,9820.3789756694,0.984252,6,P-GPS,
6600,2023-10-09 20:54:52,38.4981268451569,-112.0643928247,1.312336,,,9820.7070596694,2.296588,0.6263432,0.95954071312,1.83937669928,17,5,0,9820.7070596694,1.312336,1.2974252,0.95954071312,-0.223694,0,-3.131716,305.3, -5.9, -1.6,0,0,1024,1024,1684,1074,0,0,100,8,0,0,0,100,4.026,4.022,4.037,4.043,4.032,4.045,0,32,9820.7070596694,1.312336,6,P-GPS,
6700,2023-10-09 20:54:52,38.4981267161284,-112.064392888232,1.968504,,,9821.3632276694,2.952756,0.223694,0.97845475572,1.88982617596,17,5,0,9821.3632276694,1.968504,1.2974252,0.97845475572,-0.223694,0,-3.802798,305, -2.4, 0.5,0,0,1024,1024,1684,1049,0,0,100,4,0,0,0,100,4.026,4.022,4.037,4.043,4.032,4.045,0,32,9821.3632276694,1.968504,6,P-GPS,
6800,2023-10-09 20:54:53,38.4981264573576,-112.064393322749,2.624672,,,9822.0193956694,3.608924,0.223694,0.96841866616,2.0457349736,17,5,0,9822.0193956694,2.624672,1.2974252,0.97845475572,0,-0.223694,-4.250186,304.8, 1.1, 2.8,0,0,1024,1024,1684,1024,0,0,100,0,0,0,0,100,4.026,4.022,4.037,4.043,4.032,4.045,0,32,9822.0193956694,2.624672,6,P-GPS,
6900,2023-10-09 20:54:53,38.4981263904904,-112.064393428104,3.28084,,,9822.6755636694,4.265092,0,0.9709974064,2.08446857064,17,5,0,9822.6755636694,3.28084,1.2974252,0.97845475572,0,0,-4.921268,304.6, 3.6, 3.7,0,0,1024,1024,1684,680,0,0,100,-52,0,0,0,100,4.026,4.022,4.037,4.043,4.032,4.045,0,32,9822.6755636694,3.28084,6,P-GPS,
7000,2023-10-09 20:54:53,38.4981261393342,-112.064393394787,4.265092,,,9823.6598156694,4.92126,0,1.05312339328,2.17659455784,17,5,0,9823.6598156694,4.265092,1.2974252,1.05312339328,0,0,-5.59235,304.4, 4.3, 3,0,0,1024,1024,1684,594,0,0,100,-65,0,0,0,100,4.026,4.022,4.037,4.043,4.032,4.045,0,32,9823.6598156694,4.265092,6,P-GPS,
7100,2023-10-09 20:54:53,38.4981260738261,-112.064393229909,5.249344,,,9824.6440676694,5.905512,0,1.09854662308,2.22939311596,17,5,0,9824.6440676694,5.249344,1.2974252,1.09854662308,0,0.223694,-6.039738,303.1, 3.6, 1.6,0,0,1024,1024,1684,448,0,0,100,-87,0,0,0,100,4.026,4.022,4.037,4.043,4.032,4.045,0,32,9824.6440676694,5.249344,6,P-GPS,
7200,2023-10-09 20:54:53,38.4981260540592,-112.064392900079,6.233596,,,9825.6283196694,6.56168,0.447388,1.15850725492,2.32384849956,17,5,0,9825.6283196694,6.233596,1.2974252,1.15850725492,0,0.447388,-6.934514,300, 1.3, 0.3,0,0,1024,1024,1684,379,0,0,100,-98,0,0,0,100,4.026,4.022,4.037,4.043,4.032,4.045,0,32,9825.6283196694,6.233596,6,P-GPS,
7300,2023-10-09 20:54:53,38.4981259506247,-112.064392606198,7.217848,,,9826.6125716694,7.545932,0.447388,1.23983599768,2.41585965736,17,5,0,9826.6125716694,7.217848,1.2974252,1.23983599768,0,0.447388,-7.605596,294.6, -0.7, -0.2,0,0,1024,1024,1684,364,0,0,100,-100,0,0,0,100,4.026,4.022,4.037,4.043,4.032,4.045,0,32,9826.6125716694,7.217848,6,P-GPS,
7400,2023-10-09 20:54:53,38.4981258316629,-112.064392061393,8.530184,,,9827.9249076694,8.858268,0.447388,1.37452760304,2.57736556804,17,5,0,9827.9249076694,8.530184,1.2974252,1.37452760304,0,0.447388,-8.276678,287.2, -2, 0.4,0,0,1024,1024,1684,364,0,0,100,-100,0,0,0,100,4.026,4.022,4.037,4.043,4.032,4.045,0,32,9827.9249076694,8.530184,6,P-GPS,
7500,2023-10-09 20:54:53,38.4981257222482,-112.06439181877,9.84252,,,9829.2372436694,10.170604,0.223694,1.45109256612,2.65732291968,17,5,0,9829.2372436694,9.84252,1.2974252,1.45109256612,0,0.223694,-8.94776,278.6, -2.3, 1.1,0,0,1024,1024,1684,364,0,0,100,-100,0,0,0,100,4.026,4.022,4.037,4.043,4.032,4.045,0,32,9829.2372436694,9.84252,6,P-GPS,
7600,2023-10-09 20:54:53,38.49812618702,-112.064391654437,11.154856,,,9830.5495796694,11.154856,0.223694,1.36944558188,2.8332678072,17,5,0,9830.5495796694,11.154856,1.2974252,1.45109256612,0,0.223694,-9.618842,269.7, -2, 1,0,0,1024,1024,1684,364,0,0,100,-100,0,0,0,100,4.026,4.022,4.037,4.043,4.032,4.045,0,32,9830.5495796694,11.154856,6,P-GPS,
7700,2023-10-09 20:54:53,38.4981261905087,-112.064391469753,12.467192,,,9831.8619156694,12.467192,0.223694,1.4095144808,2.88601715272,17,5,0,9831.8619156694,12.467192,1.2974252,1.45109256612,0,0.223694,-10.289924,260.5, -1.6, 0.3,0,0,1024,1024,1664,364,0,0,97,-100,0,0,0,100,4.026,4.022,4.037,4.043,4.032,4.045,0,32,9831.8619156694,12.467192,6,P-GPS,
7800,2023-10-09 20:54:54,38.4981260576976,-112.064390739789,14.107612,,,9833.5023356694,14.107612,0.3131716,1.6054462456,3.10001322256,17,5,0,9833.5023356694,14.107612,1.2974252,1.6054462456,0.223694,0.223694,-10.961006,251.4, -1.6, -0.4,0,0,1024,1024,1614,364,0,0,89,-100,0,0,0,100,4.026,4.022,4.037,4.043,4.032,4.045,0,32,9833.5023356694,14.107612,6,P-GPS,
7900,2023-10-09 20:54:54,38.4981260732321,-112.064390542632,15.748032,,,9835.1427556694,15.419948,0.223694,1.64859585328,3.15659130836,17,5,0,9835.1427556694,15.748032,1.2974252,1.64859585328,0,0.223694,-11.1847,242.3, -2, -0.7,0,0,1114,1024,1568,364,14,0,82,-100,0,0,0,100,4.026,4.022,4.037,4.043,4.032,4.045,0,32,9835.1427556694,15.748032,6,P-GPS,
8000,2023-10-09 20:54:54,38.4981259847525,-112.06439027879,17.388452,,,9836.7831756694,17.060368,0,1.72919296872,3.23855653408,17,5,0,9836.7831756694,17.388452,1.2974252,1.72919296872,0,0,-11.632088,233.6, -2.4, -0.3,0,0,1314,1024,1461,487,44,0,66,-81,0,0,0,100,4.026,4.022,4.037,4.043,4.032,4.045,0,32,9836.7831756694,17.388452,6,P-GPS,
8100,2023-10-09 20:54:54,38.4981259873899,-112.064390152014,19.028872,,,9838.4235956694,18.372704,0,1.75899940012,3.27476716516,17,5,0,9838.4235956694,19.028872,1.2974252,1.75899940012,0,0,-11.632088,224.6, -2.7, 0.3,0,0,1477,1024,1438,427,69,0,63,-90,0,0,0,100,4.026,4.022,4.037,4.043,4.032,4.045,0,32,9838.4235956694,19.028872,6,P-GPS,
8200,2023-10-09 20:54:54,38.498125965952,-112.064390023523,20.997376,,,9840.3920996694,20.013124,0,1.79414047736,3.3122704472,17,5,0,9840.3920996694,20.997376,1.2974252,1.79414047736,0,0,-11.408394,216.4, -3.2, 0.2,0,0,1570,1024,1419,490,83,0,60,-81,0,0,0,100,4.026,4.022,4.037,4.043,4.032,4.045,0,32,9840.3920996694,20.997376,6,P-GPS,
8300,2023-10-09 20:54:54,38.4981259582966,-112.064389989227,22.637796,,,9842.0325196694,21.32546,0,1.80391409972,3.3224738596,17,5,0,9842.0325196694,22.637796,1.2974252,1.80391409972,0,0,-11.1847,208.7, -4.1, -0.8,0,0,1677,1030,1339,583,99,1,48,-67,0,0,0,100,4.026,4.022,4.037,4.043,4.032,4.045,0,32,9842.0325196694,22.637796,6,P-GPS,
8400,2023-10-09 20:54:54,38.4981261394369,-112.064390289534,23.950132,,,9843.3448556694,22.96588,0,1.6961614716,3.4307415796,17,5,0,9843.3448556694,23.950132,1.2974252,1.80391409972,0,0,-10.737312,201.6, -5.2, -2.3,0,0,1684,1051,1294,675,100,4,41,-53,0,0,0,100,4.026,4.022,4.037,4.043,4.032,4.045,0,32,9843.3448556694,23.950132,6,P-GPS,
8500,2023-10-09 20:54:54,38.4981260643119,-112.064390299672,25.590552,,,9844.9852756694,24.6063,0,1.70835963472,3.4583006356,17,5,0,9844.9852756694,25.590552,1.2974252,1.80391409972,0,0,-10.289924,195.7, -6.4, -3.4,0,0,1684,1083,1212,740,100,9,28,-43,0,0,0,100,4.026,4.022,4.037,4.043,4.032,4.045,0,32,9844.9852756694,25.590552,6,P-GPS,
8600,2023-10-09 20:54:54,38.4981249946712,-112.064390402799,27.230972,,,9846.6256956694,25.918636,0.223694,1.92551515348,3.8496720392,17,5,0,9846.6256956694,27.230972,1.2974252,1.92551515348,-0.223694,0,-9.842536,191.1, -7.6, -3.7,0,0,1684,1128,1188,699,100,16,25,-49,0,0,0,100,4.026,4.022,4.037,4.043,4.032,4.045,0,32,9846.6256956694,27.230972,6,P-GPS,
8700,2023-10-09 20:54:54,38.4981246802963,-112.064390342923,28.871392,,,9848.2661156694,27.230972,0.447388,2.01754927716,3.9656169248,17,5,0,9848.2661156694,28.871392,1.2974252,2.01754927716,-0.447388,0,-9.171454,187.5, -8.8, -3.2,0,0,1684,1134,1195,711,100,17,26,-47,0,0,0,100,4.026,4.022,4.037,4.043,4.032,4.045,0,32,9848.2661156694,28.871392,6,P-GPS,
8800,2023-10-09 20:54:55,38.4981244688199,-112.064390314407,29.855644,,,9849.2503676694,28.215224,0.671082,2.07849088016,4.0432087908,17,5,0,9849.2503676694,29.855644,1.2974252,2.07849088016,-0.671082,0,-8.500372,184.2, -9.6, -2.1,0,0,1684,1163,1146,789,100,21,18,-36,0,0,0,100,4.026,4.022,4.037,4.043,4.032,4.045,0,32,9849.2503676694,29.855644,6,P-GPS,
8900,2023-10-09 20:54:55,38.4981239893607,-112.064390184911,31.16798,,,9850.5627036694,29.52756,0.894776,2.23265427092,4.2220145708,17,5,0,9850.5627036694,31.16798,1.2974252,2.23265427092,-0.894776,0,-7.605596,181, -9.9, -1.1,0,0,1684,1187,1118,746,100,25,14,-42,0,0,0,100,4.026,4.022,4.037,4.043,4.032,4.045,0,32,9850.5627036694,31.16798,6,P-GPS,
9000,2023-10-09 20:54:55,38.498123544803,-112.064390147862,32.152232,,,9851.5469556694,29.52756,1.1408394,2.36375663732,4.3845473844,17,5,0,9851.5469556694,32.152232,1.2974252,2.36375663732,-1.11847,0.223694,-6.71082,178.2, -10, -0.4,0,0,1684,1189,1092,548,100,25,10,-72,0,0,0,100,4.026,4.022,4.037,4.043,4.032,4.045,0,32,9851.5469556694,32.152232,6,P-GPS,
9100,2023-10-09 20:54:55,38.4981228985547,-112.064389980158,33.136484,,,9852.5312076694,29.52756,1.3645334,2.57990165736,4.6251313816,17,5,0,9852.5312076694,33.136484,1.3645334,2.57990165736,-1.342164,0.223694,-5.816044,176, -10.1, 0,0,0,1684,1201,1059,539,100,27,5,-73,0,0,0,100,4.026,4.022,4.037,4.043,4.032,4.045,0,32,9852.5312076694,33.136484,6,P-GPS,
9200,2023-10-09 20:54:55,38.4981216684518,-112.064390205159,34.120736,,,9853.5154596694,29.52756,1.8119214,2.92069891236,5.0785106612,17,5,0,9853.5154596694,34.120736,1.8119214,2.92069891236,-1.789552,0.223694,-4.921268,173.4, -9.9, -0.2,0,0,1684,1209,1071,515,100,28,7,-77,0,0,0,100,4.026,4.022,4.037,4.043,4.032,4.045,0,32,9853.5154596694,34.120736,6,P-GPS,
9300,2023-10-09 20:54:55,38.4981208076843,-112.064390033802,34.776904,,,9854.1716276694,29.52756,2.0356154,3.21901585104,5.3963584404,17,5,0,9854.1716276694,34.776904,2.0356154,3.21901585104,-2.013246,0.223694,-4.026492,169.4, -9.2, -1.8,0,0,1684,1213,1066,603,100,29,6,-64,0,0,0,99,4.026,4.022,4.037,4.043,4.032,4.045,0,32,9854.1716276694,34.776904,6,P-GPS,
9400,2023-10-09 20:54:55,38.4981199699866,-112.064390177359,35.433072,,,9854.8277956694,29.52756,2.0579848,3.4741470928,5.704724592,17,5,0,9854.8277956694,35.433072,2.0579848,3.4741470928,-2.013246,0.447388,-3.131716,164.6, -8.3, -3.7,0,0,1684,1222,1057,700,100,30,5,-49,0,0,0,99,4.026,4.022,4.037,4.043,4.032,4.045,0,32,9854.8277956694,35.433072,6,P-GPS,
9500,2023-10-09 20:54:55,38.4981189931433,-112.064389919293,35.761156,,,9855.1558796694,29.52756,2.3264176,3.8291339808,6.0686681732,17,5,0,9855.1558796694,35.761156,2.3264176,3.8291339808,-2.23694,0.671082,-2.23694,159.8, -7.3, -5.2,0,0,1684,1239,1051,804,100,33,4,-33,0,0,0,99,4.026,4.022,4.037,4.043,4.032,4.045,0,32,9855.1558796694,35.761156,6,P-GPS,
9600,2023-10-09 20:54:55,38.4981176694163,-112.064389957776,36.08924,,,9855.4839636694,29.52756,2.6172198,4.2714568296,6.5517390548,17,5,0,9855.4839636694,36.08924,2.6172198,4.2714568296,-2.460634,0.894776,-1.342164,156, -6.9, -4.9,0,0,1684,1241,1038,954,100,33,2,-11,0,0,0,99,4.026,4.022,4.037,4.043,4.032,4.045,0,32,9855.4839636694,36.08924,6,P-GPS,
9700,2023-10-09 20:54:55,38.4981166037446,-112.064389526139,36.08924,,,9855.4839636694,29.52756,2.7066974,4.678641882,6.959645892,17,5,0,9855.4839636694,36.08924,2.7066974,4.678641882,-2.460634,1.11847,-0.671082,153, -7.4, -3.2,0,0,1684,1258,1024,1024,100,35,0,0,0,0,0,99,4.026,4.022,4.037,4.043,4.032,4.045,0,32,9855.4839636694,36.08924,6,P-GPS,
9800,2023-10-09 20:54:55,38.4981162236862,-112.06438879535,36.08924,,,9855.4839636694,29.52756,2.7066974,4.8844489752,7.2101708344,17,5,0,9855.4839636694,36.08924,2.7066974,4.8844489752,-2.684328,1.11847,-0.223694,150.8, -9.4, -0.3,0,0,1684,1258,1024,1024,100,35,0,0,0,0,0,99,4.026,4.022,4.037,4.043,4.032,4.045,0,32,9855.4839636694,36.08924,6,P-GPS,
9900,2023-10-09 20:54:56,38.4981151079465,-112.064388169842,36.08924,,,9855.4839636694,29.52756,3.1988242,5.32890437,7.6547246544,17,5,0,9855.4839636694,36.08924,3.1988242,5.32890437,-2.908022,1.342164,0,149.5, -12.1, 3,0,0,1684,1262,1024,1024,100,36,0,0,0,0,0,99,4.026,4.022,4.037,4.043,4.032,4.045,0,32,9855.4839636694,36.08924,6,P-GPS,
10000,2023-10-09 20:54:56,38.4981141775147,-112.064386989689,36.08924,,,9855.4839636694,29.52756,3.1988242,5.7745408672,8.133038318,17,5,0,9855.4839636694,36.08924,3.1988242,5.7745408672,-3.35541,1.565858,0.223694,148.5, -14.3, 5,0,0,1684,1261,1024,1016,100,36,0,-1,0,0,0,99,4.026,4.022,4.037,4.043,4.032,4.045,0,32,9855.4839636694,36.08924,6,P-GPS,
10100,2023-10-09 20:54:56,38.498112765953,-112.064386196179,36.08924,,,9855.4839636694,29.52756,4.1159696,6.3371721188,8.6956695696,17,5,0,9855.4839636694,36.08924,4.1159696,6.3371721188,-3.802798,1.565858,0.447388,147.8, -15.6, 5.7,0,0,1684,1269,1024,820,100,37,0,-31,0,0,0,99,4.026,4.022,4.037,4.043,4.032,4.045,0,32,9855.4839636694,36.08924,6,P-GPS,
10200,2023-10-09 20:54:56,38.4981110723323,-112.064385226187,36.08924,,,9855.4839636694,29.52756,4.6080964,7.0143046864,9.3728349456,17,5,0,9855.4839636694,36.08924,4.6080964,7.0143046864,-4.250186,1.789552,0.447388,147.3, -15.8, 5.1,0,0,1684,1273,1024,814,100,38,0,-32,0,0,0,99,4.026,4.022,4.037,4.043,4.032,4.045,0,32,9855.4839636694,36.08924,6,P-GPS,
10300,2023-10-09 20:54:56,38.4981092271443,-112.06438425478,35.761156,,,9855.1558796694,29.52756,5.3239172,7.7420606152,10.1009517668,17,5,0,9855.4839636694,36.08924,5.3239172,7.7420606152,-4.921268,2.013246,0.447388,146.7, -15.2, 3.2,0,0,1684,1281,1024,802,100,39,0,-34,0,0,0,99,4.026,4.022,4.037,4.043,4.032,4.045,0,32,9855.1558796694,35.761156,6,P-GPS,
10400,2023-10-09 20:54:56,38.4981063730295,-112.064383468446,35.761156,,,9855.1558796694,29.52756,5.3239172,8.7870081552,11.1662077064,17,5,0,9855.4839636694,36.08924,5.3239172,8.7870081552,-5.368656,2.23694,0.447388,145.5, -14, 0.5,0,0,1684,1281,1024,831,100,39,0,-29,0,0,0,99,4.026,4.022,4.037,4.043,4.032,4.045,0,32,9855.1558796694,35.761156,6,P-GPS,
10500,2023-10-09 20:54:56,38.4981041096831,-112.064382263149,35.761156,,,9855.1558796694,29.52756,6.1068462,9.6816276064,12.0608271576,17,5,0,9855.4839636694,36.08924,6.1068462,9.6816276064,-5.59235,2.460634,0.447388,143.9, -12.6, -1.9,0,0,1684,1281,1024,859,100,39,0,-25,0,0,0,99,4.026,4.022,4.037,4.043,4.032,4.045,0,32,9855.1558796694,35.761156,6,P-GPS,
10600,2023-10-09 20:54:56,38.4981012842694,-112.064380930055,35.761156,,,9855.1558796694,29.52756,6.1068462,10.7796591376,13.1597117072,17,5,0,9855.4839636694,36.08924,6.1068462,10.7796591376,-5.816044,2.908022,0.223694,142.1, -11.6, -2.8,0,0,1684,1282,1024,894,100,39,0,-20,0,0,0,99,4.026,4.022,4.037,4.043,4.032,4.045,0,32,9855.1558796694,35.761156,6,P-GPS,
10700,2023-10-09 20:54:56,38.4980987992353,-112.064379356507,35.761156,,,9855.1558796694,29.52756,6.9121446,11.789370456,14.1716211884,17,5,0,9855.4839636694,36.08924,6.9121446,11.789370456,-6.039738,3.35541,0.223694,140.4, -11.7, -1.6,0,0,1684,1285,1024,890,100,40,0,-20,0,0,0,99,4.026,4.022,4.037,4.043,4.032,4.045,0,32,9855.1558796694,35.761156,6,P-GPS,
10800,2023-10-09 20:54:57,38.4980962505374,-112.064377612358,35.433072,,,9854.8277956694,29.52756,7.2029468,12.8399282324,15.2264768652,17,5,0,9855.4839636694,36.08924,7.2029468,12.8399282324,-6.263432,3.579104,0,138.8, -12.9, 0.4,0,0,1684,1286,1024,878,100,40,0,-22,0,0,0,99,4.026,4.022,4.037,4.043,4.032,4.045,0,32,9854.8277956694,35.433072,6,P-GPS,
10900,2023-10-09 20:54:57,38.4980935760488,-112.064375730432,35.433072,,,9854.8277956694,29.52756,7.5161184,13.9489505776,16.3404532788,17,5,0,9855.4839636694,36.08924,7.5161184,13.9489505776,-6.487126,3.802798,0,137.5, -14.2, 2.3,0,0,1684,1287,1024,869,100,40,0,-23,0,0,0,99,4.026,4.022,4.037,4.043,4.032,4.045,0,32,9854.8277956694,35.433072,6,P-GPS,
11000,2023-10-09 20:54:57,38.4980907406079,-112.06437370817,35.433072,,,9854.8277956694,29.52756,8.0082452,15.1286422164,17.5251974112,17,5,0,9855.4839636694,36.08924,8.0082452,15.1286422164,-6.934514,4.026492,0,136.5, -15.7, 2.5,0,0,1684,1295,1024,870,100,41,0,-23,0,0,0,99,4.026,4.022,4.037,4.043,4.032,4.045,0,32,9854.8277956694,35.433072,6,P-GPS,
11100,2023-10-09 20:54:57,38.4980877509236,-112.064371532131,35.433072,,,9854.8277956694,29.52756,8.5227414,16.3785110228,18.7805452204,17,5,0,9855.4839636694,36.08924,8.5227414,16.3785110228,-7.381902,4.250186,0,135.4, -17, 1.8,0,0,1684,1296,1024,883,100,41,0,-21,0,0,0,99,4.026,4.022,4.037,4.043,4.032,4.045,0,32,9854.8277956694,35.433072,6,P-GPS,
11200,2023-10-09 20:54:57,38.498084581399,-112.064369030387,35.433072,,,9854.8277956694,29.52756,8.94776,17.7278877064,20.1397972324,17,5,0,9855.4839636694,36.08924,8.94776,17.7278877064,-7.605596,4.697574,0,134.1, -17.5, 0.4,0,0,1684,1296,1024,926,100,41,0,-15,0,0,0,99,4.026,4.022,4.037,4.043,4.032,4.045,0,32,9854.8277956694,35.433072,6,P-GPS,
11300,2023-10-09 20:54:57,38.4980812864563,-112.064366436006,35.433072,,,9854.8277956694,29.52756,9.5517338,19.1313654416,21.5518707684,17,5,0,9855.4839636694,36.08924,9.5517338,19.1313654416,-8.052984,5.144962,0,132.8, -17.5, -1.1,0,0,1684,1298,1024,951,100,42,0,-11,0,0,0,99,4.026,4.022,4.037,4.043,4.032,4.045,0,32,9854.8277956694,35.433072,6,P-GPS,
11400,2023-10-09 20:54:57,38.498078174458,-112.064363536689,35.433072,,,9854.8277956694,29.52756,9.9991218,20.5144035436,22.9570545404,17,5,0,9855.4839636694,36.08924,9.9991218,20.5144035436,-8.276678,5.59235,0,131.5, -17.8, -1.2,0,0,1684,1298,1024,951,100,42,0,-11,0,0,0,99,4.026,4.022,4.037,4.043,4.032,4.045,0,32,9854.8277956694,35.433072,6,P-GPS,
11500,2023-10-09 20:54:57,38.4980746977013,-112.064360430289,35.433072,,,9854.8277956694,29.52756,10.4241404,22.0457028052,24.5048892356,17,5,0,9855.4839636694,36.08924,10.4241404,22.0457028052,-8.500372,6.039738,0,130.2, -18, 0.3,0,0,1684,1301,1024,956,100,42,0,-10,0,0,0,99,4.026,4.022,4.037,4.043,4.032,4.045,0,32,9854.8277956694,35.433072,6,P-GPS,
11600,2023-10-09 20:54:57,38.4980713164007,-112.064357027134,35.433072,,,9854.8277956694,29.52756,10.8715284,23.587435138,26.0753289184,17,5,0,9855.4839636694,36.08924,10.8715284,23.587435138,-8.724066,6.487126,0,129.2, -18.2, 2.6,0,0,1684,1302,1024,985,100,42,0,-6,0,0,0,99,4.026,4.022,4.037,4.043,4.032,4.045,0,32,9854.8277956694,35.433072,6,P-GPS,
11700,2023-10-09 20:54:57,38.4980676027655,-112.064353476541,35.433072,,,9854.8277956694,29.52756,11.4978716,25.2594496272,27.767553382,17,5,0,9855.4839636694,36.08924,11.4978716,25.2594496272,-9.171454,6.934514,0,128.6, -18.2, 5.1,0,0,1684,1303,1024,1024,100,42,0,0,0,0,0,99,4.026,4.022,4.037,4.043,4.032,4.045,0,32,9854.8277956694,35.433072,6,P-GPS,
11800,2023-10-09 20:54:58,38.498063811999,-112.064349537066,35.433072,,,9854.8277956694,29.52756,11.8110432,27.0122383972,29.5503290296,17,5,0,9855.4839636694,36.08924,11.8110432,27.0122383972,-9.395148,7.158208,0,128.2, -18.3, 7.6,0,0,1684,1301,1024,1024,100,42,0,0,0,0,0,99,4.026,4.022,4.037,4.043,4.032,4.045,0,32,9854.8277956694,35.433072,6,P-GPS,
11900,2023-10-09 20:54:58,38.4980597513307,-112.06434568548,35.433072,,,9854.8277956694,29.52756,12.4821252,28.8420612904,31.3954406372,17,5,0,9855.4839636694,36.08924,12.4821252,28.8420612904,-10.06623,7.381902,0,128, -18.5, 9.3,0,0,1684,1299,1024,1024,100,42,0,0,0,0,0,99,4.026,4.022,4.037,4.043,4.032,4.045,0,32,9854.8277956694,35.433072,6,P-GPS,
12000,2023-10-09 20:54:58,38.4980555685368,-112.064341751752,35.433072,,,9854.8277956694,29.52756,12.974252,30.7240167312,33.290355396,17,5,0,9855.4839636694,36.08924,12.974252,30.7240167312,-10.513618,7.605596,0,127.7, -18.9, 9.4,0,0,1684,1296,1024,1024,100,41,0,0,0,0,0,99,4.026,4.022,4.037,4.043,4.032,4.045,0,32,9854.8277956694,35.433072,6,P-GPS,
12100,2023-10-09 20:54:58,38.4980510821672,-112.06433768033,35.433072,,,9854.8277956694,29.52756,13.645334,32.7229997348,35.297901392,17,5,0,9855.4839636694,36.08924,13.645334,32.7229997348,-11.1847,7.82929,0,127.6, -19.3, 8.3,0,0,1684,1268,1024,1024,100,37,0,0,0,0,0,99,4.026,4.022,4.037,4.043,4.032,4.045,0,32,9854.8277956694,35.433072,6,P-GPS,
12200,2023-10-09 20:54:58,38.4980463755784,-112.064333304519,35.433072,,,9854.8277956694,29.52756,14.1374608,34.836287204,37.421589124,17,5,0,9855.4839636694,36.08924,14.1374608,34.836287204,-11.632088,8.052984,0,127.5, -19.4, 6.9,0,0,1684,1245,1024,1024,100,33,0,0,0,0,0,99,4.026,4.022,4.037,4.043,4.032,4.045,0,32,9854.8277956694,35.433072,6,P-GPS,
12300,2023-10-09 20:54:58,38.4980415117814,-112.0643289307,35.433072,,,9854.8277956694,29.52756,14.763804,36.9996731,39.5915367,17,5,0,9855.4839636694,36.08924,14.763804,36.9996731,-12.079476,8.500372,0,127.3, -19.6, 5.7,0,0,1684,1246,1024,1024,100,34,0,0,0,0,0,99,4.026,4.022,4.037,4.043,4.032,4.045,0,32,9854.8277956694,35.433072,6,P-GPS,
12400,2023-10-09 20:54:58,38.4980366096821,-112.064324463737,35.433072,,,9854.8277956694,29.52756,15.0769756,39.1896338,41.788387164,17,5,0,9855.4839636694,36.08924,15.0769756,39.1896338,-12.30317,8.724066,0,127.1, -19.5, 5.3,0,0,1684,1235,1024,1024,100,32,0,0,0,0,0,99,4.026,4.022,4.037,4.043,4.032,4.045,0,32,9854.8277956694,35.433072,6,P-GPS,
12500,2023-10-09 20:54:58,38.4980314621927,-112.064319737689,35.433072,,,9854.8277956694,29.52756,15.7033188,41.495080068,44.10105128,17,5,0,9855.4839636694,36.08924,15.7033188,41.495080068,-12.750558,9.171454,0,127, -19.3, 5.6,0,0,1684,1215,1024,1024,100,29,0,0,0,0,0,99,4.026,4.022,4.037,4.043,4.032,4.045,0,32,9854.8277956694,35.433072,6,P-GPS,
12600,2023-10-09 20:54:58,38.4980259569579,-112.064314913973,35.433072,,,9854.8277956694,29.52756,16.0164904,43.927494844,46.536418812,17,5,0,9855.4839636694,36.08924,16.0164904,43.927494844,-12.974252,9.395148,0,127, -19, 6.2,0,0,1662,1147,1024,1024,97,19,0,0,0,0,0,99,4.026,4.022,4.037,4.043,4.032,4.045,0,32,9854.8277956694,35.433072,6,P-GPS,
12700,2023-10-09 20:54:58,38.498020498186,-112.064309865975,35.433072,,,9854.8277956694,29.52756,16.5086172,46.378938492,48.995080308,17,5,0,9855.4839636694,36.08924,16.5086172,46.378938492,-13.42164,9.618842,0,127, -19.1, 6.5,0,0,1510,1075,1024,1024,74,8,0,0,0,0,0,99,4.026,4.022,4.037,4.043,4.032,4.045,0,32,9854.8277956694,35.433072,6,P-GPS,
12800,2023-10-09 20:54:59,38.4980150205583,-112.064304446836,35.433072,,,9854.8277956694,29.52756,17.1349604,48.893374268,51.522639444,17,5,0,9855.4839636694,36.08924,17.1349604,48.893374268,-13.869028,10.06623,0,127.2, -19.6, 5.9,0,0,1431,1024,1024,1024,62,0,0,0,0,0,0,99,4.026,4.022,4.037,4.043,4.032,4.045,0,32,9854.8277956694,35.433072,6,P-GPS,
12900,2023-10-09 20:54:59,38.4980092998869,-112.064299086808,35.433072,,,9854.8277956694,29.52756,17.448132,51.475067264,54.11089412,17,5,0,9855.4839636694,36.08924,17.448132,51.475067264,-14.092722,10.289924,0,127.4, -20.1, 4.6,0,0,1411,1024,1024,1024,59,0,0,0,0,0,0,99,4.026,4.022,4.037,4.043,4.032,4.045,0,32,9854.8277956694,35.433072,6,P-GPS,
13000,2023-10-09 20:54:59,38.498003865648,-112.064293745161,35.761156,,,9855.1558796694,29.52756,17.448132,53.966209076,56.612206536,17,5,0,9855.4839636694,36.08924,17.448132,53.966209076,-14.316416,10.737312,0,127.7, -19.6, 3,0,0,1423,1024,1024,1024,60,0,0,0,0,0,0,99,4.026,4.022,4.037,4.043,4.032,4.045,0,32,9855.1558796694,35.761156,6,P-GPS,
13100,2023-10-09 20:54:59,38.4979979993284,-112.064288046023,35.761156,,,9855.1558796694,29.52756,18.2086916,56.646327272,59.300854916,17,5,0,9855.4839636694,36.08924,18.2086916,56.646327272,-14.54011,10.961006,0,128.1, -17.3, 1.4,0,0,1432,1024,1024,1024,62,0,0,0,0,0,0,99,4.026,4.022,4.037,4.043,4.032,4.045,0,32,9855.1558796694,35.761156,6,P-GPS,
13200,2023-10-09 20:54:59,38.4979917846913,-112.06428219179,35.761156,,,9855.1558796694,29.52756,18.5218632,59.458007152,62.118112224,17,5,0,9855.4839636694,36.08924,18.5218632,59.458007152,-14.763804,11.1847,0,128.5, -14.8, 0.8,0,0,1416,1024,1024,1024,59,0,0,0,0,0,0,99,4.026,4.022,4.037,4.043,4.032,4.045,0,32,9855.1558796694,35.761156,6,P-GPS,
13300,2023-10-09 20:54:59,38.4979858074465,-112.064276224381,35.761156,,,9855.1558796694,29.52756,18.5218632,62.214897004,64.885500764,17,5,0,9855.4839636694,36.08924,18.5218632,62.214897004,-14.763804,11.408394,-0.223694,128.8, -13, 0.9,0,0,1388,1024,1024,1024,55,0,0,0,0,0,0,99,4.026,4.022,4.037,4.043,4.032,4.045,0,32,9855.1558796694,35.761156,6,P-GPS,
13400,2023-10-09 20:54:59,38.4979791517374,-112.064269672506,35.761156,,,9855.1558796694,29.52756,18.790296,65.271655632,67.95111766,17,5,0,9855.4839636694,36.08924,18.790296,65.271655632,-14.763804,11.632088,-0.223694,129.2, -12.1, 1.4,0,0,1355,1024,1024,1024,50,0,0,0,0,0,0,99,4.026,4.022,4.037,4.043,4.032,4.045,0,32,9855.1558796694,35.761156,6,P-GPS,
13500,2023-10-09 20:54:59,38.4979731226436,-112.064263569052,35.761156,,,9855.1558796694,29.52756,18.790296,68.06758748,70.757548196,17,5,0,9855.4839636694,36.08924,18.790296,68.06758748,-14.763804,11.632088,-0.223694,129.6, -12.6, 2,0,0,1338,1024,1024,1024,48,0,0,0,0,0,0,99,4.026,4.022,4.037,4.043,4.032,4.045,0,32,9855.1558796694,35.761156,6,P-GPS,
13600,2023-10-09 20:54:59,38.4979673909602,-112.064257463005,35.761156,,,9855.1558796694,29.52756,18.790296,70.774608564,73.479989228,17,5,0,9855.4839636694,36.08924,18.790296,70.774608564,-14.763804,11.632088,-0.223694,129.8, -14, 1.9,0,0,1326,1024,1024,1024,46,0,0,0,0,0,0,99,4.026,4.022,4.037,4.043,4.032,4.045,0,32,9855.1558796694,35.761156,6,P-GPS,
13700,2023-10-09 20:54:59,38.4979613644866,-112.064251261757,35.761156,,,9855.1558796694,29.52756,19.1034676,73.587272696,76.303152048,17,5,0,9855.4839636694,36.08924,19.1034676,73.587272696,-14.987498,11.855782,-0.223694,129.7, -14.4, 1.1,0,0,1326,1024,1024,1024,46,0,0,0,0,0,0,99,4.026,4.022,4.037,4.043,4.032,4.045,0,32,9855.1558796694,35.761156,6,P-GPS,
13800,2023-10-09 20:55:00,38.4979550933337,-112.064245060301,35.761156,,,9855.1558796694,29.52756,19.2600534,76.474411896,79.196524844,17,5,0,9855.4839636694,36.08924,19.2600534,76.474411896,-14.987498,12.079476,0,129.5, -13.1, 0,0,0,1293,1024,1024,1031,41,0,0,1,0,0,0,99,4.026,4.022,4.037,4.043,4.032,4.045,0,32,9855.1558796694,35.761156,6,P-GPS,
13900,2023-10-09 20:55:00,38.4979490446307,-112.064238684309,35.761156,,,9855.1558796694,29.52756,19.0810982,79.323165268,82.057417324,17,5,0,9855.4839636694,36.08924,19.2600534,79.323165268,-14.763804,12.079476,0,129.4, -11.2, -0.8,0,0,1272,1024,1024,1059,38,0,0,5,0,0,0,99,4.026,4.022,4.037,4.043,4.032,4.045,0,32,9855.1558796694,35.761156,6,P-GPS,
14000,2023-10-09 20:55:00,38.4979435458953,-112.06423262172,35.761156,,,9855.1558796694,29.52756,19.2153146,81.956695536,84.707023708,17,5,0,9855.4839636694,36.08924,19.2600534,81.956695536,-14.763804,12.30317,0,129.3, -9.2, -0.8,0,0,1266,1024,1024,1090,37,0,0,10,0,0,0,99,4.026,4.022,4.037,4.043,4.032,4.045,0,32,9855.1558796694,35.761156,6,P-GPS,
14100,2023-10-09 20:55:00,38.4979376813312,-112.064226179249,35.761156,,,9855.1558796694,29.52756,19.0363594,84.762797988,87.528874192,17,5,0,9855.4839636694,36.08924,19.2600534,84.762797988,-14.54011,12.30317,0,129.4, -7.5, 0.3,0,0,1258,1024,1024,1024,35,0,0,0,0,0,0,99,4.026,4.022,4.037,4.043,4.032,4.045,0,32,9855.1558796694,35.761156,6,P-GPS,
14200,2023-10-09 20:55:00,38.4979319869825,-112.064219825238,36.08924,,,9855.4839636694,29.52756,18.8797736,87.504595976,90.287404464,17,5,0,9855.4839636694,36.08924,19.2600534,87.504595976,-14.316416,12.30317,0,129.6, -6.3, 2.7,0,0,1229,1024,1024,1185,31,0,0,24,0,0,0,99,4.026,4.022,4.037,4.043,4.032,4.045,0,32,9855.4839636694,36.08924,6,P-GPS,
14300,2023-10-09 20:55:00,38.4979262727677,-112.064213448129,36.08924,,,9855.4839636694,29.52756,18.8797736,90.256892652,93.055449172,17,5,0,9855.4839636694,36.08924,19.2600534,90.256892652,-14.092722,12.079476,0,130.2, -5.8, 3.3,0,0,1230,1024,1024,1263,31,0,0,36,0,0,0,99,4.026,4.022,4.037,4.043,4.032,4.045,0,32,9855.4839636694,36.08924,6,P-GPS,
14400,2023-10-09 20:55:00,38.4979200502184,-112.064206385327,36.08924,,,9855.4839636694,29.52756,18.3876468,93.274609284,96.091866592,17,5,0,9855.4839636694,36.08924,19.2600534,93.274609284,-13.869028,12.079476,0,130.8, -5.2, 5.3,0,0,1239,1024,1024,1244,33,0,0,33,0,0,0,99,4.026,4.022,4.037,4.043,4.032,4.045,0,32,9855.4839636694,36.08924,6,P-GPS,
14500,2023-10-09 20:55:00,38.4979144161704,-112.064200095476,36.08924,,,9855.4839636694,29.52756,18.2534304,95.99081672,98.821525472,17,5,0,9855.4839636694,36.08924,19.2600534,95.99081672,-13.869028,11.855782,-0.223694,131.5, -4.2, 12.8,0,0,1240,1024,1024,1195,33,0,0,26,0,0,0,99,4.026,4.022,4.037,4.043,4.032,4.045,0,32,9855.4839636694,36.08924,6,P-GPS,
14600,2023-10-09 20:55:00,38.4979091456049,-112.064194733408,36.08924,,,9855.4839636694,29.52756,17.9626282,98.445541208,101.279858884,17,5,0,9855.4839636694,36.08924,19.2600534,98.445541208,-13.869028,11.408394,0,133.4, -3.3, 19.7,0,0,1247,1024,1024,1024,34,0,0,0,0,0,0,99,4.026,4.022,4.037,4.043,4.032,4.045,0,32,9855.4839636694,36.08924,6,P-GPS,
14700,2023-10-09 20:55:00,38.4979034458272,-112.064189026949,36.08924,,,9855.4839636694,29.52756,17.7165648,101.084976988,103.921591252,17,5,0,9855.4839636694,36.08924,19.2600534,101.084976988,-14.092722,10.737312,0,135.8, -3.4, 20.9,0,0,1252,1024,1024,1024,35,0,0,0,0,0,0,99,4.026,4.022,4.037,4.043,4.032,4.045,0,32,9855.4839636694,36.08924,6,P-GPS,
14800,2023-10-09 20:55:01,38.4978976118158,-112.064183641269,36.08924,,,9855.4839636694,29.52756,17.3810238,103.710961324,106.547575588,17,5,0,9855.4839636694,36.08924,19.2600534,103.710961324,-14.316416,9.842536,0,137.8, -4.9, 14.9,0,0,1260,1024,1024,1024,36,0,0,0,0,0,0,99,4.026,4.022,4.037,4.043,4.032,4.045,0,32,9855.4839636694,36.08924,6,P-GPS,
14900,2023-10-09 20:55:01,38.4978917823086,-112.064178601401,36.08924,,,9855.4839636694,29.52756,17.1349604,106.27789054,109.115489056,17,5,0,9855.4839636694,36.08924,19.2600534,106.27789054,-14.316416,9.395148,0,138.8, -6, 8.1,0,0,1262,1024,1024,1024,36,0,0,0,0,0,0,99,4.026,4.022,4.037,4.043,4.032,4.045,0,32,9855.4839636694,36.08924,6,P-GPS,
15000,2023-10-09 20:55:01,38.4978855216539,-112.064173704668,36.08924,,,9855.4839636694,29.52756,17.1349604,108.949478552,111.793638748,17,5,0,9855.4839636694,36.08924,19.2600534,108.949478552,-14.316416,9.395148,0,139.2, -6.9, 3.2,0,0,1266,1024,1024,1024,37,0,0,0,0,0,0,99,4.026,4.022,4.037,4.043,4.032,4.045,0,32,9855.4839636694,36.08924,6,P-GPS,
15100,2023-10-09 20:55:01,38.4978797416238,-112.064168841656,36.08924,,,9855.4839636694,29.52756,16.9336358,111.472444512,114.318573212,17,5,0,9855.4839636694,36.08924,19.2600534,111.472444512,-14.092722,9.395148,0,139.4, -7.3, 0.9,0,0,1264,1024,1024,1024,36,0,0,0,0,0,0,99,4.026,4.022,4.037,4.043,4.032,4.045,0,32,9855.4839636694,36.08924,6,P-GPS,
15200,2023-10-09 20:55:01,38.4978745361202,-112.064164558098,36.08924,,,9855.4839636694,29.52756,16.6204642,113.729006264,116.577759636,17,5,0,9855.4839636694,36.08924,19.2600534,113.729006264,-13.869028,9.171454,0,139.5, -7.5, 0.5,0,0,1267,1024,1024,1024,37,0,0,0,0,0,0,99,4.026,4.022,4.037,4.043,4.032,4.045,0,32,9855.4839636694,36.08924,6,P-GPS,
15300,2023-10-09 20:55:01,38.4978689568412,-112.064159801151,36.08924,,,9855.4839636694,29.52756,16.441509,116.175200568,119.024938192,17,5,0,9855.4839636694,36.08924,19.2600534,116.175200568,-13.645334,9.171454,0,139.4, -7.7, 1.3,0,0,1255,1024,1024,1024,35,0,0,0,0,0,0,99,4.026,4.022,4.037,4.043,4.032,4.045,0,32,9855.4839636694,36.08924,6,P-GPS,
15400,2023-10-09 20:55:01,38.4978635100148,-112.064154685131,36.08924,,,9855.4839636694,29.52756,16.1283374,118.641407996,121.491473704,17,5,0,9855.4839636694,36.08924,19.2600534,118.641407996,-13.42164,8.94776,0,139.2, -8, 2.1,0,0,1268,1024,1024,1024,37,0,0,0,0,0,0,99,4.026,4.022,4.037,4.043,4.032,4.045,0,32,9855.4839636694,36.08924,6,P-GPS,
15500,2023-10-09 20:55:01,38.4978580637536,-112.064149889781,36.08924,,,9855.4839636694,29.52756,15.9493822,121.054137732,123.904531524,17,5,0,9855.4839636694,36.08924,19.2600534,121.054137732,-13.197946,8.94776,0,139.3, -8.3, 2.5,0,0,1265,1024,1024,1024,37,0,0,0,0,0,0,99,4.026,4.022,4.037,4.043,4.032,4.045,0,32,9855.4839636694,36.08924,6,P-GPS,
15600,2023-10-09 20:55:01,38.497852628453,-112.064144840612,36.08924,,,9855.4839636694,29.52756,15.9493822,123.505909464,126.356303256,17,5,0,9855.4839636694,36.08924,19.2600534,123.505909464,-13.197946,8.94776,0,139.3, -8.5, 2.8,0,0,1265,1024,1024,1024,37,0,0,0,0,0,0,99,4.026,4.022,4.037,4.043,4.032,4.045,0,32,9855.4839636694,36.08924,6,P-GPS,
15700,2023-10-09 20:55:01,38.4978472563645,-112.064140028171,36.08924,,,9855.4839636694,29.52756,16.0612292,125.899610328,128.75000412,17,5,0,9855.4839636694,36.08924,19.2600534,125.899610328,-13.197946,9.171454,0,139.4, -8.5, 2.6,0,0,1261,1024,1024,1024,36,0,0,0,0,0,0,99,4.026,4.022,4.037,4.043,4.032,4.045,0,32,9855.4839636694,36.08924,6,P-GPS,
15800,2023-10-09 20:55:02,38.497841283581,-112.06413490167,36.08924,,,9855.4839636694,29.52756,16.0612292,128.523954244,131.375332288,17,5,0,9855.4839636694,36.08924,19.2600534,128.523954244,-13.197946,9.171454,0,139.4, -7.9, 2.3,0,0,1251,1024,1024,1024,34,0,0,0,0,0,0,99,4.026,4.022,4.037,4.043,4.032,4.045,0,32,9855.4839636694,36.08924,6,P-GPS,
15900,2023-10-09 20:55:02,38.4978359317869,-112.064130064457,36.08924,,,9855.4839636694,29.52756,15.882274,130.915686604,133.767064648,17,5,0,9855.4839636694,36.08924,19.2600534,130.915686604,-12.974252,9.171454,0,139.4, -7.2, 2,0,0,1242,1024,1024,1024,33,0,0,0,0,0,0,99,4.026,4.022,4.037,4.043,4.032,4.045,0,32,9855.4839636694,36.08924,6,P-GPS,
16000,2023-10-09 20:55:02,38.4978310991337,-112.0641257407,36.08924,,,9855.4839636694,29.52756,16.0164904,133.068245728,135.919295688,17,5,0,9855.4839636694,36.08924,19.2600534,133.068245728,-12.974252,9.395148,0,139.3, -6.2, 2,0,0,1245,1024,1024,1024,33,0,0,0,0,0,0,99,4.026,4.022,4.037,4.043,4.032,4.045,0,32,9855.4839636694,36.08924,6,P-GPS,
16100,2023-10-09 20:55:02,38.4978258872077,-112.064120965219,35.761156,,,9855.1558796694,29.52756,15.8375352,135.408140816,138.259190776,17,5,0,9855.4839636694,36.08924,19.2600534,135.408140816,-12.750558,9.395148,0,139.4, -5.4, 2.5,0,0,1247,1024,1024,1024,34,0,0,0,0,0,0,99,4.026,4.022,4.037,4.043,4.032,4.045,0,32,9855.1558796694,35.761156,6,P-GPS,
16200,2023-10-09 20:55:02,38.4978206178068,-112.064116352808,35.761156,,,9855.1558796694,29.52756,15.7033188,137.738193384,140.589899512,17,5,0,9855.4839636694,36.08924,19.2600534,137.738193384,-12.750558,9.171454,0,139.6, -4.9, 3.1,0,0,1254,1024,1024,1024,35,0,0,0,0,0,0,99,4.026,4.022,4.037,4.043,4.032,4.045,0,32,9855.1558796694,35.761156,6,P-GPS,
16300,2023-10-09 20:55:02,38.4978155119594,-112.064111654616,35.761156,,,9855.1558796694,29.52756,15.5243636,140.033797132,142.88550326,17,5,0,9855.4839636694,36.08924,19.2600534,140.033797132,-12.526864,9.171454,0,139.6, -4.6, 3.7,0,0,1268,1024,1024,1024,37,0,0,0,0,0,0,99,4.026,4.022,4.037,4.043,4.032,4.045,0,32,9855.1558796694,35.761156,6,P-GPS,
16400,2023-10-09 20:55:02,38.4978104405695,-112.064107085948,35.761156,,,9855.1558796694,29.52756,15.5243636,142.297576732,145.14928286,17,5,0,9855.4839636694,36.08924,19.2600534,142.297576732,-12.526864,9.171454,0,139.5, -4.9, 4,0,0,1277,1024,1024,1024,38,0,0,0,0,0,0,99,4.026,4.022,4.037,4.043,4.032,4.045,0,32,9855.1558796694,35.761156,6,P-GPS,
16500,2023-10-09 20:55:02,38.4978054423763,-112.064102485572,35.761156,,,9855.1558796694,29.52756,15.211192,144.544952132,147.39665826,17,5,0,9855.4839636694,36.08924,19.2600534,144.544952132,-12.30317,8.94776,0,139.4, -5.1, 4,0,0,1285,1024,1024,1024,40,0,0,0,0,0,0,99,4.026,4.022,4.037,4.043,4.032,4.045,0,32,9855.1558796694,35.761156,6,P-GPS,
16600,2023-10-09 20:55:02,38.4978000091137,-112.064097675757,35.761156,,,9855.1558796694,29.52756,15.211192,146.956369532,149.808403744,17,5,0,9855.4839636694,36.08924,19.2600534,146.956369532,-12.30317,8.94776,0,139.4, -5.5, 3.6,0,0,1280,1024,1024,1024,39,0,0,0,0,0,0,99,4.026,4.022,4.037,4.043,4.032,4.045,0,32,9855.1558796694,35.761156,6,P-GPS,
16700,2023-10-09 20:55:02,38.4977950563728,-112.064093131663,35.761156,,,9855.1558796694,29.52756,15.211192,149.181107136,152.033141348,17,5,0,9855.4839636694,36.08924,19.2600534,149.181107136,-12.079476,8.94776,0,139.3, -6.4, 3.3,0,0,1282,1024,1024,1024,39,0,0,0,0,0,0,99,4.026,4.022,4.037,4.043,4.032,4.045,0,32,9855.1558796694,35.761156,6,P-GPS,
16800,2023-10-09 20:55:03,38.4977905634312,-112.06408891942,35.761156,,,9855.1558796694,29.52756,14.8980204,151.2139156,154.066277896,17,5,0,9855.4839636694,36.08924,19.2600534,151.2139156,-12.079476,8.724066,0,139.2, -7.3, 2.9,0,0,1277,1024,1024,1024,38,0,0,0,0,0,0,99,4.026,4.022,4.037,4.043,4.032,4.045,0,32,9855.1558796694,35.761156,6,P-GPS,
16900,2023-10-09 20:55:03,38.4977857191323,-112.06408442279,35.761156,,,9855.1558796694,29.52756,14.7190652,153.398298872,156.250661168,17,5,0,9855.4839636694,36.08924,19.2600534,153.398298872,-11.855782,8.724066,0,139.1, -7.6, 2.7,0,0,1271,1024,1024,1024,37,0,0,0,0,0,0,99,4.026,4.022,4.037,4.043,4.032,4.045,0,32,9855.1558796694,35.761156,6,P-GPS,
17000,2023-10-09 20:55:03,38.4977808520215,-112.064079987978,35.761156,,,9855.1558796694,29.52756,14.7190652,155.579401304,158.4317636,17,5,0,9855.4839636694,36.08924,19.2600534,155.579401304,-11.855782,8.724066,0,138.8, -7.5, 2.7,0,0,1278,1024,1024,1024,38,0,0,0,0,0,0,99,4.026,4.022,4.037,4.043,4.032,4.045,0,32,9855.1558796694,35.761156,6,P-GPS,
17100,2023-10-09 20:55:03,38.4977760515994,-112.064075503231,35.761156,,,9855.1558796694,29.52756,14.7190652,157.749020796,160.601383092,17,5,0,9855.4839636694,36.08924,19.2600534,157.749020796,-11.855782,8.724066,0,138.7, -7.1, 2.7,0,0,1296,1024,1024,1024,41,0,0,0,0,0,0,99,4.026,4.022,4.037,4.043,4.032,4.045,0,32,9855.1558796694,35.761156,6,P-GPS,
17200,2023-10-09 20:55:03,38.4977712941636,-112.064070998088,35.761156,,,9855.1558796694,29.52756,14.8532816,159.908797768,162.761816232,17,5,0,9855.4839636694,36.08924,19.2600534,159.908797768,-11.855782,8.94776,0,138.3, -6.8, 3.2,0,0,1292,1024,1024,1024,41,0,0,0,0,0,0,99,4.026,4.022,4.037,4.043,4.032,4.045,0,32,9855.1558796694,35.761156,6,P-GPS,
17300,2023-10-09 20:55:03,38.4977665481338,-112.064066478678,35.761156,,,9855.1558796694,29.52756,14.6743264,162.067918572,164.921593204,17,5,0,9855.4839636694,36.08924,19.2600534,162.067918572,-11.632088,8.94776,0,138.3, -6.8, 3.6,0,0,1336,1024,1024,1024,47,0,0,0,0,0,0,99,4.026,4.022,4.037,4.043,4.032,4.045,0,32,9855.1558796694,35.761156,6,P-GPS,
17400,2023-10-09 20:55:03,38.4977616416332,-112.064062079557,35.761156,,,9855.1558796694,29.52756,14.6743264,164.254598432,167.108273064,17,5,0,9855.4839636694,36.08924,19.2600534,164.254598432,-11.632088,8.94776,0,138.4, -7.1, 3.3,0,0,1294,1024,1062,1024,41,0,6,0,0,0,0,99,4.026,4.022,4.037,4.043,4.032,4.045,0,32,9855.1558796694,35.761156,6,P-GPS,
17500,2023-10-09 20:55:03,38.4977569170108,-112.064057562926,35.761156,,,9855.1558796694,29.52756,14.6743264,166.406829472,169.261160272,17,5,0,9855.4839636694,36.08924,19.2600534,166.406829472,-11.632088,8.94776,0,138.4, -7.5, 3,0,0,1304,1024,1184,1024,42,0,24,0,0,0,0,99,4.026,4.022,4.037,4.043,4.032,4.045,0,32,9855.1558796694,35.761156,6,P-GPS,
