time(millisecond),datetime(utc),latitude,longitude,height_above_takeoff(feet),height_above_ground_at_drone_location(feet),ground_elevation_at_drone_location(feet),altitude_above_seaLevel(feet),height_sonar(feet),speed(mph),distance(feet),mileage(feet),satellites,gpslevel,voltage(v),max_altitude(feet),max_ascent(feet),max_speed(mph),max_distance(feet), xSpeed(mph), ySpeed(mph), zSpeed(mph), compass_heading(degrees), pitch(degrees), roll(degrees),isPhoto,isVideo,rc_elevator,rc_aileron,rc_throttle,rc_rudder,rc_elevator(percent),rc_aileron(percent),rc_throttle(percent),rc_rudder(percent),gimbal_heading(degrees),gimbal_pitch(degrees),gimbal_roll(degrees),battery_percent,voltageCell1,voltageCell2,voltageCell3,voltageCell4,voltageCell5,voltageCell6,current(A),battery_temperature(f),altitude(feet),ascent(feet),flycStateRaw,flycState,message
0,2023-10-11 01:29:59,38.4981931099119,-112.064432109248,0,Available with any HD 360 subscription,Available with any HD 360 subscription,9821.2345892139,0.656168,0,0,0,16,5,0,9821.2345892139,0,0,0,0,0,0,122.2, -5.2, 1.1,0,0,364,364,364,1618,-100,-100,-100,90,0,0,0,99,3.963,3.981,3.992,3.99,3.988,3.99,0,32,9821.2345892139,0,41,Motors_Started,
100,2023-10-11 01:29:59,38.4981931508072,-112.064432258333,0,,,9821.2345892139,0.656168,0,0.045108925328,0.045108925328,16,5,0,9821.2345892139,0,0,0.045108925328,0,0,0,122.2, -5.2, 1.1,0,0,364,364,364,1615,-100,-100,-100,90,0,0,0,99,3.963,3.981,3.992,3.99,3.988,3.99,0,32,9821.2345892139,0,41,Motors_Started,
200,2023-10-11 01:29:59,38.4981931351821,-112.064432278302,0,,,9821.2345892139,0.656168,0,0.049144358528,0.053171917712,16,5,0,9821.2345892139,0,0,0.049144358528,0,0,0,122.2, -5.2, 1.1,0,0,364,364,364,1613,-100,-100,-100,89,0,0,0,99,3.963,3.981,3.992,3.99,3.988,3.99,0,32,9821.2345892139,0,41,Motors_Started,
300,2023-10-11 01:29:59,38.4981931728789,-112.064432247683,0,,,9821.2345892139,0.656168,0,0.045719817736,0.069469162328,16,5,0,9821.2345892139,0,0,0.049144358528,0,0,0,122.2, -5.2, 1.1,0,0,364,364,364,1600,-100,-100,-100,87,0,0,0,99,3.963,3.981,3.992,3.99,3.988,3.99,0,32,9821.2345892139,0,41,Motors_Started,
400,2023-10-11 01:29:59,38.4981931622626,-112.064432264993,0,,,9821.2345892139,0.656168,0,0.048399607848,0.075749018172,16,5,0,9821.2345892139,0,0,0.049144358528,0,0,0,122.2, -5.2, 1.1,0,0,364,364,364,1598,-100,-100,-100,87,0,0,0,99,3.963,3.981,3.992,3.99,3.988,3.99,0,32,9821.2345892139,0,41,Motors_Started,
500,2023-10-11 01:30:00,38.4981930323565,-112.064432237401,0,,,9821.2345892139,0.656168,0,0.046256891244,0.123795607636,16,5,0,9821.2345892139,0,0,0.049144358528,0,0,0,122.2, -5.2, 1.1,0,0,364,364,364,1596,-100,-100,-100,87,0,0,0,99,3.963,3.981,3.992,3.99,3.988,3.99,0,32,9821.2345892139,0,41,Motors_Started,
600,2023-10-11 01:30:00,38.4981930111007,-112.064432251278,0,,,9821.2345892139,0.656168,0,0.054262468928,0.132504269332,16,5,0,9821.2345892139,0,0,0.054262468928,0,0,0,122.2, -5.2, 1.1,0,0,364,366,364,1579,-100,-100,-100,84,0,0,0,99,3.963,3.981,3.992,3.99,3.988,3.99,0,32,9821.2345892139,0,41,Motors_Started,
700,2023-10-11 01:30:00,38.4981930527337,-112.064432225504,0,,,9821.2345892139,0.656168,0,0.039206694168,0.149382878796,16,5,0,9821.2345892139,0,0,0.054262468928,0,0,0,122.2, -5.3, 1.1,0,0,364,364,364,1582,-100,-100,-100,85,0,0,0,99,3.963,3.981,3.992,3.99,3.988,3.99,0,32,9821.2345892139,0,41,Motors_Started,"Setting new Return-To-Home altitude to 152m (499 ft). Data Recorder File Index is 27. Setting new Maximum Flight Altitude to 244m (801 ft)"
800,2023-10-11 01:30:00,38.4981930361798,-112.064432236498,0,,,9821.2345892139,0.656168,0,0.045209647116,0.156189965628,16,5,0,9821.2345892139,0,0,0.054262468928,0,0,0,122.2, -5.3, 1.1,0,0,408,487,379,1376,-93,-81,-98,53,0,0,0,99,3.963,3.981,3.992,3.99,3.988,3.99,0,32,9821.2345892139,0,41,Motors_Started,
900,2023-10-11 01:30:00,38.4981930733572,-112.06443221512,0,,,9821.2345892139,0.656168,0,0.033041995808,0.171064309936,16,5,0,9821.2345892139,0,0,0.054262468928,0,0,0,122.2, -5.3, 1.1,0,0,1024,1024,1024,1024,0,0,0,0,0,0,0,99,3.963,3.981,3.992,3.99,3.988,3.99,0,32,9821.2345892139,0,41,Motors_Started,
1000,2023-10-11 01:30:00,38.4981930612641,-112.064432223548,0,,,9821.2345892139,0.656168,0,0.037151247908,0.176089900648,16,5,0,9821.2345892139,0,0,0.054262468928,0,0,0,122.2, -5.3, 1.1,0,0,1024,1024,1024,1024,0,0,0,0,0,0,0,99,3.963,3.981,3.992,3.99,3.988,3.99,0,32,9821.2345892139,0,41,Motors_Started,
1100,2023-10-11 01:30:00,38.4981929309204,-112.064432209357,0,,,9821.2345892139,0.656168,0,0.071287075772,0.223818248632,16,5,0,9821.2345892139,0,0,0.071287075772,0,0,0,122.3, -5.3, 1.1,0,0,1024,1024,1024,1024,0,0,0,0,0,0,0,99,3.963,3.981,3.992,3.99,3.988,3.99,0,32,9821.2345892139,0,41,Motors_Started,
1200,2023-10-11 01:30:00,38.4981929093903,-112.064432218724,0,,,9821.2345892139,0.656168,0,0.07955872958,0.232116477244,16,5,0,9821.2345892139,0,0,0.07955872958,0,0,0,122.3, -5.3, 1.1,0,0,1024,1024,1024,1024,0,0,0,0,0,0,0,99,3.963,3.981,3.992,3.99,3.988,3.99,0,32,9821.2345892139,0,41,Motors_Started,
1300,2023-10-11 01:30:00,38.4981929585358,-112.064432365897,0,,,9821.2345892139,0.656168,0,0.0917650948,0.277805783168,16,5,0,9821.2345892139,0,0,0.0917650948,0,0,0,122.3, -5.4, 1.1,0,0,1024,1024,1024,1024,0,0,0,0,0,0,0,99,3.963,3.981,3.992,3.99,3.988,3.99,0,32,9821.2345892139,0,41,Motors_Started,
1400,2023-10-11 01:30:00,38.4981929417093,-112.064432390271,0,,,9821.2345892139,0.656168,0,0.10102034444,0.287086295276,16,5,0,9821.2345892139,0,0,0.10102034444,0,0,0,122.3, -5.4, 1.1,0,0,1024,1024,1024,1024,0,0,0,0,0,0,0,99,3.963,3.981,3.992,3.99,3.988,3.99,0,32,9821.2345892139,0,41,Motors_Started,
1500,2023-10-11 01:30:00,38.4981929847753,-112.064432204013,0,,,9821.2345892139,0.656168,0,0.053072180176,0.34254266188,16,5,0,9821.2345892139,0,0,0.10102034444,0,0,0,122.2, -5.3, 1.2,0,0,1024,1024,1024,1024,0,0,0,0,0,0,0,99,3.963,3.981,3.992,3.99,3.988,3.99,0,32,9821.2345892139,0,41,Motors_Started,
1600,2023-10-11 01:30:01,38.4981929738567,-112.064432208513,0,,,9821.2345892139,0.656168,0,0.05716207532,0.34672901372,16,5,0,9821.2345892139,0,0,0.10102034444,0,0,0,122.2, -5.3, 1.2,0,0,1024,1024,1024,1024,0,0,0,0,0,0,0,99,3.963,3.981,3.992,3.99,3.988,3.99,0,32,9821.2345892139,0,41,Motors_Started,
1700,2023-10-11 01:30:01,38.4981929900798,-112.064432195648,0,,,9821.2345892139,0.656168,0,0.050200789008,0.35369423704,16,5,0,9821.2345892139,0,0,0.10102034444,0,0,0,122.2, -5.3, 1.2,0,0,1024,1024,1024,1024,0,0,0,0,0,0,0,99,3.963,3.981,3.992,3.99,3.988,3.99,0,32,9821.2345892139,0,41,Motors_Started,
1800,2023-10-11 01:30:01,38.4981929839623,-112.06443219419,0,,,9821.2345892139,0.656168,0,0.051960631584,0.35596457832,16,5,0,9821.2345892139,0,0,0.10102034444,0,0,0,122.1, -5.4, 1.2,0,0,1024,1024,1024,1024,0,0,0,0,0,0,0,99,3.963,3.981,3.992,3.99,3.988,3.99,0,32,9821.2345892139,0,41,Motors_Started,
1900,2023-10-11 01:30:01,38.498193011706,-112.064432180963,0,,,9821.2345892139,0.656168,0,0.041269030192,0.36676838444,16,5,0,9821.2345892139,0,0,0.10102034444,0,0,0,122.1, -5.5, 1.2,0,0,1024,1024,1024,1024,0,0,0,0,0,0,0,99,3.963,3.981,3.992,3.99,3.988,3.99,0,32,9821.2345892139,0,41,Motors_Started,
2000,2023-10-11 01:30:01,38.4981930104014,-112.064432183093,0,,,9821.2345892139,0.656168,0,0.041985237564,0.36754266268,16,5,0,9821.2345892139,0,0,0.10102034444,0,0,0,122.1, -5.4, 1.2,0,0,1024,1024,1024,1024,0,0,0,0,0,0,0,99,3.963,3.981,3.992,3.99,3.988,3.99,0,32,9821.2345892139,0,10,Assisted_Takeoff,
2100,2023-10-11 01:30:01,38.4981928617696,-112.064432338641,0,,,9821.2345892139,0.656168,0,0.111744754232,0.43763780928,16,5,0,9821.2345892139,0,0,0.111744754232,0,0,0,122.1, -5.4, 1.2,0,0,1024,1024,1024,1024,0,0,0,0,0,0,0,99,3.963,3.981,3.992,3.99,3.988,3.99,0,32,9821.2345892139,0,10,Assisted_Takeoff,
2200,2023-10-11 01:30:01,38.498192845985,-112.064432352542,0,,,9821.2345892139,0.656168,0,0.118737536608,0.44463256016,16,5,0,9821.2345892139,0,0,0.118737536608,0,0,0,122.1, -5.4, 1.2,0,0,1024,1024,1024,1024,0,0,0,0,0,0,0,99,3.963,3.981,3.992,3.99,3.988,3.99,0,32,9821.2345892139,0,10,Assisted_Takeoff,
2300,2023-10-11 01:30:01,38.4981928843245,-112.064432331636,0,,,9821.2345892139,0.656168,0,0.103954399652,0.45983925356,16,5,0,9821.2345892139,0,0,0.118737536608,0,0,0,122.1, -5.4, 1.2,0,0,1024,1024,1024,1024,0,0,0,0,0,0,0,99,3.963,3.981,3.992,3.99,3.988,3.99,0,32,9821.2345892139,0,10,Assisted_Takeoff,
2400,2023-10-11 01:30:01,38.4981928747356,-112.064432344746,0,,,9821.2345892139,0.656168,0,0.1090141111,0.46496392564,16,5,0,9821.2345892139,0,0,0.118737536608,0,0,0,122.1, -5.4, 1.2,0,0,1024,1024,1024,1024,0,0,0,0,0,0,0,99,3.963,3.981,3.992,3.99,3.988,3.99,0,32,9821.2345892139,0,10,Assisted_Takeoff,
2500,2023-10-11 01:30:01,38.4981928942475,-112.064432321709,0,,,9821.2345892139,0.656168,0,0.099356630476,0.47465880784,16,5,0,9821.2345892139,0,0,0.118737536608,0,0,0,122.1, -5.4, 1.2,0,0,1024,1024,1024,1024,0,0,0,0,0,0,0,99,3.963,3.981,3.992,3.99,3.988,3.99,0,32,9821.2345892139,0,10,Assisted_Takeoff,
2600,2023-10-11 01:30:02,38.498192888567,-112.06443233297,0,,,9821.2345892139,0.656168,0,0.1029691634,0.47848426728,16,5,0,9821.2345892139,0,0,0.118737536608,0,0,0,122.1, -5.4, 1.2,0,0,1024,1024,1024,1024,0,0,0,0,0,0,0,99,3.963,3.981,3.992,3.99,3.988,3.99,0,32,9821.2345892139,0,10,Assisted_Takeoff,
2700,2023-10-11 01:30:02,38.4981929153745,-112.064432318076,0,,,9821.2345892139,0.656168,0,0.0927001342,0.48914699728,16,5,0,9821.2345892139,0,0,0.118737536608,0,0,0,122.1, -5.4, 1.2,0,0,1024,1024,1024,1024,0,0,0,0,0,0,0,99,3.963,3.981,3.992,3.99,3.988,3.99,0,32,9821.2345892139,0,10,Assisted_Takeoff,
2800,2023-10-11 01:30:02,38.4981929102118,-112.064432328056,0,,,9821.2345892139,0.656168,0,0.095980318032,0.49256563256,16,5,0,9821.2345892139,0,0,0.118737536608,0,0,0,122.1, -5.4, 1.2,0,0,1024,1024,1024,1024,0,0,0,0,0,0,0,99,3.963,3.981,3.992,3.99,3.988,3.99,0,32,9821.2345892139,0,10,Assisted_Takeoff,
2900,2023-10-11 01:30:02,38.4981929242798,-112.064432313497,0,,,9821.2345892139,0.656168,0,0.089377955616,0.49916996348,16,5,0,9821.2345892139,0,0,0.118737536608,0,0,0,122.1, -5.4, 1.2,0,0,1024,1024,1024,1024,0,0,0,0,0,0,0,99,3.963,3.981,3.992,3.99,3.988,3.99,0,32,9821.2345892139,0,10,Assisted_Takeoff,
3000,2023-10-11 01:30:02,38.4981929230759,-112.064432323023,0,,,9821.2345892139,0.656168,0,0.091502955684,0.50192586908,16,5,0,9821.2345892139,0,0,0.118737536608,0,0,0,122.1, -5.3, 1.2,0,0,1024,1024,1024,1024,0,0,0,0,0,0,0,99,3.963,3.981,3.992,3.99,3.988,3.99,0,32,9821.2345892139,0,10,Assisted_Takeoff,
3100,2023-10-11 01:30:02,38.4981927677023,-112.06443231013,0,,,9821.2345892139,0.656168,0,0.137400594948,0.55873361368,16,5,0,9821.2345892139,0,0,0.137400594948,0,0,0,122.1, -5.3, 1.2,0,0,1024,1024,1024,1024,0,0,0,0,0,0,0,99,3.963,3.981,3.992,3.99,3.988,3.99,0,32,9821.2345892139,0,10,Assisted_Takeoff,
3200,2023-10-11 01:30:02,38.4981927482343,-112.064432318398,0,,,9821.2345892139,0.656168,0,0.144842852404,0.56621720972,16,5,0,9821.2345892139,0,0,0.144842852404,0,0,0,122.1, -5.3, 1.2,0,0,1024,1024,1024,1024,0,0,0,0,0,0,0,99,3.963,3.981,3.992,3.99,3.988,3.99,0,32,9821.2345892139,0,10,Assisted_Takeoff,
3300,2023-10-11 01:30:02,38.4981927731459,-112.064432307096,0,,,9821.2345892139,0.656168,0,0.135234256296,0.57586287932,16,5,0,9821.2345892139,0,0,0.144842852404,0,0,0,122.1, -5.3, 1.2,0,0,1024,1024,1024,1024,0,0,0,0,0,0,0,99,3.963,3.981,3.992,3.99,3.988,3.99,0,32,9821.2345892139,0,10,Assisted_Takeoff,
3400,2023-10-11 01:30:02,38.4981927567823,-112.064432314504,0,,,9821.2345892139,0.656168,0,0.141543311616,0.58219490052,16,5,0,9821.2345892139,0,0,0.144842852404,0,0,0,122.1, -5.3, 1.2,0,0,1024,1024,1024,1024,0,0,0,0,0,0,0,99,3.963,3.981,3.992,3.99,3.988,3.99,0,32,9821.2345892139,0,10,Assisted_Takeoff,
3500,2023-10-11 01:30:02,38.4981926176479,-112.064432464124,0,,,9821.2345892139,0.656168,0,0.206216213948,0.64854332784,16,5,0,9821.2345892139,0,0,0.206216213948,0,0,0,122.1, -5.3, 1.2,0,0,1024,1024,1024,1024,0,0,0,0,0,0,0,99,3.963,3.981,3.992,3.99,3.988,3.99,0,32,9821.2345892139,0,10,Assisted_Takeoff,
3600,2023-10-11 01:30:03,38.49819258963,-112.064432483923,0,,,9821.2345892139,0.656168,0,0.2178969886,0.66022639908,16,5,0,9821.2345892139,0,0,0.2178969886,0,0,0,122.1, -5.4, 1.2,0,0,1024,1024,1024,1024,0,0,0,0,0,0,0,99,3.963,3.981,3.992,3.99,3.988,3.99,0,32,9821.2345892139,0,10,Assisted_Takeoff,
3700,2023-10-11 01:30:03,38.4981926416526,-112.064432451729,0,,,9821.2345892139,0.656168,0,0.196853024672,0.6813156386,16,5,0,9821.2345892139,0,0,0.2178969886,0,0,0,122.1, -5.4, 1.2,0,0,1024,1024,1024,1024,0,0,0,0,0,0,0,99,3.963,3.981,3.992,3.99,3.988,3.99,0,32,9821.2345892139,0,10,Assisted_Takeoff,
3800,2023-10-11 01:30:03,38.4981926181726,-112.064432470529,0,,,9821.2345892139,0.656168,0,0.206955059116,0.69142390664,16,5,0,9821.2345892139,0,0,0.2178969886,0,0,0,122.1, -5.4, 1.2,0,0,1024,1024,1024,1024,0,0,0,0,0,0,0,99,3.963,3.981,3.992,3.99,3.988,3.99,0,32,9821.2345892139,0,10,Assisted_Takeoff,
3900,2023-10-11 01:30:03,38.498192660099,-112.064432439764,0,,,9821.2345892139,0.656168,0,0.189314966688,0.70906498332,16,5,0,9821.2345892139,0,0,0.2178969886,0,0,0,122.1, -5.4, 1.2,0,0,1024,1024,1024,1024,0,0,0,0,0,0,0,99,3.963,3.981,3.992,3.99,3.988,3.99,0,32,9821.2345892139,0,10,Assisted_Takeoff,
4000,2023-10-11 01:30:03,38.4981926440291,-112.064432454194,0,,,9821.2345892139,0.656168,0,0.196452762192,0.71623033788,16,5,0,9821.2345892139,0,0,0.2178969886,0,0,0,122.1, -5.4, 1.2,0,0,1024,1024,1024,1024,0,0,0,0,0,0,0,99,3.963,3.981,3.992,3.99,3.988,3.99,0,32,9821.2345892139,0,10,Assisted_Takeoff,
4100,2023-10-11 01:30:03,38.4981926759082,-112.064432429071,0,,,9821.2345892139,0.656168,0,0.182792984852,0.72989503648,16,5,0,9821.2345892139,0,0,0.2178969886,0,0,0,122.1, -5.4, 1.2,0,0,1024,1024,1024,1024,0,0,0,0,0,0,0,99,3.963,3.981,3.992,3.99,3.988,3.99,0,32,9821.2345892139,0,10,Assisted_Takeoff,
4200,2023-10-11 01:30:03,38.4981926603794,-112.06443244011,0,,,9821.2345892139,0.656168,0,0.189275596608,0.73638125716,16,5,0,9821.2345892139,0,0,0.2178969886,0,0,0,122.1, -5.4, 1.2,0,0,1024,1024,1024,1024,0,0,0,0,0,0,0,99,3.963,3.981,3.992,3.99,3.988,3.99,0,32,9821.2345892139,0,10,Assisted_Takeoff,
4300,2023-10-11 01:30:03,38.4981926923376,-112.064432416785,0,,,9821.2345892139,0.656168,0,0.175847774656,0.74980973528,16,5,0,9821.2345892139,0,0,0.2178969886,0,0,0,122.1, -5.4, 1.2,0,0,1024,1024,1024,1024,0,0,0,0,0,0,0,99,3.963,3.981,3.992,3.99,3.988,3.99,0,32,9821.2345892139,0,10,Assisted_Takeoff,
4400,2023-10-11 01:30:03,38.4981926814249,-112.064432425753,0,,,9821.2345892139,0.656168,0,0.180576121264,0.75454070656,16,5,0,9821.2345892139,0,0,0.2178969886,0,0,0,122.1, -5.4, 1.2,0,0,1024,1024,1024,1024,0,0,0,0,0,0,0,99,3.963,3.981,3.992,3.99,3.988,3.99,0,32,9821.2345892139,0,10,Assisted_Takeoff,
4500,2023-10-11 01:30:03,38.4981925434756,-112.064432406048,0,,,9821.2345892139,0.656168,0,0.223365820796,0.80518703364,16,5,0,9821.2345892139,0,0,0.223365820796,0,0,0,122.1, -5.4, 1.2,0,0,1024,1024,1024,1024,0,0,0,0,0,0,0,99,3.963,3.981,3.992,3.99,3.988,3.99,0,32,9821.2345892139,0,10,Assisted_Takeoff,
4600,2023-10-11 01:30:04,38.4981925218824,-112.064432411165,0,,,9821.2345892139,0.656168,0,0.231215230496,0.81319884492,16,5,0,9821.2345892139,0,0,0.231215230496,0,0,0,122.1, -5.4, 1.2,0,0,1024,1024,1024,1024,0,0,0,0,0,0,0,99,3.963,3.981,3.992,3.99,3.988,3.99,0,32,9821.2345892139,0,10,Assisted_Takeoff,
4700,2023-10-11 01:30:04,38.4981925625939,-112.064432556783,0,,,9821.2345892139,0.656168,0,0.237077435408,0.85735238964,16,5,0,9821.2345892139,0,0,0.237077435408,0,0,0,122.1, -5.4, 1.2,0,0,1024,1024,1024,1024,0,0,0,0,0,0,0,99,3.963,3.981,3.992,3.99,3.988,3.99,0,32,9821.2345892139,0,10,Assisted_Takeoff,
4800,2023-10-11 01:30:04,38.4981925440801,-112.064432576739,0,,,9821.2345892139,0.656168,0,0.245841215216,0.8661909726,16,5,0,9821.2345892139,0,0,0.245841215216,0,0,0,122.1, -5.4, 1.3,0,0,1024,1024,1024,1024,0,0,0,0,0,0,0,99,3.963,3.981,3.992,3.99,3.988,3.99,0,32,9821.2345892139,0,10,Assisted_Takeoff,
4900,2023-10-11 01:30:04,38.498192580498,-112.064432542829,0,,,9821.2345892139,0.656168,0,0.229427828864,0.88263126184,16,5,0,9821.2345892139,0,0,0.245841215216,0,0,0,122.1, -5.4, 1.3,0,0,1024,1024,1024,1024,0,0,0,0,0,0,0,99,3.963,3.981,3.992,3.99,3.988,3.99,0,32,9821.2345892139,0,10,Assisted_Takeoff,
5000,2023-10-11 01:30:04,38.4981925667863,-112.064432556941,0,,,9821.2345892139,0.656168,0,0.235814968176,0.88905514656,16,5,0,9821.2345892139,0,0,0.245841215216,0,0,0,122.1, -5.4, 1.2,0,0,1024,1024,1024,1024,0,0,0,0,0,0,0,99,3.963,3.981,3.992,3.99,3.988,3.99,0,32,9821.2345892139,0,10,Assisted_Takeoff,
5100,2023-10-11 01:30:04,38.4981924335595,-112.064432528008,0,,,9821.2345892139,0.656168,0,0.27421096678,0.93835961008,16,5,0,9821.2345892139,0,0,0.27421096678,0,0,0,122.1, -5.4, 1.2,0,0,1024,1024,1024,1024,0,0,0,0,0,0,0,99,3.963,3.981,3.992,3.99,3.988,3.99,0,32,9821.2345892139,0,10,Assisted_Takeoff,
5200,2023-10-11 01:30:04,38.4981924079395,-112.064432539013,0,,,9821.2345892139,0.656168,0,0.283995743996,0.94822181512,16,5,0,9821.2345892139,0,0,0.283995743996,0,0,0,122.1, -5.4, 1.3,0,0,1024,1024,1024,1024,0,0,0,0,0,0,0,99,3.963,3.981,3.992,3.99,3.988,3.99,0,32,9821.2345892139,0,10,Assisted_Takeoff,
5300,2023-10-11 01:30:04,38.4981924484586,-112.064432516521,0,,,9821.2345892139,0.656168,0,0.267889116184,0.9643373012,16,5,0,9821.2345892139,0,0,0.283995743996,0,0,0,122.1, -5.4, 1.3,0,0,1024,1024,1024,1024,0,0,0,0,0,0,0,99,3.963,3.981,3.992,3.99,3.988,3.99,0,32,9821.2345892139,0,10,Assisted_Takeoff,
5400,2023-10-11 01:30:04,38.4981924265464,-112.064432524494,0,,,9821.2345892139,0.656168,0,0.276083342168,0.97265094976,16,5,0,9821.2345892139,0,0,0.283995743996,0,0,0,122.2, -5.4, 1.2,0,0,1024,1024,1024,1024,0,0,0,0,0,0,0,99,3.963,3.981,3.992,3.99,3.988,3.99,0,32,9821.2345892139,0,10,Assisted_Takeoff,
5500,2023-10-11 01:30:04,38.4981924757936,-112.064432506069,0,,,9821.2345892139,0.656168,0,0.257614509556,0.99137470364,16,5,0,9821.2345892139,0,0,0.283995743996,0,0,0,122.1, -5.4, 1.2,0,0,1024,1024,1024,1024,0,0,0,0,0,0,0,99,3.963,3.981,3.992,3.99,3.988,3.99,0,32,9821.2345892139,0,10,Assisted_Takeoff,
5600,2023-10-11 01:30:05,38.4981924606015,-112.064432512589,0,,,9821.2345892139,0.656168,0,0.263412410004,0.99722116052,16,5,0,9821.2345892139,0,0,0.283995743996,0,0,0,122.1, -5.4, 1.2,0,0,1024,1024,1024,1024,0,0,0,0,0,0,0,99,3.963,3.981,3.992,3.99,3.988,3.99,0,32,9821.2345892139,0,10,Assisted_Takeoff,
5700,2023-10-11 01:30:05,38.4981924807666,-112.064432497941,0,,,9821.2345892139,0.656168,0,0.254967527844,1.00568244688,16,5,0,9821.2345892139,0,0,0.283995743996,0,0,0,122.1, -5.4, 1.2,0,0,1024,1024,1024,1024,0,0,0,0,0,0,0,99,3.963,3.981,3.992,3.99,3.988,3.99,0,32,9821.2345892139,0,10,Assisted_Takeoff,
5800,2023-10-11 01:30:05,38.4981924664249,-112.064432501129,0,,,9821.2345892139,0.656168,0,0.26007874848,1.01099412684,16,5,0,9821.2345892139,0,0,0.283995743996,0,0,0,122.1, -5.4, 1.3,0,0,1024,1024,1024,1024,0,0,0,0,0,0,0,99,3.963,3.981,3.992,3.99,3.988,3.99,0,32,9821.2345892139,0,10,Assisted_Takeoff,
5900,2023-10-11 01:30:05,38.4981923445685,-112.06443249528,0,,,9821.2345892139,0.656168,0,0.300204077848,1.05548559808,16,5,0,9821.2345892139,0,0,0.300204077848,0,0,0,122.1, -5.4, 1.3,0,0,1024,1024,1024,1024,0,0,0,0,0,0,0,99,3.963,3.981,3.992,3.99,3.988,3.99,0,32,9821.2345892139,0,10,Assisted_Takeoff,
6000,2023-10-11 01:30:05,38.4981923201604,-112.064432499752,0,,,9821.2345892139,0.656168,0,0.30896326448,1.06448166136,16,5,0,9821.2345892139,0,0,0.30896326448,0,0,0,122.1, -5.4, 1.2,0,0,1024,1024,1024,1024,0,0,0,0,0,0,0,99,3.963,3.981,3.992,3.99,3.988,3.99,0,32,9821.2345892139,0,10,Assisted_Takeoff,
6100,2023-10-11 01:30:05,38.498192362733,-112.064432648776,0,,,9821.2345892139,0.656168,0,0.313127306608,1.10978021924,16,5,0,9821.2345892139,0,0,0.313127306608,0,0,0,122.1, -5.4, 1.3,0,0,1024,1024,1024,1024,0,0,0,0,0,0,0,99,3.963,3.981,3.992,3.99,3.988,3.99,0,32,9821.2345892139,0,10,Assisted_Takeoff,
6200,2023-10-11 01:30:05,38.4981923445917,-112.064432664662,0,,,9821.2345892139,0.656168,0,0.32112205752,1.11780515388,16,5,0,9821.2345892139,0,0,0.32112205752,0,0,0,122.1, -5.4, 1.3,0,0,1024,1024,1234,1024,0,0,32,0,0,0,0,99,3.963,3.981,3.992,3.99,3.988,3.99,0,32,9821.2345892139,0,10,Assisted_Takeoff,
6300,2023-10-11 01:30:05,38.4981923756549,-112.064432477967,0,,,9821.2345892139,0.656168,0,0.28783957614,1.17230646796,16,5,0,9821.2345892139,0,0,0.32112205752,0,0,0,122.1, -5.4, 1.3,0,0,1024,1024,1234,1024,0,0,32,0,0,0,0,99,3.963,3.981,3.992,3.99,3.988,3.99,0,32,9821.2345892139,0,10,Assisted_Takeoff,
6400,2023-10-11 01:30:05,38.4981923596881,-112.064432477467,0,,,9821.2345892139,0.656168,0,0.293217857152,1.1781332398,16,5,0,9821.2345892139,0,0,0.32112205752,0,0,0,122.1, -5.4, 1.3,0,0,1024,1024,1321,1024,0,0,45,0,0,0,0,99,3.963,3.981,3.992,3.99,3.988,3.99,0,32,9821.2345892139,0,10,Assisted_Takeoff,
6500,2023-10-11 01:30:06,38.4981923955566,-112.064432478829,0,,,9821.2345892139,0.656168,0,0.281186360704,1.1912237914,16,5,0,9821.2345892139,0,0,0.32112205752,0,0,0,122.2, -5.4, 1.3,0,0,1024,1024,1414,1024,0,0,59,0,0,0,0,99,3.963,3.981,3.992,3.99,3.988,3.99,0,32,9821.2345892139,0,10,Assisted_Takeoff,
6600,2023-10-11 01:30:06,38.498192390395,-112.064432479475,0,,,9821.2345892139,0.656168,0,0.283001649476,1.19311683608,16,5,0,9821.2345892139,0,0,0.32112205752,0,0,0,122.2, -5.2, 1.2,0,0,1024,1024,1533,1024,0,0,77,0,0,0,0,99,3.963,3.981,3.992,3.99,3.988,3.99,0,32,9821.2345892139,0,10,Assisted_Takeoff,
6700,2023-10-11 01:30:06,38.4981924140805,-112.064432475404,0,,,9821.2345892139,0.656168,0,0.274559720072,1.2018373088,16,5,0,9821.2345892139,0,0,0.32112205752,0,0,0,122.1, -5.2, 1.2,0,0,1024,1024,1637,1024,0,0,93,0,0,0,0,99,3.963,3.981,3.992,3.99,3.988,3.99,0,32,9821.2345892139,0,10,Assisted_Takeoff,
6800,2023-10-11 01:30:06,38.4981924038245,-112.064432471694,0,,,9821.2345892139,0.656168,0,0.277626649304,1.2057251042,16,5,0,9821.2345892139,0,0,0.32112205752,0,0,0,122.1, -5.3, 1.2,0,0,1024,1024,1684,1024,0,0,100,0,0,0,0,99,3.963,3.981,3.992,3.99,3.988,3.99,0,32,9821.2345892139,0,10,Assisted_Takeoff,
6900,2023-10-11 01:30:06,38.4981924191528,-112.0644324779,0,,,9821.2345892139,0.656168,0,0.27312336832,1.21159124612,16,5,0,9821.2345892139,0,0,0.32112205752,0,0,0,122.2, -5.4, 1.3,0,0,1024,1024,1684,1024,0,0,100,0,0,0,0,99,3.963,3.981,3.992,3.99,3.988,3.99,0,32,9821.2345892139,0,10,Assisted_Takeoff,
7000,2023-10-11 01:30:06,38.4981924156414,-112.064432479708,0,,,9821.2345892139,0.656168,0,0.27450460196,1.21297247976,16,5,0,9821.2345892139,0,0,0.32112205752,0,0,0,122.1, -5.3, 1.3,0,0,1024,1024,1684,1024,0,0,100,0,0,0,0,99,3.963,3.981,3.992,3.99,3.988,3.99,0,32,9821.2345892139,0,10,Assisted_Takeoff,
7100,2023-10-11 01:30:06,38.4981924172216,-112.064432479568,0,,,9821.2345892139,0.656168,0,0.273957357848,1.2135499076,16,5,0,9821.2345892139,0,0,0.32112205752,0,0,0,122.1, -5.4, 1.3,0,0,1024,1024,1684,1024,0,0,100,0,0,0,0,99,3.963,3.981,3.992,3.99,3.988,3.99,0,32,9821.2345892139,0,10,Assisted_Takeoff,
7200,2023-10-11 01:30:06,38.4981924032307,-112.064432473512,0,,,9821.2345892139,0.656168,0,0.27802166244,1.21894032772,16,5,0,9821.2345892139,0,0,0.32112205752,0,0,0,121.9, -5.4, 1.4,0,0,1024,1024,1684,1024,0,0,100,0,0,0,0,99,3.963,3.981,3.992,3.99,3.988,3.99,0,32,9821.2345892139,0,10,Assisted_Takeoff,
7300,2023-10-11 01:30:06,38.4981923921274,-112.064432453729,0,,,9821.2345892139,0.656168,0,0.279746728112,1.22589242768,16,5,0,9821.2345892139,0,0,0.32112205752,0,0,0,121.9, -5, 1.5,0,0,1024,1024,1684,1024,0,0,100,0,0,0,0,99,3.963,3.981,3.992,3.99,3.988,3.99,0,32,9821.2345892139,0,10,Assisted_Takeoff,
7400,2023-10-11 01:30:06,38.4981923348853,-112.064432395883,0,,,9821.2345892139,0.656168,0,0.294374681336,1.25251972512,16,5,0,9821.2345892139,0,0,0.32112205752,0,0,0,121.9, -3.5, 1.4,0,0,1024,1024,1684,1024,0,0,100,0,0,0,0,99,3.963,3.981,3.992,3.99,3.988,3.99,0,32,9821.2345892139,0,10,Assisted_Takeoff,
7500,2023-10-11 01:30:06,38.4981920842439,-112.064432278525,0,,,9821.2345892139,0.984252,0,0.37732284672,1.34991146052,16,5,0,9821.2345892139,0,0,0.37732284672,-0.223694,0.223694,-0.447388,121.4, -1, 1.4,0,0,1024,1024,1684,1024,0,0,100,0,0,0,0,99,3.963,3.981,3.992,3.99,3.988,3.99,0,32,9821.2345892139,0,6,P-GPS,
7600,2023-10-11 01:30:07,38.4981919452478,-112.064432147612,0.328084,,,9821.5626732139,0.984252,0.3131716,0.42506891124,1.41291343104,16,5,0,9821.5626732139,0.328084,0.3131716,0.42506891124,-0.223694,0.223694,-0.671082,121, 2.2, 0.7,0,0,1024,1024,1684,1024,0,0,100,0,0,0,0,99,3.963,3.981,3.992,3.99,3.988,3.99,0,32,9821.5626732139,0.328084,6,P-GPS,
7700,2023-10-11 01:30:07,38.4981919311044,-112.064431940531,0.328084,,,9821.5626732139,0.984252,0.223694,0.4327756044,1.47226710748,16,5,0,9821.5626732139,0.328084,0.3131716,0.4327756044,-0.223694,0,-1.11847,120.7, 4.5, -0.4,0,0,1024,1024,1684,1024,0,0,100,0,0,0,0,99,3.963,3.981,3.992,3.99,3.988,3.99,0,32,9821.5626732139,0.328084,6,P-GPS,
7800,2023-10-11 01:30:07,38.4981918585469,-112.064431910249,0.656168,,,9821.8907572139,1.312336,0,0.46008203572,1.50011815824,16,5,0,9821.8907572139,0.656168,0.3131716,0.46008203572,0,0,-1.565858,120.4, 5, -0.9,0,0,1024,1024,1684,1024,0,0,100,0,0,0,0,99,3.963,3.981,3.992,3.99,3.988,3.99,0,32,9821.8907572139,0.656168,6,P-GPS,"Home Point recorded. Return-to-Home Altitude:498.7 ft"
7900,2023-10-11 01:30:07,38.4981919784509,-112.064432097165,0.984252,,,9822.2188412139,1.64042,0,0.4128280972,1.5691273468,16,5,0,9822.2188412139,0.984252,0.3131716,0.46008203572,0,0,-2.013246,120.5, 3.8, -0.4,0,0,1024,1024,1684,1024,0,0,100,0,0,0,0,99,3.963,3.981,3.992,3.99,3.988,3.99,0,32,9822.2188412139,0.984252,6,P-GPS,
8000,2023-10-11 01:30:07,38.4981920305426,-112.064432233551,1.312336,,,9822.5469252139,1.968504,0.223694,0.39540355596,1.61246068152,16,5,0,9822.5469252139,1.312336,0.3131716,0.46008203572,0,-0.223694,-2.460634,120.5, 1.4, 0.9,0,0,1024,1024,1684,1024,0,0,100,0,0,0,0,99,3.963,3.981,3.992,3.99,3.988,3.99,0,32,9822.5469252139,1.312336,6,P-GPS,
8100,2023-10-11 01:30:07,38.4981919206731,-112.064432358409,1.64042,,,9822.8750092139,2.296588,0.223694,0.43968833428,1.66610569636,16,5,0,9822.8750092139,1.64042,0.3131716,0.46008203572,0,-0.223694,-3.131716,120.6, -0.6, 1.4,0,0,1024,1024,1684,1024,0,0,100,0,0,0,0,99,3.963,3.981,3.992,3.99,3.988,3.99,0,32,9822.8750092139,1.64042,6,P-GPS,
8200,2023-10-11 01:30:07,38.4981919187306,-112.064432543145,2.296588,,,9823.5311772139,2.624672,0.223694,0.45191602496,1.71886160356,16,5,0,9823.5311772139,2.296588,0.3131716,0.46008203572,0,-0.223694,-3.579104,120.9, -1.8, 0.8,0,0,1024,1024,1684,1024,0,0,100,0,0,0,0,99,3.963,3.981,3.992,3.99,3.988,3.99,0,32,9823.5311772139,2.296588,6,P-GPS,
8300,2023-10-11 01:30:07,38.498191904637,-112.064432840517,2.624672,,,9823.8592612139,3.28084,0.3131716,0.48680119668,1.80393050392,16,5,0,9823.8592612139,2.624672,0.3131716,0.48680119668,-0.223694,-0.223694,-4.250186,121.1, -1.9, 0.1,0,0,1024,1024,1684,1024,0,0,100,0,0,0,0,99,3.963,3.981,3.992,3.99,3.988,3.99,0,32,9823.8592612139,2.624672,6,P-GPS,
8400,2023-10-11 01:30:07,38.4981918126327,-112.064432951258,3.28084,,,9824.5154292139,3.937008,0.223694,0.53087600124,1.85004599096,16,5,0,9824.5154292139,3.28084,0.3131716,0.53087600124,-0.223694,0,-4.697574,121.1, -1.2, -0.2,0,0,1024,1024,1684,1025,0,0,100,0,0,0,0,99,3.963,3.981,3.992,3.99,3.988,3.99,0,32,9824.5154292139,3.28084,6,P-GPS,
8500,2023-10-11 01:30:08,38.498191687976,-112.064432973424,4.265092,,,9825.4996812139,4.92126,0.223694,0.57448820736,1.8959646276,16,5,0,9825.4996812139,4.265092,0.3131716,0.57448820736,-0.223694,0,-5.368656,121.2, -0.1, -0.9,0,0,1024,1024,1684,1031,0,0,100,1,0,0,0,99,3.963,3.981,3.992,3.99,3.988,3.99,0,32,9825.4996812139,4.265092,6,P-GPS,
8600,2023-10-11 01:30:08,38.4981915613753,-112.064433013568,5.249344,,,9826.4839332139,5.577428,0.223694,0.6211942456,1.94355649264,16,5,0,9826.4839332139,5.249344,0.3131716,0.6211942456,-0.223694,0,-6.263432,121.1, 0.7, -1.6,0,0,1024,1024,1684,1042,0,0,100,3,0,0,0,99,3.963,3.981,3.992,3.99,3.988,3.99,0,32,9826.4839332139,5.249344,6,P-GPS,
8700,2023-10-11 01:30:08,38.4981913098359,-112.064432770141,6.233596,,,9827.4681852139,6.56168,0.223694,0.68333007436,2.05868116824,16,5,0,9827.4681852139,6.233596,0.3131716,0.68333007436,-0.223694,0,-6.934514,120.8, 1.2, -2.2,0,0,1024,1024,1684,1045,0,0,100,3,0,0,0,99,3.963,3.981,3.992,3.99,3.988,3.99,0,32,9827.4681852139,6.233596,6,P-GPS,
8800,2023-10-11 01:30:08,38.4981912497723,-112.06443275802,7.217848,,,9828.4524372139,7.545932,0.223694,0.70350067868,2.08086620832,16,5,0,9828.4524372139,7.217848,0.3131716,0.70350067868,-0.223694,0,-7.605596,120.6, 1.2, -2.4,0,0,1024,1024,1684,1045,0,0,100,3,0,0,0,99,3.963,3.981,3.992,3.99,3.988,3.99,0,32,9828.4524372139,7.217848,6,P-GPS,
8900,2023-10-11 01:30:08,38.4981912700491,-112.064432487988,8.530184,,,9829.7647732139,8.858268,0,0.67992784328,2.15832684072,16,5,0,9829.7647732139,8.530184,0.3131716,0.70350067868,0,0,-8.276678,120.4, 0.8, -2,0,0,1024,1024,1684,1047,0,0,100,3,0,0,0,99,3.963,3.981,3.992,3.99,3.988,3.99,0,32,9829.7647732139,8.530184,6,P-GPS,
9000,2023-10-11 01:30:08,38.4981912975672,-112.064432398888,9.84252,,,9831.0771092139,9.84252,0,0.66638453576,2.1856792038,16,5,0,9831.0771092139,9.84252,0.3131716,0.70350067868,0,0,-9.171454,120.1, 0.4, -1.2,0,0,1024,1024,1684,1057,0,0,100,5,0,0,0,99,3.963,3.981,3.992,3.99,3.988,3.99,0,32,9831.0771092139,9.84252,6,P-GPS,
9100,2023-10-11 01:30:08,38.4981914494413,-112.06443245519,11.154856,,,9832.3894452139,11.154856,0,0.61382219812,2.2433727752,16,5,0,9832.3894452139,11.154856,0.3131716,0.70350067868,0,0,-9.842536,119.9, 0, -0.5,0,0,1024,1024,1650,1060,0,0,95,5,0,0,0,99,3.963,3.981,3.992,3.99,3.988,3.99,0,32,9832.3894452139,11.154856,6,P-GPS,
9200,2023-10-11 01:30:08,38.4981915154514,-112.064432306059,12.795276,,,9834.0298652139,12.467192,0.223694,0.58444555676,2.29229666128,16,5,0,9834.0298652139,12.795276,0.3131716,0.70350067868,0,0.223694,-10.289924,119.5, -0.2, -0.4,0,0,1100,1024,1621,1064,12,0,90,6,0,0,0,99,3.963,3.981,3.992,3.99,3.988,3.99,0,32,9834.0298652139,12.795276,6,P-GPS,
9300,2023-10-11 01:30:08,38.498191886398,-112.064431891191,14.435696,,,9835.6702852139,13.779528,0.223694,0.45071851836,2.47215559092,16,5,0,9835.6702852139,14.435696,0.3131716,0.70350067868,0,0.223694,-10.737312,119.3, 0.1, -0.4,0,0,1398,1024,1521,1049,57,0,75,4,0,0,0,99,3.963,3.981,3.992,3.99,3.988,3.99,0,32,9835.6702852139,14.435696,6,P-GPS,
9400,2023-10-11 01:30:08,38.4981919661729,-112.064431643593,15.748032,,,9836.9826212139,15.091864,0.223694,0.43796261244,2.54861228628,16,5,0,9836.9826212139,15.748032,0.3131716,0.70350067868,0,0.223694,-10.961006,119.1, 0.8, -0.7,0,0,1398,1024,1521,1049,57,0,75,4,0,0,0,99,3.963,3.981,3.992,3.99,3.988,3.99,0,32,9836.9826212139,15.748032,6,P-GPS,
9500,2023-10-11 01:30:08,38.4981918904269,-112.064431428475,17.716536,,,9838.9511252139,16.4042,0.223694,0.48553807328,2.61596793148,16,5,0,9838.9511252139,17.716536,0.3131716,0.70350067868,0,0.223694,-10.737312,119, 0.6, -0.9,0,0,1454,1024,1451,1050,65,0,65,4,0,0,0,99,3.963,3.981,3.992,3.99,3.988,3.99,0,32,9838.9511252139,17.716536,6,P-GPS,
9600,2023-10-11 01:30:09,38.4981919750854,-112.064431159602,19.356956,,,9840.5915452139,17.716536,0.447388,0.49493439904,2.69872383964,16,5,0,9840.5915452139,19.356956,0.447388,0.70350067868,0,0.447388,-10.737312,118.9, -2.4, -0.5,0,0,1615,1024,1360,1024,90,0,51,0,0,0,0,99,3.963,3.981,3.992,3.99,3.988,3.99,0,32,9840.5915452139,19.356956,6,P-GPS,
9700,2023-10-11 01:30:09,38.498192029624,-112.06443095719,20.997376,,,9842.2319652139,19.028872,0.447388,0.51338256236,2.75984916968,16,5,0,9842.2319652139,20.997376,0.447388,0.70350067868,0,0.447388,-10.289924,118.9, -8.1, -0.1,0,0,1676,1024,1330,1024,99,0,46,0,0,0,0,99,3.963,3.981,3.992,3.99,3.988,3.99,0,32,9842.2319652139,20.997376,6,P-GPS,
9800,2023-10-11 01:30:09,38.4981920568042,-112.064430550546,22.309712,,,9843.5443012139,20.341208,0.671082,0.58797902144,2.87638788732,16,5,0,9843.5443012139,22.309712,0.671082,0.70350067868,0,0.671082,-9.842536,118.8, -15.3, 0.2,0,0,1684,1024,1285,1024,100,0,40,0,0,0,0,99,3.963,3.981,3.992,3.99,3.988,3.99,0,32,9843.5443012139,22.309712,6,P-GPS,
9900,2023-10-11 01:30:09,38.4981919590873,-112.064430095581,23.950132,,,9845.1847212139,21.653544,1.1408394,0.71197180756,3.01110245856,16,5,0,9845.1847212139,23.950132,1.1408394,0.71197180756,-0.223694,1.11847,-9.395148,118.8, -22.3, 0.3,0,0,1684,1024,1248,1024,100,0,34,0,0,0,0,99,3.963,3.981,3.992,3.99,3.988,3.99,0,32,9845.1847212139,23.950132,6,P-GPS,
10000,2023-10-11 01:30:09,38.4981917322634,-112.064429155173,25.262468,,,9846.4970572139,22.96588,1.901399,0.98191276108,3.2920932812,17,5,0,9846.4970572139,25.262468,1.901399,0.98191276108,-0.671082,1.789552,-8.724066,118.7, -26.9, 0,0,0,1684,1024,1197,1024,100,0,26,0,0,0,0,99,3.963,3.981,3.992,3.99,3.988,3.99,0,32,9846.4970572139,25.262468,6,P-GPS,
10100,2023-10-11 01:30:09,38.4981914260811,-112.064427739442,26.574804,,,9847.8093932139,23.950132,2.908022,1.39080056944,3.7114830584,17,5,0,9847.8093932139,26.574804,2.908022,1.39080056944,-1.11847,2.684328,-8.052984,118.6, -28.9, -0.1,0,0,1684,1024,1128,1024,100,0,16,0,0,0,0,99,3.963,3.981,3.992,3.99,3.988,3.99,0,32,9847.8093932139,26.574804,6,P-GPS,
10200,2023-10-11 01:30:09,38.4981908691573,-112.064426001687,27.559056,,,9848.7936452139,24.934384,3.7133204,1.92607617712,4.2476707396,17,5,0,9848.7936452139,27.559056,3.7133204,1.92607617712,-1.565858,3.35541,-7.381902,118.5, -29.2, 0,0,0,1684,1024,1128,1024,100,0,16,0,0,0,0,99,3.963,3.981,3.992,3.99,3.988,3.99,0,32,9848.7936452139,27.559056,6,P-GPS,
10300,2023-10-11 01:30:09,38.4981903170769,-112.064423498408,28.871392,,,9850.1059812139,25.918636,4.6080964,2.66152895656,4.990321682,17,5,0,9850.1059812139,28.871392,4.6080964,2.66152895656,-1.789552,4.250186,-6.71082,118.4, -28, 0.4,0,0,1684,1024,1130,1069,100,0,16,7,0,0,0,99,3.963,3.981,3.992,3.99,3.988,3.99,0,32,9850.1059812139,28.871392,6,P-GPS,
10400,2023-10-11 01:30:09,38.4981894391493,-112.06442097935,29.855644,,,9851.0902332139,25.918636,5.4133948,3.4487205828,5.7776904736,17,5,0,9851.0902332139,29.855644,5.4133948,3.4487205828,-2.23694,4.921268,-5.816044,118.3, -26.4, 0.4,0,0,1684,1024,1143,1155,100,0,18,20,0,0,0,99,3.963,3.981,3.992,3.99,3.988,3.99,0,32,9851.0902332139,29.855644,6,P-GPS,"Horizontal ambient light too low. Horizontal obstacle avoidance unavailable. Only infrared sensors available. Fly with caution"
10500,2023-10-11 01:30:10,38.4981883061643,-112.064418067954,30.511812,,,9851.7464012139,25.918636,6.1963238,4.3757219248,6.7061353852,17,5,0,9851.7464012139,30.511812,6.1963238,4.3757219248,-2.684328,5.59235,-5.144962,118.2, -24.8, 0.2,0,0,1684,1024,1143,1155,100,0,18,20,0,0,0,99,3.963,3.981,3.992,3.99,3.988,3.99,0,32,9851.7464012139,30.511812,6,P-GPS,
10600,2023-10-11 01:30:10,38.4981871617231,-112.064414962736,31.16798,,,9852.4025692139,25.918636,6.71082,5.3554463656,7.68618791,17,5,0,9852.4025692139,31.16798,6.71082,5.3554463656,-2.908022,6.039738,-4.250186,118.3, -23.6, 0.8,0,0,1684,1024,1140,1158,100,0,18,20,0,0,0,99,3.963,3.981,3.992,3.99,3.988,3.99,0,32,9852.4025692139,31.16798,6,P-GPS,
10700,2023-10-11 01:30:10,38.4981857678766,-112.064411674157,31.824148,,,9853.0587372139,25.918636,7.2029468,6.4205710716,8.7540685216,17,5,0,9853.0587372139,31.824148,7.2029468,6.4205710716,-3.131716,6.487126,-3.35541,118.6, -22.9, 2,0,0,1684,1024,1144,1175,100,0,18,23,0,0,0,98,3.963,3.981,3.992,3.99,3.988,3.99,0,32,9853.0587372139,31.824148,6,P-GPS,
10800,2023-10-11 01:30:10,38.4981843677312,-112.064408097702,32.480316,,,9853.7149052139,25.918636,7.8069206,7.5618768824,9.8959320752,17,5,0,9853.7149052139,32.480316,7.8069206,7.5618768824,-3.579104,6.934514,-2.684328,119.1, -22.5, 3.4,0,0,1684,1024,1150,1248,100,0,19,34,0,0,0,98,3.963,3.981,3.992,3.99,3.988,3.99,0,32,9853.7149052139,32.480316,6,P-GPS,
10900,2023-10-11 01:30:10,38.4981830059234,-112.064404650333,32.480316,,,9853.7149052139,25.918636,8.4108944,8.664042272,10.9985895908,17,5,0,9853.7149052139,32.480316,8.4108944,8.664042272,-4.026492,7.381902,-2.013246,119.5, -22.4, 5.1,0,0,1684,1024,1163,1332,100,0,21,47,0,0,0,98,3.963,3.981,3.992,3.99,3.988,3.99,0,32,9853.7149052139,32.480316,6,P-GPS,
11000,2023-10-11 01:30:10,38.4981812852144,-112.064400634367,32.8084,,,9854.0429892139,25.918636,8.4108944,9.9692260408,12.305938714,17,5,0,9854.0429892139,32.8084,8.4108944,9.9692260408,-4.47388,7.82929,-1.342164,120.3, -21.8, 7.9,0,0,1684,1024,1152,1463,100,0,19,67,0,0,0,98,3.963,3.981,3.992,3.99,3.988,3.99,0,32,9854.0429892139,32.8084,6,P-GPS,
11100,2023-10-11 01:30:10,38.4981792096832,-112.064396625704,32.8084,,,9854.0429892139,25.918636,9.618842,11.33038094,13.6783797028,17,5,0,9854.0429892139,32.8084,9.618842,11.33038094,-4.921268,8.276678,-0.894776,122.2, -18.9, 13.2,0,0,1684,1024,1144,1476,100,0,18,68,0,0,0,98,3.963,3.981,3.992,3.99,3.988,3.99,0,32,9854.0429892139,32.8084,6,P-GPS,
11200,2023-10-11 01:30:10,38.4981769526788,-112.06439224367,33.136484,,,9854.3710732139,25.918636,10.289924,12.8190948984,15.1762800132,17,5,0,9854.3710732139,33.136484,10.289924,12.8190948984,-5.816044,8.500372,-0.671082,126.7, -12.9, 19.2,0,0,1684,1024,1151,1460,100,0,19,66,0,0,0,98,3.963,3.981,3.992,3.99,3.988,3.99,0,32,9854.3710732139,33.136484,6,P-GPS,
11300,2023-10-11 01:30:10,38.4981744956169,-112.064388763132,32.8084,,,9854.0429892139,25.918636,10.6478344,14.117946646,16.5146986912,17,5,0,9854.3710732139,33.136484,10.6478344,14.117946646,-6.71082,8.276678,-0.447388,133.1, -6.6, 23.4,0,0,1684,1024,1151,1460,100,0,19,66,0,0,0,98,3.963,3.981,3.992,3.99,3.988,3.99,0,32,9854.0429892139,32.8084,6,P-GPS,
11400,2023-10-11 01:30:10,38.4981715853921,-112.064384785124,33.136484,,,9854.3710732139,25.918636,10.6030956,15.629265592,18.0695871924,17,5,0,9854.3710732139,33.136484,10.6478344,15.629265592,-7.381902,7.605596,-0.223694,139.5, -2.3, 25.7,0,0,1684,1024,1156,1458,100,0,20,66,0,0,0,98,3.963,3.981,3.992,3.99,3.988,3.99,0,32,9854.3710732139,33.136484,6,P-GPS,
11500,2023-10-11 01:30:10,38.4981683233658,-112.06438100109,32.8084,,,9854.0429892139,25.918636,10.6030956,17.1683404444,19.6770347504,17,5,0,9854.3710732139,33.136484,10.6478344,17.1683404444,-8.052984,6.71082,0,145.1, -0.2, 26.5,0,0,1684,1024,1141,1403,100,0,18,57,0,0,0,98,3.963,3.981,3.992,3.99,3.988,3.99,0,32,9854.0429892139,32.8084,6,P-GPS,
11600,2023-10-11 01:30:11,38.4981649031378,-112.064377932308,32.8084,,,9854.0429892139,25.918636,10.3570322,18.5801843216,21.2018379488,19,5,0,9854.3710732139,33.136484,10.6478344,18.5801843216,-8.724066,5.59235,0,149.7, -0.1, 26.2,0,0,1684,1024,1024,1024,100,0,0,0,0,0,0,98,3.963,3.981,3.992,3.99,3.988,3.99,0,32,9854.0429892139,32.8084,6,P-GPS,
11700,2023-10-11 01:30:11,38.4981611041445,-112.064376076835,32.8084,,,9854.0429892139,25.918636,10.3122934,19.8077106076,22.6857290724,19,5,0,9854.3710732139,33.136484,10.6478344,19.8077106076,-9.171454,4.697574,0,153.2, -1.5, 24.3,0,0,1684,1024,1024,1024,100,0,0,0,0,0,0,98,3.963,3.981,3.992,3.99,3.988,3.99,0,32,9854.0429892139,32.8084,6,P-GPS,
11800,2023-10-11 01:30:11,38.4981572783897,-112.064374092621,32.8084,,,9854.0429892139,25.918636,10.3122934,21.1031502816,24.1921267584,19,5,0,9854.3710732139,33.136484,10.6478344,21.1031502816,-9.618842,3.579104,0,155.3, -5.2, 13.9,0,0,1684,1024,1024,1024,100,0,0,0,0,0,0,98,3.963,3.981,3.992,3.99,3.988,3.99,0,32,9854.0429892139,32.8084,6,P-GPS,
11900,2023-10-11 01:30:11,38.4981530963709,-112.064373050971,32.480316,,,9853.7149052139,25.918636,10.5359874,22.3048891652,25.7466543672,19,5,0,9854.3710732139,33.136484,10.6478344,22.3048891652,-10.06623,3.131716,0,155.8, -13, 1.5,0,0,1684,1024,1024,1024,100,0,0,0,0,0,0,98,3.963,3.981,3.992,3.99,3.988,3.99,0,32,9853.7149052139,32.480316,6,P-GPS,
12000,2023-10-11 01:30:11,38.4981489941037,-112.064371347851,32.480316,,,9853.7149052139,25.918636,11.0281142,23.666175298,27.3204076984,19,5,0,9854.3710732139,33.136484,11.0281142,23.666175298,-10.513618,3.35541,0,156.6, -18.8, -6.1,0,0,1684,1024,1024,927,100,0,0,-15,0,0,0,98,3.963,3.981,3.992,3.99,3.988,3.99,0,32,9853.7149052139,32.480316,6,P-GPS,
12100,2023-10-11 01:30:11,38.4981451222414,-112.064369309751,32.480316,,,9853.7149052139,25.918636,11.6768268,25.0617462088,28.8482292696,19,5,0,9854.3710732139,33.136484,11.6768268,25.0617462088,-10.961006,4.026492,0,157.3, -24.6, -8.9,0,0,1684,1024,1024,815,100,0,0,-32,0,0,0,98,3.963,3.981,3.992,3.99,3.988,3.99,0,32,9853.7149052139,32.480316,6,P-GPS,
12200,2023-10-11 01:30:11,38.4981405801482,-112.06436692534,32.152232,,,9853.3868212139,25.918636,12.415017,26.716044162,30.6398303768,19,5,0,9854.3710732139,33.136484,12.415017,26.716044162,-11.408394,4.921268,0,157, -26.6, -8.2,0,0,1684,1024,1035,706,100,0,2,-48,0,0,0,98,3.963,3.981,3.992,3.99,3.988,3.99,0,32,9853.3868212139,32.152232,6,P-GPS,
12300,2023-10-11 01:30:11,38.4981360322364,-112.064362775399,32.152232,,,9853.3868212139,25.918636,13.6005952,28.73359672,32.67880682,19,5,0,9854.3710732139,33.136484,13.6005952,28.73359672,-12.30317,5.816044,0,156.1, -25.3, -7.6,0,0,1684,1024,1052,674,100,0,4,-53,0,0,0,98,3.963,3.981,3.992,3.99,3.988,3.99,0,32,9853.3868212139,32.152232,6,P-GPS,
12400,2023-10-11 01:30:11,38.4981308698089,-112.064359562498,32.152232,,,9853.3868212139,25.918636,14.4953712,30.7372713248,34.773951244,19,5,0,9854.3710732139,33.136484,14.4953712,30.7372713248,-12.974252,6.487126,0,154, -18.7, -11.7,0,0,1684,1024,1044,885,100,0,3,-21,0,0,0,98,3.963,3.981,3.992,3.99,3.988,3.99,0,32,9853.3868212139,32.152232,6,P-GPS,
12500,2023-10-11 01:30:11,38.4981252327168,-112.064354821982,32.480316,,,9853.7149052139,25.918636,15.1217144,33.171260904,37.23589358,19,5,0,9854.3710732139,33.136484,15.1217144,33.171260904,-13.197946,7.381902,0,149.3, -8.9, -18.5,0,0,1684,1024,1039,994,100,0,2,-5,0,0,0,98,3.963,3.981,3.992,3.99,3.988,3.99,0,32,9853.7149052139,32.480316,6,P-GPS,
12600,2023-10-11 01:30:12,38.4981199511136,-112.06435078511,32.480316,,,9853.7149052139,25.918636,15.0769756,35.379266224,39.481300476,19,5,0,9854.3710732139,33.136484,15.1217144,35.379266224,-12.750558,8.052984,0,144.4, -2, -21.2,0,0,1684,1024,1039,994,100,0,2,-5,0,0,0,98,3.963,3.981,3.992,3.99,3.988,3.99,0,32,9853.7149052139,32.480316,6,P-GPS,
12700,2023-10-11 01:30:12,38.4981152219529,-112.064346243201,32.480316,,,9853.7149052139,25.918636,14.8980204,37.532481516,41.640093196,19,5,0,9854.3710732139,33.136484,15.1217144,37.532481516,-12.079476,8.724066,0,142.3, -1.7, -18.1,0,0,1684,1024,1024,1024,100,0,0,0,0,0,0,98,3.963,3.981,3.992,3.99,3.988,3.99,0,32,9853.7149052139,32.480316,6,P-GPS,
12800,2023-10-11 01:30:12,38.4981105097898,-112.064341622054,32.480316,,,9853.7149052139,25.918636,14.8085428,39.69652358,43.807088016,19,5,0,9854.3710732139,33.136484,15.1217144,39.69652358,-11.632088,9.171454,0,142.2, -6.7, -10.9,0,0,1684,1024,1024,1024,100,0,0,0,0,0,0,98,3.963,3.981,3.992,3.99,3.988,3.99,0,32,9853.7149052139,32.480316,6,P-GPS,
12900,2023-10-11 01:30:12,38.4981056746019,-112.064336370642,32.480316,,,9853.7149052139,25.918636,14.8085428,42.011812368,46.122376804,19,5,0,9854.3710732139,33.136484,15.1217144,42.011812368,-11.408394,9.395148,0,142.5, -14.2, -3.2,0,0,1684,1024,1024,1024,100,0,0,0,0,0,0,98,3.963,3.981,3.992,3.99,3.988,3.99,0,32,9853.7149052139,32.480316,6,P-GPS,
13000,2023-10-11 01:30:12,38.4981009683216,-112.064331377676,32.480316,,,9853.7149052139,25.918636,15.099345,44.243439736,48.354332256,20,5,0,9854.3710732139,33.136484,15.1217144,44.243439736,-11.632088,9.618842,0,142.2, -20.6, 2.5,0,0,1684,1024,1024,1024,100,0,0,0,0,0,0,98,3.963,3.981,3.992,3.99,3.988,3.99,0,32,9853.7149052139,32.480316,6,P-GPS,
13100,2023-10-11 01:30:12,38.4980964244301,-112.064326651602,32.480316,,,9853.7149052139,25.918636,15.7480576,46.380250828,50.491799516,20,5,0,9854.3710732139,33.136484,15.7480576,46.380250828,-12.30317,9.842536,0,141.8, -24, 5.2,0,0,1684,1024,1024,1024,100,0,0,0,0,0,0,98,3.963,3.981,3.992,3.99,3.988,3.99,0,32,9853.7149052139,32.480316,6,P-GPS,
13200,2023-10-11 01:30:12,38.4980912433824,-112.064321453551,32.8084,,,9854.0429892139,25.918636,16.4191396,48.781825708,52.8953429,19,5,0,9854.3710732139,33.136484,16.4191396,48.781825708,-12.974252,10.06623,0,142.2, -25.4, 4.5,0,0,1684,1024,1024,1024,100,0,0,0,0,0,0,98,3.963,3.981,3.992,3.99,3.988,3.99,0,32,9854.0429892139,32.8084,6,P-GPS,
13300,2023-10-11 01:30:12,38.4980857179219,-112.064316032899,32.8084,,,9854.0429892139,25.918636,17.2691768,51.3205397,55.437009648,19,5,0,9854.3710732139,33.136484,17.2691768,51.3205397,-13.869028,10.289924,0,142.7, -25.3, 1.8,0,0,1684,1024,1024,1024,100,0,0,0,0,0,0,98,3.963,3.981,3.992,3.99,3.988,3.99,0,32,9854.0429892139,32.8084,6,P-GPS,
13400,2023-10-11 01:30:12,38.4980799618939,-112.064310492909,32.8084,,,9854.0429892139,25.918636,18.0744752,53.945539784,58.066274824,19,5,0,9854.3710732139,33.136484,18.0744752,53.945539784,-14.54011,10.737312,0,142.9, -24.4, -0.7,0,0,1684,1024,1024,1024,100,0,0,0,0,0,0,98,3.963,3.981,3.992,3.99,3.988,3.99,0,32,9854.0429892139,32.8084,6,P-GPS,
13500,2023-10-11 01:30:13,38.4980740703306,-112.064305228181,32.8084,,,9854.0429892139,25.918636,18.8797736,56.558728844,60.689306404,19,5,0,9854.3710732139,33.136484,18.8797736,56.558728844,-15.211192,11.1847,0,142.9, -23.7, -2.4,0,0,1684,1024,1024,1024,100,0,0,0,0,0,0,98,3.963,3.981,3.992,3.99,3.988,3.99,0,32,9854.0429892139,32.8084,6,P-GPS,
13600,2023-10-11 01:30:13,38.4980679188287,-112.064299273273,32.8084,,,9854.0429892139,25.918636,19.5061168,59.37172106,63.504923292,20,5,0,9854.3710732139,33.136484,19.5061168,59.37172106,-15.65858,11.632088,0,142.7, -23.3, -3,0,0,1684,1024,1024,1024,100,0,0,0,0,0,0,98,3.963,3.981,3.992,3.99,3.988,3.99,0,32,9854.0429892139,32.8084,6,P-GPS,
13700,2023-10-11 01:30:13,38.4980619886377,-112.064293265573,32.8084,,,9854.0429892139,25.918636,19.9535048,62.132219836,66.266078236,20,5,0,9854.3710732139,33.136484,19.9535048,62.132219836,-15.882274,12.079476,0,142.4, -23, -2.3,0,0,1684,1024,1024,1024,100,0,0,0,0,0,0,98,3.963,3.981,3.992,3.99,3.988,3.99,0,32,9854.0429892139,32.8084,6,P-GPS,
13800,2023-10-11 01:30:13,38.4980555222397,-112.064286852802,32.8084,,,9854.0429892139,25.918636,20.579848,65.117128068,69.252626888,20,5,0,9854.3710732139,33.136484,20.579848,65.117128068,-16.329662,12.526864,0,142.2, -22.7, -1.5,0,0,1684,1024,1024,1024,100,0,0,0,0,0,0,98,3.963,3.981,3.992,3.99,3.988,3.99,0,32,9854.0429892139,32.8084,6,P-GPS,
13900,2023-10-11 01:30:13,38.4980479289584,-112.064279081782,32.8084,,,9854.0429892139,25.918636,21.2061912,68.66634078,72.802167684,20,5,0,9854.3710732139,33.136484,21.2061912,68.66634078,-16.77705,12.974252,0,142, -22.5, -1,0,0,1684,1024,1024,1024,100,0,0,0,0,0,0,98,3.963,3.981,3.992,3.99,3.988,3.99,0,32,9854.0429892139,32.8084,6,P-GPS,
14000,2023-10-11 01:30:13,38.4980410000895,-112.064272126462,32.8084,,,9854.0429892139,25.918636,21.8325344,71.880251644,76.0170628,20,5,0,9854.3710732139,33.136484,21.8325344,71.880251644,-17.224438,13.42164,0,141.8, -22.1, -0.6,0,0,1684,1024,1024,1024,100,0,0,0,0,0,0,98,3.963,3.981,3.992,3.99,3.988,3.99,0,32,9854.0429892139,32.8084,6,P-GPS,
14100,2023-10-11 01:30:13,38.4980336634759,-112.0642652054,32.8084,,,9854.0429892139,25.918636,22.4588776,75.203086396,79.344162644,20,5,0,9854.3710732139,33.136484,22.4588776,75.203086396,-17.671826,13.869028,0,141.6, -21.5, 0,0,0,1684,1024,1024,1024,100,0,0,0,0,0,0,98,3.963,3.981,3.992,3.99,3.988,3.99,0,32,9854.0429892139,32.8084,6,P-GPS,
14200,2023-10-11 01:30:13,38.4980263337127,-112.064257862505,32.8084,,,9854.0429892139,25.918636,23.1299596,78.600396216,82.742456716,20,5,0,9854.3710732139,33.136484,23.1299596,78.600396216,-18.342908,14.092722,0,141.4, -20.6, 0.5,0,0,1684,1024,1024,1024,100,0,0,0,0,0,0,98,3.963,3.981,3.992,3.99,3.988,3.99,0,32,9854.0429892139,32.8084,6,P-GPS,
14300,2023-10-11 01:30:13,38.4980186625081,-112.064250424583,32.8084,,,9854.0429892139,25.918636,23.7563028,82.111551184,86.255908272,20,5,0,9854.3710732139,33.136484,23.7563028,82.111551184,-18.790296,14.54011,0,141.6, -19.8, 0.1,0,0,1684,1024,1024,999,100,0,0,-4,0,0,0,98,3.963,3.981,3.992,3.99,3.988,3.99,0,32,9854.0429892139,32.8084,6,P-GPS,
14400,2023-10-11 01:30:13,38.4980109761812,-112.064242779247,32.8084,,,9854.0429892139,25.918636,24.0694744,85.664700904,89.80971416,20,5,0,9854.3710732139,33.136484,24.0694744,85.664700904,-19.01399,14.763804,0,141.7, -19.5, -0.3,0,0,1684,1024,1024,969,100,0,0,-8,0,0,0,98,3.963,3.981,3.992,3.99,3.988,3.99,0,32,9854.0429892139,32.8084,6,P-GPS,
14500,2023-10-11 01:30:14,38.4980032755199,-112.064235027342,32.8084,,,9854.0429892139,25.918636,24.5616012,89.241144588,93.386485928,20,5,0,9854.3710732139,33.136484,24.5616012,89.241144588,-19.461378,14.987498,0,142, -19.5, -0.5,0,0,1684,1024,1024,969,100,0,0,-8,0,0,0,98,3.963,3.981,3.992,3.99,3.988,3.99,0,32,9854.0429892139,32.8084,6,P-GPS,
14600,2023-10-11 01:30:14,38.4979953044559,-112.064227105868,32.8084,,,9854.0429892139,25.918636,25.053728,92.924543656,97.070869248,20,5,0,9854.3710732139,33.136484,25.053728,92.924543656,-19.908766,15.211192,0,142.3, -19.5, -2.3,0,0,1684,1024,1024,969,100,0,0,-8,0,0,0,98,3.963,3.981,3.992,3.99,3.988,3.99,0,32,9854.0429892139,32.8084,6,P-GPS,
14700,2023-10-11 01:30:14,38.4979872168322,-112.064219153649,32.8084,,,9854.0429892139,25.918636,25.501116,96.646656636,100.79396648,20,5,0,9854.3710732139,33.136484,25.501116,96.646656636,-20.13246,15.65858,0,142, -19.1, -3.9,0,0,1684,1024,1024,979,100,0,0,-7,0,0,0,98,3.963,3.981,3.992,3.99,3.988,3.99,0,32,9854.0429892139,32.8084,6,P-GPS,
14800,2023-10-11 01:30:14,38.4979790015855,-112.064210868747,32.8084,,,9854.0429892139,25.918636,25.501116,100.464898228,104.612536156,20,5,0,9854.3710732139,33.136484,25.501116,100.464898228,-20.356154,15.882274,0,141.6, -18.7, -6.2,0,0,1684,1024,1024,979,100,0,0,-7,0,0,0,98,3.963,3.981,3.992,3.99,3.988,3.99,0,32,9854.0429892139,32.8084,6,P-GPS,
14900,2023-10-11 01:30:14,38.4979708014439,-112.064202353704,32.8084,,,9854.0429892139,25.918636,26.4182614,104.320213312,108.46785124,20,5,0,9854.3710732139,33.136484,26.4182614,104.320213312,-20.579848,16.553356,0,141.2, -18.2, -7.9,0,0,1684,1024,1024,975,100,0,0,-7,0,0,0,98,3.963,3.981,3.992,3.99,3.988,3.99,0,32,9854.0429892139,32.8084,6,P-GPS,
15000,2023-10-11 01:30:14,38.4979624813003,-112.06419356609,32.8084,,,9854.0429892139,25.918636,26.6866942,108.258205564,112.406171576,22,5,0,9854.3710732139,33.136484,26.6866942,108.258205564,-20.579848,17.000744,0,140.8, -17.8, -8.5,0,0,1684,1024,1024,989,100,0,0,-5,0,0,0,98,3.963,3.981,3.992,3.99,3.988,3.99,0,32,9854.0429892139,32.8084,6,P-GPS,
15100,2023-10-11 01:30:14,38.4979542524213,-112.064184565974,32.8084,,,9854.0429892139,25.918636,26.6866942,112.208993092,116.35827144,22,5,0,9854.3710732139,33.136484,26.6866942,112.208993092,-20.579848,17.448132,0,140.4, -17.3, -7.4,0,0,1684,1024,1024,1024,100,0,0,0,0,0,0,98,3.963,3.981,3.992,3.99,3.988,3.99,0,32,9854.0429892139,32.8084,6,P-GPS,
15200,2023-10-11 01:30:14,38.4979458965358,-112.064175319655,32.8084,,,9854.0429892139,25.918636,27.2682986,116.239833116,120.391079968,22,5,0,9854.3710732139,33.136484,27.2682986,116.239833116,-20.579848,17.89552,0,140, -17.4, -4.8,0,0,1684,1024,1024,1024,100,0,0,0,0,0,0,98,3.963,3.981,3.992,3.99,3.988,3.99,0,32,9854.0429892139,32.8084,6,P-GPS,
15300,2023-10-11 01:30:14,38.4979374305128,-112.064165961822,32.8084,,,9854.0429892139,25.918636,27.5814702,120.322182328,124.475397684,22,5,0,9854.3710732139,33.136484,27.5814702,120.322182328,-20.803542,18.119214,0,139.6, -17.9, -0.9,0,0,1684,1024,1024,1024,100,0,0,0,0,0,0,98,3.963,3.981,3.992,3.99,3.988,3.99,0,32,9854.0429892139,32.8084,6,P-GPS,
15400,2023-10-11 01:30:14,38.4979289506691,-112.064156442495,32.8084,,,9854.0429892139,25.918636,27.5814702,124.437668024,128.593836136,22,5,0,9854.3710732139,33.136484,27.5814702,124.437668024,-21.027236,18.342908,0,139.4, -18.6, 1.8,0,0,1684,1024,1024,1024,100,0,0,0,0,0,0,98,3.963,3.981,3.992,3.99,3.988,3.99,0,32,9854.0429892139,32.8084,6,P-GPS,
15500,2023-10-11 01:30:15,38.4979211370788,-112.064147499798,32.8084,,,9854.0429892139,25.918636,28.3867686,128.26115896,132.420935996,22,5,0,9854.3710732139,33.136484,28.3867686,128.26115896,-21.474624,18.566602,0,139.3, -19, 2.9,0,0,1684,1024,1024,1024,100,0,0,0,0,0,0,98,3.963,3.981,3.992,3.99,3.988,3.99,0,32,9854.0429892139,32.8084,6,P-GPS,
15600,2023-10-11 01:30:15,38.4979124512092,-112.064137887841,32.8084,,,9854.0429892139,25.918636,28.3867686,132.451775892,136.613193348,22,5,0,9854.3710732139,33.136484,28.3867686,132.451775892,-21.698318,18.566602,0,139.3, -19, 2.2,0,0,1684,1024,1024,1024,100,0,0,0,0,0,0,98,3.963,3.981,3.992,3.99,3.988,3.99,0,32,9854.0429892139,32.8084,6,P-GPS,
15700,2023-10-11 01:30:15,38.4979027134598,-112.064127529246,32.8084,,,9854.0429892139,25.918636,29.0354812,137.074479452,141.236224992,22,5,0,9854.3710732139,33.136484,29.0354812,137.074479452,-22.145706,18.790296,0,139.4, -18.6, 0.4,0,0,1684,1024,1024,1024,100,0,0,0,0,0,0,98,3.963,3.981,3.992,3.99,3.988,3.99,0,32,9854.0429892139,32.8084,6,P-GPS,
15800,2023-10-11 01:30:15,38.4978937008429,-112.064117655769,32.8084,,,9854.0429892139,25.918636,29.0354812,141.405188252,145.56758996,22,5,0,9854.3710732139,33.136484,29.0354812,141.405188252,-22.3694,19.01399,0,139.3, -18, -0.9,0,0,1684,1024,1024,1024,100,0,0,0,0,0,0,98,3.963,3.981,3.992,3.99,3.988,3.99,0,32,9854.0429892139,32.8084,6,P-GPS,
15900,2023-10-11 01:30:15,38.4978845438709,-112.064107575785,32.8084,,,9854.0429892139,25.918636,29.8184102,145.81365296,149.977367004,22,5,0,9854.3710732139,33.136484,29.8184102,145.81365296,-22.593094,19.461378,0,139, -17.5, -1,0,0,1684,1024,1024,1024,100,0,0,0,0,0,0,98,3.963,3.981,3.992,3.99,3.988,3.99,0,32,9854.0429892139,32.8084,6,P-GPS,
16000,2023-10-11 01:30:15,38.4978753680259,-112.064097409101,32.8084,,,9854.0429892139,25.918636,30.1315818,150.243443128,154.408469508,22,5,0,9854.3710732139,33.136484,30.1315818,150.243443128,-22.816788,19.685072,0,138.8, -17.3, -0.3,0,0,1684,1024,1024,1024,100,0,0,0,0,0,0,98,3.963,3.981,3.992,3.99,3.988,3.99,0,32,9854.0429892139,32.8084,6,P-GPS,
16100,2023-10-11 01:30:15,38.497866234448,-112.064087029192,32.8084,,,9854.0429892139,25.918636,30.4447534,154.700136184,158.86811532,22,5,0,9854.3710732139,33.136484,30.4447534,154.700136184,-23.040482,19.908766,0,138.8, -17.4, 0.4,0,0,1684,1024,1024,1024,100,0,0,0,0,0,0,98,3.963,3.981,3.992,3.99,3.988,3.99,0,32,9854.0429892139,32.8084,6,P-GPS,
16200,2023-10-11 01:30:15,38.4978568901174,-112.064076629677,32.8084,,,9854.0429892139,25.918636,30.757925,159.219821368,163.389440924,22,5,0,9854.3710732139,33.136484,30.757925,159.219821368,-23.264176,20.13246,0,138.9, -17.1, 1,0,0,1684,1024,1024,1024,100,0,0,0,0,0,0,98,3.963,3.981,3.992,3.99,3.988,3.99,0,32,9854.0429892139,32.8084,6,P-GPS,
16300,2023-10-11 01:30:15,38.4978474884488,-112.064066170378,32.8084,,,9854.0429892139,25.918636,31.0710966,163.766737524,167.937669416,22,5,0,9854.3710732139,33.136484,31.0710966,163.766737524,-23.48787,20.356154,0,138.9, -16.3, 1.3,0,0,1684,1024,1024,1024,100,0,0,0,0,0,0,98,3.963,3.981,3.992,3.99,3.988,3.99,0,32,9854.0429892139,32.8084,6,P-GPS,
16400,2023-10-11 01:30:15,38.4978379896758,-112.06405563136,32.8084,,,9854.0429892139,25.918636,31.0710966,168.355320348,172.527564576,22,5,0,9854.3710732139,33.136484,31.0710966,168.355320348,-23.48787,20.356154,0,139, -15.7, 0.7,0,0,1684,1024,1024,1024,100,0,0,0,0,0,0,98,3.963,3.981,3.992,3.99,3.988,3.99,0,32,9854.0429892139,32.8084,6,P-GPS,
16500,2023-10-11 01:30:15,38.4978290326671,-112.064045740814,32.8084,,,9854.0429892139,25.918636,31.4066376,172.673561956,176.846790436,22,5,0,9854.3710732139,33.136484,31.4066376,172.673561956,-23.711564,20.579848,0,139.3, -15.8, 0.6,0,0,1684,1024,1024,1024,100,0,0,0,0,0,0,98,3.963,3.981,3.992,3.99,3.988,3.99,0,32,9854.0429892139,32.8084,6,P-GPS,
16600,2023-10-11 01:30:16,38.4978195325582,-112.064035165865,32.8084,,,9854.0429892139,25.918636,31.4066376,177.269362628,181.44357536,22,5,0,9854.3710732139,33.136484,31.4066376,177.269362628,-23.711564,20.579848,0,139.5, -16.3, 0.9,0,0,1684,1024,1024,1024,100,0,0,0,0,0,0,98,3.963,3.981,3.992,3.99,3.988,3.99,0,32,9854.0429892139,32.8084,6,P-GPS,
16700,2023-10-11 01:30:16,38.4978093531288,-112.064023651754,32.8084,,,9854.0429892139,25.918636,31.4066376,182.227039952,186.403549272,22,5,0,9854.3710732139,33.136484,31.4066376,182.227039952,-23.711564,20.579848,0,139.5, -17, 1.3,0,0,1684,1024,1024,1024,100,0,0,0,0,0,0,98,3.963,3.981,3.992,3.99,3.988,3.99,0,32,9854.0429892139,32.8084,6,P-GPS,
16800,2023-10-11 01:30:16,38.4977997347476,-112.064012937499,32.8084,,,9854.0429892139,25.918636,31.5632234,186.88156766,191.059389316,22,5,0,9854.3710732139,33.136484,31.5632234,186.88156766,-23.935258,20.579848,0,139.3, -18, 1.8,0,0,1684,1024,1024,1024,100,0,0,0,0,0,0,98,3.963,3.981,3.992,3.99,3.988,3.99,0,32,9854.0429892139,32.8084,6,P-GPS,
16900,2023-10-11 01:30:16,38.4977900750243,-112.064002425616,32.8084,,,9854.0429892139,25.918636,31.7198092,191.5108329,195.688654556,22,5,0,9854.3710732139,33.136484,31.7198092,191.5108329,-23.935258,20.803542,0,139.2, -18.7, 1.7,0,0,1684,1024,1024,1024,100,0,0,0,0,0,0,98,3.963,3.981,3.992,3.99,3.988,3.99,0,32,9854.0429892139,32.8084,6,P-GPS,
17000,2023-10-11 01:30:16,38.4977803371721,-112.063991649958,32.8084,,,9854.0429892139,25.918636,31.876395,196.209980032,200.38878594,22,5,0,9854.3710732139,33.136484,31.876395,196.209980032,-24.158952,20.803542,0,139.1, -19, 1.4,0,0,1684,1024,1024,1024,100,0,0,0,0,0,0,98,3.963,3.981,3.992,3.99,3.988,3.99,0,32,9854.0429892139,32.8084,6,P-GPS,
17100,2023-10-11 01:30:16,38.4977705618139,-112.063980671361,32.8084,,,9854.0429892139,25.918636,32.1895666,200.957027428,205.137145672,22,5,0,9854.3710732139,33.136484,32.1895666,200.957027428,-24.382646,21.027236,0,138.9, -19.1, 1,0,0,1684,1024,1028,1024,100,0,1,0,0,0,0,98,3.963,3.981,3.992,3.99,3.988,3.99,0,32,9854.0429892139,32.8084,6,P-GPS,
17200,2023-10-11 01:30:16,38.4977607229866,-112.063969785108,32.8084,,,9854.0429892139,25.918636,32.1895666,205.704730992,209.885505404,22,5,0,9854.3710732139,33.136484,32.1895666,205.704730992,-24.382646,21.027236,0,138.9, -19.2, 0.7,0,0,1684,1024,1193,1024,100,0,26,0,0,0,0,98,3.963,3.981,3.992,3.99,3.988,3.99,0,32,9854.0429892139,32.8084,6,P-GPS,
17300,2023-10-11 01:30:16,38.497750877446,-112.06395894017,32.8084,,,9854.0429892139,25.918636,32.3461524,210.446857128,214.628287708,22,5,0,9854.3710732139,33.136484,32.3461524,210.446857128,-24.382646,21.25093,0,138.9, -19.1, 0.6,0,0,1684,1024,1193,1024,100,0,26,0,0,0,0,98,3.963,3.981,3.992,3.99,3.988,3.99,0,32,9854.0429892139,32.8084,6,P-GPS,
17400,2023-10-11 01:30:16,38.4977409674088,-112.063947951112,32.8084,,,9854.0429892139,25.918636,32.5027382,215.233602688,219.415689436,22,5,0,9854.3710732139,33.136484,32.5027382,215.233602688,-24.60634,21.25093,0,138.8, -19, 0.9,0,0,1684,1024,1257,1024,100,0,35,0,0,0,0,98,3.963,3.981,3.992,3.99,3.988,3.99,0,32,9854.0429892139,32.8084,6,P-GPS,
17500,2023-10-11 01:30:17,38.4977318569511,-112.06393792078,32.8084,,,9854.0429892139,25.918636,32.659324,219.620741936,223.803484852,22,5,0,9854.3710732139,33.136484,32.659324,219.620741936,-24.60634,21.474624,-0.223694,138.7, -18.3, 1.6,0,0,1684,1024,1269,1024,100,0,37,0,0,0,0,98,3.963,3.981,3.992,3.99,3.988,3.99,0,32,9854.0429892139,32.8084,6,P-GPS,
17600,2023-10-11 01:30:17,38.4977219182107,-112.063926882705,32.8084,,,9854.0429892139,25.918636,32.8382792,224.424547864,228.607946948,22,5,0,9854.3710732139,33.136484,32.8382792,224.424547864,-24.830034,21.474624,-0.671082,138.5, -17.4, 2.3,0,0,1684,1024,1257,1024,100,0,35,0,0,0,0,98,3.963,3.981,3.992,3.99,3.988,3.99,0,32,9854.0429892139,32.8084,6,P-GPS,
17700,2023-10-11 01:30:17,38.4977109791397,-112.063914727649,33.136484,,,9854.3710732139,25.918636,32.994865,229.71293386,233.896989112,22,5,0,9854.3710732139,33.136484,32.994865,229.71293386,-25.053728,21.474624,-1.11847,138.6, -16.8, 2.6,0,0,1684,1024,1299,1024,100,0,42,0,0,0,0,98,3.963,3.981,3.992,3.99,3.988,3.99,0,32,9854.3710732139,33.136484,6,P-GPS,
