time(millisecond),datetime(utc),latitude,longitude,height_above_takeoff(feet),height_above_ground_at_drone_location(feet),ground_elevation_at_drone_location(feet),altitude_above_seaLevel(feet),height_sonar(feet),speed(mph),distance(feet),mileage(feet),satellites,gpslevel,voltage(v),max_altitude(feet),max_ascent(feet),max_speed(mph),max_distance(feet), xSpeed(mph), ySpeed(mph), zSpeed(mph), compass_heading(degrees), pitch(degrees), roll(degrees),isPhoto,isVideo,rc_elevator,rc_aileron,rc_throttle,rc_rudder,rc_elevator(percent),rc_aileron(percent),rc_throttle(percent),rc_rudder(percent),gimbal_heading(degrees),gimbal_pitch(degrees),gimbal_roll(degrees),battery_percent,voltageCell1,voltageCell2,voltageCell3,voltageCell4,voltageCell5,voltageCell6,current(A),battery_temperature(f),altitude(feet),ascent(feet),flycStateRaw,flycState,message
0,2023-10-09 21:19:05,38.4981520393357,-112.064407573714,0,Available with any HD 360 subscription,Available with any HD 360 subscription,9820.0539356328,0.656168,0,0,0,17,5,0,9820.0539356328,0,0,0,0,0,0,329, 6.7, -0.9,0,0,364,392,364,1684,-100,-96,-100,100,0,0,0,100,3.751,3.752,3.76,3.77,3.771,3.772,0,32,9820.0539356328,0,41,Motors_Started,
100,2023-10-09 21:19:06,38.4981520737917,-112.064407509381,0,,,9820.0539356328,0.656168,0,0.0222594823396,0.0222594823396,17,5,0,9820.0539356328,0,0,0.0222594823396,0,0,0,329, 6.7, -0.9,0,0,364,393,364,1684,-100,-96,-100,100,0,0,0,100,3.751,3.752,3.76,3.77,3.771,3.772,0,32,9820.0539356328,0,41,Motors_Started,
200,2023-10-09 21:19:06,38.4981520597674,-112.064407531087,0,,,9820.0539356328,0.656168,0,0.0142731631864,0.030296588896,17,5,0,9820.0539356328,0,0,0.0222594823396,0,0,0,329, 6.7, -0.8,0,0,364,402,364,1684,-100,-94,-100,100,0,0,0,100,3.751,3.752,3.76,3.77,3.771,3.772,0,32,9820.0539356328,0,41,Motors_Started,
300,2023-10-09 21:19:06,38.4981520869807,-112.064407480162,0,,,9820.0539356328,0.656168,0,0.031871064012,0.047904201008,17,5,0,9820.0539356328,0,0,0.031871064012,0,0,0,329, 6.7, -0.8,0,0,364,404,364,1684,-100,-94,-100,100,0,0,0,100,3.751,3.752,3.76,3.77,3.771,3.772,0,32,9820.0539356328,0,41,Motors_Started,
400,2023-10-09 21:19:06,38.498152076208,-112.064407496755,0,,,9820.0539356328,0.656168,0,0.0257660113232,0.0540600411,17,5,0,9820.0539356328,0,0,0.031871064012,0,0,0,329, 6.7, -0.9,0,0,364,404,364,1684,-100,-94,-100,100,0,0,0,100,3.751,3.752,3.76,3.77,3.771,3.772,0,32,9820.0539356328,0,41,Motors_Started,"Setting new Return-To-Home altitude to 122m (400 ft). Data Recorder File Index is 20. Setting new Maximum Flight Altitude to 244m (801 ft)"
500,2023-10-09 21:19:06,38.498152100392,-112.064407617533,0,,,9820.0539356328,0.656168,0,0.0255496399252,0.089658139352,17,5,0,9820.0539356328,0,0,0.031871064012,0,0,0,329, 6.7, -0.8,0,0,364,406,364,1684,-100,-94,-100,100,0,0,0,100,3.751,3.752,3.76,3.77,3.771,3.772,0,32,9820.0539356328,0,41,Motors_Started,
600,2023-10-09 21:19:06,38.4981520929628,-112.064407641316,0,,,9820.0539356328,0.656168,0,0.0274849746328,0.09697014746,17,5,0,9820.0539356328,0,0,0.031871064012,0,0,0,329, 6.7, -0.8,0,0,364,400,364,1684,-100,-95,-100,100,0,0,0,100,3.751,3.752,3.76,3.77,3.771,3.772,0,32,9820.0539356328,0,41,Motors_Started,
700,2023-10-09 21:19:06,38.4981521124196,-112.064407591178,0,,,9820.0539356328,0.656168,0,0.0271269037552,0.112949806764,17,5,0,9820.0539356328,0,0,0.031871064012,0,0,0,329, 6.7, -0.8,0,0,364,406,364,1684,-100,-94,-100,100,0,0,0,100,3.751,3.752,3.76,3.77,3.771,3.772,0,32,9820.0539356328,0,41,Motors_Started,
800,2023-10-09 21:19:06,38.4981521075857,-112.064407608792,0,,,9820.0539356328,0.656168,0,0.026839895872,0.118279531344,17,5,0,9820.0539356328,0,0,0.031871064012,0,0,0,329, 6.7, -0.9,0,0,534,541,707,1593,-74,-73,-48,86,0,0,0,100,3.751,3.752,3.76,3.77,3.771,3.772,0,32,9820.0539356328,0,41,Motors_Started,
900,2023-10-09 21:19:06,38.4981519563134,-112.064407728612,0,,,9820.0539356328,0.656168,0,0.053607613264,0.18321522896,17,5,0,9820.0539356328,0,0,0.053607613264,0,0,0,329, 6.7, -0.8,0,0,1024,1024,1024,1024,0,0,0,0,0,0,0,100,3.751,3.752,3.76,3.77,3.771,3.772,0,32,9820.0539356328,0,41,Motors_Started,
1000,2023-10-09 21:19:06,38.4981519396064,-112.064407757344,0,,,9820.0539356328,0.656168,0,0.06382218052,0.193436357896,17,5,0,9820.0539356328,0,0,0.06382218052,0,0,0,329, 6.7, -0.8,0,0,1024,1024,1024,1024,0,0,0,0,0,0,0,100,3.751,3.752,3.76,3.77,3.771,3.772,0,32,9820.0539356328,0,41,Motors_Started,
1100,2023-10-09 21:19:07,38.498151971927,-112.064407694645,0,,,9820.0539356328,0.656168,0,0.042393702144,0.214874022624,17,5,0,9820.0539356328,0,0,0.06382218052,0,0,0,328.9, 6.7, -0.8,0,0,1024,1024,1024,1024,0,0,0,0,0,0,0,100,3.751,3.752,3.76,3.77,3.771,3.772,0,32,9820.0539356328,0,41,Motors_Started,
1200,2023-10-09 21:19:07,38.4981519598686,-112.064407715346,0,,,9820.0539356328,0.656168,0,0.049761156448,0.222242789264,17,5,0,9820.0539356328,0,0,0.06382218052,0,0,0,328.9, 6.7, -0.8,0,0,1024,1024,1024,1024,0,0,0,0,0,0,0,100,3.751,3.752,3.76,3.77,3.771,3.772,0,32,9820.0539356328,0,41,Motors_Started,
1300,2023-10-09 21:19:07,38.4981519860862,-112.064407669979,0,,,9820.0539356328,0.656168,0,0.033660106064,0.238345808152,17,5,0,9820.0539356328,0,0,0.06382218052,0,0,0,329, 6.7, -0.8,0,0,1024,1024,1024,1024,0,0,0,0,0,0,0,100,3.751,3.752,3.76,3.77,3.771,3.772,0,32,9820.0539356328,0,41,Motors_Started,
1400,2023-10-09 21:19:07,38.4981519770746,-112.06440768202,0,,,9820.0539356328,0.656168,0,0.038372048472,0.243103354236,17,5,0,9820.0539356328,0,0,0.06382218052,0,0,0,328.9, 6.7, -0.8,0,0,1024,1024,1024,1024,0,0,0,0,0,0,0,100,3.751,3.752,3.76,3.77,3.771,3.772,0,32,9820.0539356328,0,41,Motors_Started,
1500,2023-10-09 21:19:07,38.4981518451213,-112.064407810866,0,,,9820.0539356328,0.656168,0,0.098013126496,0.303694891608,17,5,0,9820.0539356328,0,0,0.098013126496,0,0,0,329, 6.7, -0.8,0,0,1024,1024,1024,1024,0,0,0,0,0,0,0,100,3.751,3.752,3.76,3.77,3.771,3.772,0,32,9820.0539356328,0,41,Motors_Started,
1600,2023-10-09 21:19:07,38.4981518239332,-112.064407833321,0,,,9820.0539356328,0.656168,0,0.108033796108,0.313738199016,17,5,0,9820.0539356328,0,0,0.108033796108,0,0,0,329, 6.7, -0.8,0,0,1024,1024,1024,1024,0,0,0,0,0,0,0,100,3.751,3.752,3.76,3.77,3.771,3.772,0,32,9820.0539356328,0,41,Motors_Started,
1700,2023-10-09 21:19:07,38.4981518625242,-112.064407782072,0,,,9820.0539356328,0.656168,0,0.08775590832,0.33404528628,17,5,0,9820.0539356328,0,0,0.108033796108,0,0,0,328.9, 6.7, -0.8,0,0,1024,1024,1024,1024,0,0,0,0,0,0,0,100,3.751,3.752,3.76,3.77,3.771,3.772,0,32,9820.0539356328,0,41,Motors_Started,
1800,2023-10-09 21:19:07,38.4981518454713,-112.064407796249,0,,,9820.0539356328,0.656168,0,0.095082352124,0.3414698272,17,5,0,9820.0539356328,0,0,0.108033796108,0,0,0,328.9, 6.8, -0.8,0,0,1024,1024,1024,1024,0,0,0,0,0,0,0,100,3.751,3.752,3.76,3.77,3.771,3.772,0,32,9820.0539356328,0,41,Motors_Started,
1900,2023-10-09 21:19:07,38.4981518695265,-112.064407762196,0,,,9820.0539356328,0.656168,0,0.082066603676,0.35456694048,17,5,0,9820.0539356328,0,0,0.108033796108,0,0,0,328.9, 6.8, -0.8,0,0,1024,1024,1024,1024,0,0,0,0,0,0,0,100,3.751,3.752,3.76,3.77,3.771,3.772,0,32,9820.0539356328,0,41,Motors_Started,
2000,2023-10-09 21:19:08,38.4981518564034,-112.064407774861,0,,,9820.0539356328,0.656168,0,0.088053808592,0.36056759684,17,5,0,9820.0539356328,0,0,0.108033796108,0,0,0,328.9, 6.7, -0.8,0,0,1024,1024,1024,1024,0,0,0,0,0,0,0,100,3.751,3.752,3.76,3.77,3.771,3.772,0,32,9820.0539356328,0,10,Assisted_Takeoff,
2100,2023-10-09 21:19:08,38.4981518816101,-112.064407907296,0,,,9820.0539356328,0.656168,0,0.111285108548,0.39948492092,17,5,0,9820.0539356328,0,0,0.111285108548,0,0,0,328.9, 6.7, -0.8,0,0,1024,1024,1024,1024,0,0,0,0,0,0,0,100,3.751,3.752,3.76,3.77,3.771,3.772,0,32,9820.0539356328,0,10,Assisted_Takeoff,
2200,2023-10-09 21:19:08,38.4981518750684,-112.064407926531,0,,,9820.0539356328,0.656168,0,0.117223100864,0.40547245392,17,5,0,9820.0539356328,0,0,0.117223100864,0,0,0,328.9, 6.7, -0.8,0,0,1024,1024,1024,1024,0,0,0,0,0,0,0,100,3.751,3.752,3.76,3.77,3.771,3.772,0,32,9820.0539356328,0,10,Assisted_Takeoff,
2300,2023-10-09 21:19:08,38.4981517375843,-112.064407885215,0,,,9820.0539356328,0.656168,0,0.141534781432,0.4570046078,17,5,0,9820.0539356328,0,0,0.141534781432,0,0,0,328.9, 6.7, -0.8,0,0,1024,1024,1024,1024,0,0,0,0,0,0,0,100,3.751,3.752,3.76,3.77,3.771,3.772,0,32,9820.0539356328,0,10,Assisted_Takeoff,
2400,2023-10-09 21:19:08,38.4981517198615,-112.064407900151,0,,,9820.0539356328,0.656168,0,0.149246723936,0.46475067104,17,5,0,9820.0539356328,0,0,0.149246723936,0,0,0,328.9, 6.7, -0.8,0,0,1024,1024,1024,1024,0,0,0,0,0,0,0,100,3.751,3.752,3.76,3.77,3.771,3.772,0,32,9820.0539356328,0,10,Assisted_Takeoff,
2500,2023-10-09 21:19:08,38.4981517702321,-112.06440785788,0,,,9820.0539356328,0.656168,0,0.12737205132,0.48673557988,17,5,0,9820.0539356328,0,0,0.149246723936,0,0,0,328.9, 6.7, -0.8,0,0,1024,1024,1024,1024,0,0,0,0,0,0,0,100,3.751,3.752,3.76,3.77,3.771,3.772,0,32,9820.0539356328,0,10,Assisted_Takeoff,
2600,2023-10-09 21:19:08,38.498151758509,-112.064407867734,0,,,9820.0539356328,0.656168,0,0.132462602664,0.49185697112,17,5,0,9820.0539356328,0,0,0.149246723936,0,0,0,328.9, 6.7, -0.8,0,0,1024,1024,1024,1024,0,0,0,0,0,0,0,100,3.751,3.752,3.76,3.77,3.771,3.772,0,32,9820.0539356328,0,10,Assisted_Takeoff,
2700,2023-10-09 21:19:08,38.4981517869856,-112.064408001379,0,,,9820.0539356328,0.656168,0,0.152935044264,0.53140749732,17,5,0,9820.0539356328,0,0,0.152935044264,0,0,0,328.9, 6.7, -0.8,0,0,1024,1024,1024,1024,0,0,0,0,0,0,0,100,3.751,3.752,3.76,3.77,3.771,3.772,0,32,9820.0539356328,0,10,Assisted_Takeoff,
2800,2023-10-09 21:19:08,38.4981517780687,-112.064408021675,0,,,9820.0539356328,0.656168,0,0.159523627152,0.53805119832,17,5,0,9820.0539356328,0,0,0.159523627152,0,0,0,328.9, 6.7, -0.8,0,0,1024,1024,1024,1024,0,0,0,0,0,0,0,100,3.751,3.752,3.76,3.77,3.771,3.772,0,32,9820.0539356328,0,10,Assisted_Takeoff,
2900,2023-10-09 21:19:08,38.4981518005087,-112.064407977452,0,,,9820.0539356328,0.656168,0,0.144509847144,0.5531004114,17,5,0,9820.0539356328,0,0,0.159523627152,0,0,0,328.9, 6.7, -0.8,0,0,1024,1024,1024,1024,0,0,0,0,0,0,0,100,3.751,3.752,3.76,3.77,3.771,3.772,0,32,9820.0539356328,0,10,Assisted_Takeoff,
3000,2023-10-09 21:19:08,38.4981517948615,-112.064407992513,0,,,9820.0539356328,0.656168,0,0.149185700312,0.55787075276,17,5,0,9820.0539356328,0,0,0.159523627152,0,0,0,328.9, 6.7, -0.8,0,0,1024,1024,1024,1024,0,0,0,0,0,0,0,100,3.751,3.752,3.76,3.77,3.771,3.772,0,32,9820.0539356328,0,10,Assisted_Takeoff,
3100,2023-10-09 21:19:09,38.4981516490491,-112.064407959809,0,,,9820.0539356328,0.656168,0,0.180085635684,0.61188322168,17,5,0,9820.0539356328,0,0,0.180085635684,0,0,0,328.9, 6.7, -0.8,0,0,1024,1024,1024,1024,0,0,0,0,0,0,0,100,3.751,3.752,3.76,3.77,3.771,3.772,0,32,9820.0539356328,0,10,Assisted_Takeoff,
3200,2023-10-09 21:19:09,38.4981516322624,-112.064407971265,0,,,9820.0539356328,0.656168,0,0.186934389184,0.61882547912,17,5,0,9820.0539356328,0,0,0.186934389184,0,0,0,328.9, 6.7, -0.8,0,0,1024,1024,1024,1024,0,0,0,0,0,0,0,100,3.751,3.752,3.76,3.77,3.771,3.772,0,32,9820.0539356328,0,10,Assisted_Takeoff,
3300,2023-10-09 21:19:09,38.4981516676906,-112.064408106451,0,,,9820.0539356328,0.656168,0,0.203778877912,0.65953414184,17,5,0,9820.0539356328,0,0,0.203778877912,0,0,0,328.9, 6.7, -0.8,0,0,1024,1024,1024,1024,0,0,0,0,0,0,0,100,3.751,3.752,3.76,3.77,3.771,3.772,0,32,9820.0539356328,0,10,Assisted_Takeoff,
3400,2023-10-09 21:19:09,38.4981516550229,-112.064408127912,0,,,9820.0539356328,0.656168,0,0.211429796792,0.6672080266,17,5,0,9820.0539356328,0,0,0.211429796792,0,0,0,328.9, 6.7, -0.8,0,0,1024,1024,1024,1024,0,0,0,0,0,0,0,100,3.751,3.752,3.76,3.77,3.771,3.772,0,32,9820.0539356328,0,10,Assisted_Takeoff,
3500,2023-10-09 21:19:09,38.4981516860751,-112.064408083204,0,,,9820.0539356328,0.656168,0,0.194361554776,0.68427823712,17,5,0,9820.0539356328,0,0,0.211429796792,0,0,0,328.9, 6.7, -0.8,0,0,1024,1024,1024,1024,0,0,0,0,0,0,0,100,3.751,3.752,3.76,3.77,3.771,3.772,0,32,9820.0539356328,0,10,Assisted_Takeoff,
3600,2023-10-09 21:19:09,38.4981516773419,-112.064408097208,0,,,9820.0539356328,0.656168,0,0.199467854152,0.68938978584,17,5,0,9820.0539356328,0,0,0.211429796792,0,0,0,328.9, 6.7, -0.8,0,0,1024,1024,1024,1024,0,0,0,0,0,0,0,100,3.751,3.752,3.76,3.77,3.771,3.772,0,32,9820.0539356328,0,10,Assisted_Takeoff,
3700,2023-10-09 21:19:09,38.4981516989609,-112.064408060689,0,,,9820.0539356328,0.656168,0,0.186433404916,0.70246393324,17,5,0,9820.0539356328,0,0,0.211429796792,0,0,0,328.9, 6.7, -0.8,0,0,1024,1024,1024,1024,0,0,0,0,0,0,0,100,3.751,3.752,3.76,3.77,3.771,3.772,0,32,9820.0539356328,0,10,Assisted_Takeoff,
3800,2023-10-09 21:19:09,38.4981516947715,-112.06440807204,0,,,9820.0539356328,0.656168,0,0.189871397152,0.70604989136,17,5,0,9820.0539356328,0,0,0.211429796792,0,0,0,328.9, 6.7, -0.8,0,0,1024,1024,1024,1024,0,0,0,0,0,0,0,100,3.751,3.752,3.76,3.77,3.771,3.772,0,32,9820.0539356328,0,10,Assisted_Takeoff,
3900,2023-10-09 21:19:09,38.4981517102978,-112.064408044706,0,,,9820.0539356328,0.656168,0,0.1802739559,0.71569228012,17,5,0,9820.0539356328,0,0,0.211429796792,0,0,0,328.9, 6.7, -0.8,0,0,1024,1024,1024,1024,0,0,0,0,0,0,0,100,3.751,3.752,3.76,3.77,3.771,3.772,0,32,9820.0539356328,0,10,Assisted_Takeoff,
4000,2023-10-09 21:19:09,38.4981517093211,-112.064408048044,0,,,9820.0539356328,0.656168,0,0.181222774828,0.71670934052,17,5,0,9820.0539356328,0,0,0.211429796792,0,0,0,328.9, 6.7, -0.8,0,0,1024,1024,1024,1024,0,0,0,0,0,0,0,100,3.751,3.752,3.76,3.77,3.771,3.772,0,32,9820.0539356328,0,10,Assisted_Takeoff,
4100,2023-10-09 21:19:10,38.4981515663104,-112.064408025877,0,,,9820.0539356328,0.656168,0,0.21553314338,0.76927167816,17,5,0,9820.0539356328,0,0,0.21553314338,0,0,0,328.9, 6.7, -0.8,0,0,1024,1024,1024,1024,0,0,0,0,0,0,0,100,3.751,3.752,3.76,3.77,3.771,3.772,0,32,9820.0539356328,0,10,Assisted_Takeoff,
4200,2023-10-09 21:19:10,38.4981515537813,-112.064408028312,0,,,9820.0539356328,0.656168,0,0.21962107002,0.77389438172,17,5,0,9820.0539356328,0,0,0.21962107002,0,0,0,328.9, 6.7, -0.8,0,0,1024,1024,1024,1024,0,0,0,0,0,0,0,100,3.751,3.752,3.76,3.77,3.771,3.772,0,32,9820.0539356328,0,10,Assisted_Takeoff,
4300,2023-10-09 21:19:10,38.4981515805247,-112.064408016487,0,,,9820.0539356328,0.656168,0,0.209776581516,0.7842191852,17,5,0,9820.0539356328,0,0,0.21962107002,0,0,0,328.9, 6.7, -0.8,0,0,1024,1024,1024,1024,0,0,0,0,0,0,0,100,3.751,3.752,3.76,3.77,3.771,3.772,0,32,9820.0539356328,0,10,Assisted_Takeoff,
4400,2023-10-09 21:19:10,38.4981515701771,-112.064408017321,0,,,9820.0539356328,0.656168,0,0.2129429202,0.78800199372,17,5,0,9820.0539356328,0,0,0.21962107002,0,0,0,328.9, 6.7, -0.8,0,0,1024,1024,1024,1024,0,0,0,0,0,0,0,100,3.751,3.752,3.76,3.77,3.771,3.772,0,32,9820.0539356328,0,10,Assisted_Takeoff,
4500,2023-10-09 21:19:10,38.4981515948555,-112.064408010724,0,,,9820.0539356328,0.656168,0,0.204620741456,0.79720146908,17,5,0,9820.0539356328,0,0,0.21962107002,0,0,0,329, 6.7, -0.8,0,0,1024,1024,1035,1024,0,0,2,0,0,0,0,100,3.751,3.752,3.76,3.77,3.771,3.772,0,32,9820.0539356328,0,10,Assisted_Takeoff,
4600,2023-10-09 21:19:10,38.4981515886636,-112.064408009964,0,,,9820.0539356328,0.656168,0,0.206284783504,0.79947181036,17,5,0,9820.0539356328,0,0,0.21962107002,0,0,0,329, 6.7, -0.8,0,0,1024,1024,1214,1024,0,0,29,0,0,0,0,100,3.751,3.752,3.76,3.77,3.771,3.772,0,32,9820.0539356328,0,10,Assisted_Takeoff,
4700,2023-10-09 21:19:10,38.4981516058644,-112.06440801169,0,,,9820.0539356328,0.656168,0,0.201623366032,0.80576446148,17,5,0,9820.0539356328,0,0,0.21962107002,0,0,0,329, 6.7, -0.8,0,0,1024,1024,1489,1024,0,0,70,0,0,0,0,100,3.751,3.752,3.76,3.77,3.771,3.772,0,32,9820.0539356328,0,10,Assisted_Takeoff,
4800,2023-10-09 21:19:10,38.4981516027361,-112.064408010327,0,,,9820.0539356328,0.656168,0,0.202279862116,0.8069718106,17,5,0,9820.0539356328,0,0,0.21962107002,0,0,0,329, 6.7, -0.8,0,0,1024,1024,1684,1024,0,0,100,0,0,0,0,100,3.751,3.752,3.76,3.77,3.771,3.772,0,32,9820.0539356328,0,10,Assisted_Takeoff,
4900,2023-10-09 21:19:10,38.4981516184734,-112.064408005748,0,,,9820.0539356328,0.656168,0,0.19696851024,0.8128609184,17,5,0,9820.0539356328,0,0,0.21962107002,0,0,0,329, 6.6, -0.8,0,0,1024,1024,1684,1024,0,0,100,0,0,0,0,100,3.751,3.752,3.76,3.77,3.771,3.772,0,32,9820.0539356328,0,10,Assisted_Takeoff,
5000,2023-10-09 21:19:10,38.4981516170683,-112.064408003333,0,,,9820.0539356328,0.656168,0,0.196938326512,0.81372049848,17,5,0,9820.0539356328,0,0,0.21962107002,0,0,0,328.9, 6.7, -0.7,0,0,1024,1024,1684,1024,0,0,100,0,0,0,0,100,3.751,3.752,3.76,3.77,3.771,3.772,0,32,9820.0539356328,0,10,Assisted_Takeoff,
5100,2023-10-09 21:19:11,38.4981514646798,-112.064408158417,0,,,9820.0539356328,0.656168,0,0.268017068944,0.88479661624,17,5,0,9820.0539356328,0,0,0.268017068944,0,0,0,328.9, 6.8, -0.7,0,0,1024,1024,1684,1024,0,0,100,0,0,0,0,100,3.751,3.752,3.76,3.77,3.771,3.772,0,32,9820.0539356328,0,10,Assisted_Takeoff,
5200,2023-10-09 21:19:11,38.4981514490805,-112.064408163459,0,,,9820.0539356328,0.656168,0,0.273376649168,0.89066931984,17,5,0,9820.0539356328,0,0,0.273376649168,0,0,0,328.9, 6.9, -0.6,0,0,1024,1024,1684,1024,0,0,100,0,0,0,0,100,3.751,3.752,3.76,3.77,3.771,3.772,0,32,9820.0539356328,0,10,Assisted_Takeoff,
5300,2023-10-09 21:19:11,38.4981514760413,-112.064408133626,0,,,9820.0539356328,0.656168,0,0.260381241928,0.90368113128,17,5,0,9820.0539356328,0,0,0.273376649168,0,0,0,328.8, 7, -0.6,0,0,1024,1024,1684,1024,0,0,100,0,0,0,0,100,3.751,3.752,3.76,3.77,3.771,3.772,0,32,9820.0539356328,0,10,Assisted_Takeoff,
5400,2023-10-09 21:19:11,38.4981514568157,-112.064408131493,0,,,9820.0539356328,0.656168,0,0.265586950756,0.91072181392,17,5,0,9820.0539356328,0,0,0.273376649168,0,0,0,328.8, 7.3, -0.5,0,0,1024,1024,1684,1024,0,0,100,0,0,0,0,100,3.751,3.752,3.76,3.77,3.771,3.772,0,32,9820.0539356328,0,10,Assisted_Takeoff,
5500,2023-10-09 21:19:11,38.4981514422828,-112.064408089645,0,,,9820.0539356328,0.656168,0,0.262973105528,0.92379596132,17,5,0,9820.0539356328,0,0,0.273376649168,0,0,0,328.6, 8.1, -0.5,0,0,1024,1024,1684,1024,0,0,100,0,0,0,0,100,3.751,3.752,3.76,3.77,3.771,3.772,0,32,9820.0539356328,0,10,Assisted_Takeoff,
5600,2023-10-09 21:19:11,38.4981513588695,-112.06440803701,0,,,9820.0539356328,0.656168,0.223694,0.28131398538,0.95773625112,17,5,0,9820.0539356328,0,0.223694,0.28131398538,-0.223694,0,0,327.5, 9.4, -0.2,0,0,1024,1024,1684,1024,0,0,100,0,0,0,0,100,3.751,3.752,3.76,3.77,3.771,3.772,0,32,9820.0539356328,0,10,Assisted_Takeoff,
5700,2023-10-09 21:19:11,38.4981512024353,-112.06440792074,0,,,9820.0539356328,0.656168,0.4921268,0.32101871106,1.02376643696,17,5,0,9820.0539356328,0,0.4921268,0.32101871106,-0.447388,0.223694,-0.223694,325.8, 11, 0,0,0,1024,1024,1684,1024,0,0,100,0,0,0,0,100,3.751,3.752,3.76,3.77,3.771,3.772,0,32,9820.0539356328,0,10,Assisted_Takeoff,
5800,2023-10-09 21:19:11,38.4981508734769,-112.064407701707,0,,,9820.0539356328,0.656168,0.8052984,0.42692914752,1.1591043678,17,5,0,9820.0539356328,0,0.8052984,0.42692914752,-0.671082,0.447388,-0.223694,324.2, 11.3, 0.7,0,0,1024,1024,1684,1024,0,0,100,0,0,0,0,100,3.751,3.752,3.76,3.77,3.771,3.772,0,32,9820.0539356328,0,6,P-GPS,
5900,2023-10-09 21:19:11,38.4981504273184,-112.064407207227,0,,,9820.0539356328,0.984252,1.2974252,0.59738190888,1.374589939,17,5,0,9820.0539356328,0,1.2974252,0.59738190888,-1.11847,0.671082,-0.671082,323.5, 7.4, 1.7,0,0,1024,1024,1684,1024,0,0,100,0,0,0,0,100,3.751,3.752,3.76,3.77,3.771,3.772,0,32,9820.0539356328,0,6,P-GPS,
6000,2023-10-09 21:19:12,38.4981498258926,-112.064406677517,0.328084,,,9820.3820196328,0.984252,1.6105968,0.84714897724,1.64109913388,17,5,0,9820.3820196328,0.328084,1.6105968,0.84714897724,-1.342164,0.894776,-1.11847,323.3, 0.6, 2,0,0,1024,1024,1684,1024,0,0,100,0,0,0,0,100,3.751,3.752,3.76,3.77,3.771,3.772,0,32,9820.3820196328,0.328084,6,P-GPS,
6100,2023-10-09 21:19:12,38.4981491186278,-112.064406238354,0.328084,,,9820.3820196328,1.312336,1.6105968,1.13178153228,1.92799874936,17,5,0,9820.3820196328,0.328084,1.6105968,1.13178153228,-1.342164,0.894776,-1.565858,323.4, -5.6, 1.2,0,0,1024,1024,1684,1024,0,0,100,0,0,0,0,100,3.751,3.752,3.76,3.77,3.771,3.772,0,32,9820.3820196328,0.328084,6,P-GPS,
6200,2023-10-09 21:19:12,38.4981485999706,-112.064405735482,0.656168,,,9820.7101036328,1.64042,1.4316416,1.36020673644,2.16554140788,16,5,0,9820.7101036328,0.656168,1.6105968,1.36020673644,-1.11847,0.894776,-1.789552,323.7, -9.1, 0.3,0,0,1024,1024,1684,1024,0,0,100,0,0,0,0,100,3.751,3.752,3.76,3.77,3.771,3.772,0,32,9820.7101036328,0.656168,6,P-GPS,
6300,2023-10-09 21:19:12,38.4981482969499,-112.064405270212,0.984252,,,9821.0381876328,1.968504,0.8052984,1.51557419548,2.33837933992,16,5,0,9821.0381876328,0.984252,1.6105968,1.51557419548,-0.671082,0.447388,-2.460634,323.9, -9.1, -0.2,0,0,1024,1024,1684,1024,0,0,100,0,0,0,0,100,3.751,3.752,3.76,3.77,3.771,3.772,0,32,9821.0381876328,0.984252,6,P-GPS,
6400,2023-10-09 21:19:12,38.4981480580913,-112.064405072626,1.312336,,,9821.3662716328,2.624672,0.4921268,1.61862537988,2.44219824088,16,5,0,9821.3662716328,1.312336,1.6105968,1.61862537988,-0.447388,0.223694,-2.908022,324, -6.8, -0.2,0,0,1024,1024,1684,1024,0,0,100,0,0,0,0,100,3.751,3.752,3.76,3.77,3.771,3.772,0,32,9821.3662716328,1.312336,6,P-GPS,
6500,2023-10-09 21:19:12,38.4981481244234,-112.064405539406,1.968504,,,9822.0224396328,2.952756,0.4921268,1.54195214908,2.57766084364,16,5,0,9822.0224396328,1.968504,1.6105968,1.61862537988,-0.223694,0,-3.35541,324, -2.2, 0.3,0,0,1024,1024,1684,984,0,0,100,-6,0,0,0,100,3.751,3.752,3.76,3.77,3.771,3.772,0,32,9822.0224396328,1.968504,6,P-GPS,
6600,2023-10-09 21:19:12,38.4981480130016,-112.064405571614,2.296588,,,9822.3505236328,3.608924,0,1.57632550976,2.619340635,16,5,0,9822.3505236328,2.296588,1.6105968,1.61862537988,0,0,-4.026492,324.1, 1.5, 0.9,0,0,1024,1024,1684,736,0,0,100,-44,0,0,0,100,3.751,3.752,3.76,3.77,3.771,3.772,0,32,9822.3505236328,2.296588,6,P-GPS,
6700,2023-10-09 21:19:12,38.4981480380252,-112.064405766922,2.952756,,,9823.0066916328,4.265092,0.223694,1.54835634876,2.675853104,16,5,0,9823.0066916328,2.952756,1.6105968,1.61862537988,-0.223694,0,-4.697574,324.1, 3.4, 1.6,0,0,1024,1024,1684,512,0,0,100,-78,0,0,0,100,3.751,3.752,3.76,3.77,3.771,3.772,0,32,9823.0066916328,2.952756,6,P-GPS,
6800,2023-10-09 21:19:12,38.4981478167762,-112.064405680526,3.937008,,,9823.9909436328,4.92126,0.4921268,1.63269034096,2.76025927468,16,5,0,9823.9909436328,3.937008,1.6105968,1.63269034096,-0.447388,0.223694,-5.368656,323, 3.4, 2.2,0,0,1024,1024,1684,438,0,0,100,-89,0,0,0,100,3.751,3.752,3.76,3.77,3.771,3.772,0,32,9823.9909436328,3.937008,6,P-GPS,
6900,2023-10-09 21:19:12,38.4981470619907,-112.064405072435,4.593176,,,9824.6471116328,5.577428,0.7158208,1.95138457688,3.08581374704,16,5,0,9824.6471116328,4.593176,1.6105968,1.95138457688,-0.671082,0.223694,-6.039738,319.4, 0.8, 2.5,0,0,1024,1024,1684,438,0,0,100,-89,0,0,0,100,3.751,3.752,3.76,3.77,3.771,3.772,0,32,9824.6471116328,4.593176,6,P-GPS,
7000,2023-10-09 21:19:12,38.4981467034266,-112.064404797642,5.577428,,,9825.6313636328,6.56168,0.7158208,2.10199809876,3.23836296452,16,5,0,9825.6313636328,5.577428,1.6105968,2.10199809876,-0.671082,0.447388,-6.71082,313.5, -2, 2.8,0,0,1024,1024,1684,414,0,0,100,-92,0,0,0,100,3.751,3.752,3.76,3.77,3.771,3.772,0,32,9825.6313636328,5.577428,6,P-GPS,
7100,2023-10-09 21:19:13,38.4981460831017,-112.064404515307,6.56168,,,9826.6156156328,7.545932,0.8052984,2.34203747652,3.4786090352,16,5,0,9826.6156156328,6.56168,1.6105968,2.34203747652,-0.671082,0.447388,-7.381902,306.4, -4.6, 3.5,0,0,1024,1024,1684,380,0,0,100,-98,0,0,0,100,3.751,3.752,3.76,3.77,3.771,3.772,0,32,9826.6156156328,6.56168,6,P-GPS,
7200,2023-10-09 21:19:13,38.4981458187005,-112.064404295091,7.874016,,,9827.9279516328,8.530184,0.8052984,2.45509522292,3.5937665192,17,5,0,9827.9279516328,7.874016,1.6105968,2.45509522292,-0.447388,0.223694,-8.052984,298.4, -5.2, 4.1,0,0,1024,1024,1684,364,0,0,100,-100,0,0,0,100,3.751,3.752,3.76,3.77,3.771,3.772,0,32,9827.9279516328,7.874016,6,P-GPS,
7300,2023-10-09 21:19:13,38.4981455488307,-112.06440413096,9.186352,,,9829.2402876328,9.514436,0.3131716,2.56399614504,3.7028216408,17,5,0,9829.2402876328,9.186352,1.6105968,2.56399614504,-0.223694,0.223694,-8.724066,290, -4.1, 3.7,0,0,1024,1024,1684,364,0,0,100,-100,0,0,0,100,3.751,3.752,3.76,3.77,3.771,3.772,0,32,9829.2402876328,9.186352,6,P-GPS,
7400,2023-10-09 21:19:13,38.498145415071,-112.064404021615,10.498688,,,9830.5526236328,10.498688,0,2.62105979516,3.7607612752,17,5,0,9830.5526236328,10.498688,1.6105968,2.62105979516,0,0,-9.395148,281.1, -2.6, 2.6,0,0,1024,1024,1684,364,0,0,100,-100,0,0,0,100,3.751,3.752,3.76,3.77,3.771,3.772,0,32,9830.5526236328,10.498688,6,P-GPS,
7500,2023-10-09 21:19:13,38.4981453142707,-112.064403963959,11.811024,,,9831.8649596328,11.811024,0,2.66134194868,3.8010499904,17,5,0,9831.8649596328,11.811024,1.6105968,2.66134194868,0,0,-10.06623,272.1, -1.6, 1.7,0,0,1024,1024,1684,364,0,0,100,-100,0,0,0,100,3.751,3.752,3.76,3.77,3.771,3.772,0,32,9831.8649596328,11.811024,6,P-GPS,
7600,2023-10-09 21:19:13,38.498145201093,-112.064403911602,13.451444,,,9833.5053796328,12.795276,0,2.70520349864,3.8449476296,17,5,0,9833.5053796328,13.451444,1.6105968,2.70520349864,0,0,-10.513618,262.7, -1.3, 1.5,0,0,1024,1024,1684,364,0,0,100,-100,0,0,0,100,3.751,3.752,3.76,3.77,3.771,3.772,0,32,9833.5053796328,13.451444,6,P-GPS,
7700,2023-10-09 21:19:13,38.4981449220088,-112.064403752034,15.091864,,,9835.1457996328,13.779528,0,2.81672581192,3.9564961896,17,5,0,9835.1457996328,15.091864,1.6105968,2.81672581192,0,0,-10.961006,253.4, -1.2, 1.6,0,0,1024,1024,1684,364,0,0,100,-100,0,0,0,100,3.751,3.752,3.76,3.77,3.771,3.772,0,32,9835.1457996328,15.091864,6,P-GPS,
7800,2023-10-09 21:19:13,38.4981447835496,-112.064403719086,17.060368,,,9837.1143036328,15.091864,0,2.866962034,4.0079069524,17,5,0,9837.1143036328,17.060368,1.6105968,2.866962034,0,0,-11.408394,244, -1.2, 1.9,0,0,1024,1024,1680,364,0,0,99,-100,0,0,0,100,3.751,3.752,3.76,3.77,3.771,3.772,0,32,9837.1143036328,17.060368,6,P-GPS,
7900,2023-10-09 21:19:13,38.4981443186787,-112.064403570878,18.700788,,,9838.7547236328,16.4042,0,3.03993119964,4.1827101076,17,5,0,9838.7547236328,18.700788,1.6105968,3.03993119964,0,0,-11.632088,234.7, -0.9, 2.1,0,0,1159,1024,1665,364,20,0,97,-100,0,0,0,100,3.751,3.752,3.76,3.77,3.771,3.772,0,32,9838.7547236328,18.700788,6,P-GPS,
8000,2023-10-09 21:19:13,38.498144144036,-112.064403558669,20.669292,,,9840.7232276328,17.388452,0,3.10035442992,4.2465224456,17,5,0,9840.7232276328,20.669292,1.6105968,3.10035442992,0,0,-11.855782,225.3, -0.3, 2.1,0,0,1426,1024,1637,364,61,0,93,-100,0,0,0,100,3.751,3.752,3.76,3.77,3.771,3.772,0,32,9840.7232276328,20.669292,6,P-GPS,
8100,2023-10-09 21:19:14,38.4981439193703,-112.064403259948,22.309712,,,9842.3636476328,17.388452,0,3.20842858036,4.364829536,17,5,0,9842.3636476328,22.309712,1.6105968,3.20842858036,0,0,-11.855782,216.5, -0.4, 1.8,0,0,1684,1024,1592,364,100,0,86,-100,0,0,0,100,3.751,3.752,3.76,3.77,3.771,3.772,0,32,9842.3636476328,22.309712,6,P-GPS,
8200,2023-10-09 21:19:14,38.4981437548838,-112.064403246252,24.278216,,,9844.3321516328,19.028872,0,3.2654036478,4.4249673332,18,5,0,9844.3321516328,24.278216,1.6105968,3.2654036478,0,0,-11.855782,207.9, -1.4, 1.5,0,0,1684,1024,1582,364,100,0,85,-100,0,0,0,100,3.751,3.752,3.76,3.77,3.771,3.772,0,32,9844.3321516328,24.278216,6,P-GPS,
8300,2023-10-09 21:19:14,38.4981437104776,-112.064402962053,25.918636,,,9845.9725716328,20.669292,0.223694,3.3118111296,4.507710118,18,5,0,9845.9725716328,25.918636,1.6105968,3.3118111296,0,-0.223694,-11.408394,199.7, -3, 1.2,0,0,1684,1024,1567,364,100,0,82,-100,0,0,0,100,3.751,3.752,3.76,3.77,3.771,3.772,0,32,9845.9725716328,25.918636,6,P-GPS,
8400,2023-10-09 21:19:14,38.4981435080053,-112.064402963183,27.559056,,,9847.6129916328,22.309712,0.223694,3.379593284,4.5815946348,19,5,0,9847.6129916328,27.559056,1.6105968,3.379593284,0,-0.223694,-11.1847,191.4, -4.3, 0.9,0,0,1684,1038,1549,415,100,2,80,-92,0,0,0,99,3.751,3.752,3.76,3.77,3.771,3.772,0,32,9847.6129916328,27.559056,6,P-GPS,
8500,2023-10-09 21:19:14,38.4981434144122,-112.064403188473,29.199476,,,9849.2534116328,23.950132,0.223694,3.3867783236,4.6544292828,19,5,0,9849.2534116328,29.199476,1.6105968,3.3867783236,0,-0.223694,-10.513618,183.4, -5.2, 0.1,0,0,1684,1043,1443,518,100,3,63,-77,0,0,0,99,3.751,3.752,3.76,3.77,3.771,3.772,0,32,9849.2534116328,29.199476,6,P-GPS,
8600,2023-10-09 21:19:14,38.4981431053315,-112.064403227218,30.839896,,,9850.8938316328,24.278216,0.3131716,3.487861004,4.767716688,19,5,0,9850.8938316328,30.839896,1.6105968,3.487861004,-0.223694,-0.223694,-10.06623,175.6, -5.5, -1,0,0,1684,1079,1399,551,100,8,57,-72,0,0,0,99,3.751,3.752,3.76,3.77,3.771,3.772,0,32,9850.8938316328,30.839896,6,P-GPS,
8700,2023-10-09 21:19:14,38.4981427859049,-112.06440331886,32.480316,,,9852.5342516328,24.278216,0.4921268,3.5880578576,4.8871720724,19,5,0,9852.5342516328,32.480316,1.6105968,3.5880578576,-0.447388,-0.223694,-9.395148,169.2, -5.4, -2.5,0,0,1684,1079,1324,718,100,8,45,-46,0,0,0,99,3.751,3.752,3.76,3.77,3.771,3.772,0,32,9852.5342516328,32.480316,6,P-GPS,
8800,2023-10-09 21:19:14,38.4981423498533,-112.064403275917,33.792652,,,9853.8465876328,24.278216,0.447388,3.7421589124,5.0467193216,19,5,0,9853.8465876328,33.792652,1.6105968,3.7421589124,-0.447388,0,-8.724066,163.3, -5.3, -3.3,0,0,1684,1079,1196,967,100,8,26,-9,0,0,0,99,3.751,3.752,3.76,3.77,3.771,3.772,0,32,9853.8465876328,33.792652,6,P-GPS,
8900,2023-10-09 21:19:14,38.4981420995152,-112.064403127582,35.104988,,,9855.1589236328,24.278216,0.671082,3.8423229576,5.1474083012,19,5,0,9855.1589236328,35.104988,1.6105968,3.8423229576,-0.671082,0,-8.052984,158.7, -5.3, -3.3,0,0,1684,1080,1079,1024,100,8,8,0,0,0,0,99,3.751,3.752,3.76,3.77,3.771,3.772,0,32,9855.1589236328,35.104988,6,P-GPS,
9000,2023-10-09 21:19:14,38.4981415914624,-112.064402934207,36.08924,,,9856.1431756328,24.278216,0.894776,4.0355316252,5.3408138192,19,5,0,9856.1431756328,36.08924,1.6105968,4.0355316252,-0.894776,0,-7.158208,156, -5.7, -2.6,0,0,1684,1088,1048,1024,100,10,4,0,0,0,0,99,3.751,3.752,3.76,3.77,3.771,3.772,0,32,9856.1431756328,36.08924,6,P-GPS,
9100,2023-10-09 21:19:15,38.4981410701404,-112.064402923348,37.073492,,,9857.1274276328,24.278216,1.1408394,4.2166339932,5.5310369224,19,5,0,9857.1274276328,37.073492,1.6105968,4.2166339932,-1.11847,0.223694,-6.263432,154.9, -6.6, -1.6,0,0,1684,1097,1024,1024,100,11,0,0,0,0,0,99,3.751,3.752,3.76,3.77,3.771,3.772,0,32,9857.1274276328,37.073492,6,P-GPS,
9200,2023-10-09 21:19:15,38.4981404697773,-112.064402636292,38.057744,,,9858.1116796328,24.278216,1.3645334,4.4503610348,5.764928006,19,5,0,9858.1116796328,38.057744,1.6105968,4.4503610348,-1.342164,0.223694,-5.368656,154.4, -7.9, -0.5,0,0,1684,1100,1024,1024,100,12,0,0,0,0,0,99,3.751,3.752,3.76,3.77,3.771,3.772,0,32,9858.1116796328,38.057744,6,P-GPS,
9300,2023-10-09 21:19:15,38.4981398988405,-112.064402645318,38.713912,,,9858.7678476328,24.278216,1.6329662,4.647637944,5.973261346,19,5,0,9858.7678476328,38.713912,1.6329662,4.647637944,-1.565858,0.447388,-4.47388,154.2, -9.6, 0.4,0,0,1684,1100,1024,1024,100,12,0,0,0,0,0,99,3.751,3.752,3.76,3.77,3.771,3.772,0,32,9858.7678476328,38.713912,6,P-GPS,
9400,2023-10-09 21:19:15,38.4981391642475,-112.064402281388,39.37008,,,9859.4240156328,24.278216,1.8342908,4.934547402,6.2606957384,19,5,0,9859.4240156328,39.37008,1.8342908,4.934547402,-1.789552,0.447388,-3.579104,154.2, -11.3, 1.2,0,0,1684,1100,1024,1024,100,12,0,0,0,0,0,99,3.751,3.752,3.76,3.77,3.771,3.772,0,32,9859.4240156328,39.37008,6,P-GPS,
9500,2023-10-09 21:19:15,38.4981382479143,-112.064402128377,39.698164,,,9859.7520996328,24.278216,2.125093,5.2665356016,6.5978676652,19,5,0,9859.7520996328,39.698164,2.125093,5.2665356016,-2.013246,0.671082,-2.684328,154.2, -12.9, 1.5,0,0,1684,1097,1024,1024,100,11,0,0,0,0,0,99,3.751,3.752,3.76,3.77,3.771,3.772,0,32,9859.7520996328,39.698164,6,P-GPS,
9600,2023-10-09 21:19:15,38.4981373003962,-112.064401681714,40.026248,,,9860.0801836328,24.278216,2.3264176,5.634514616,6.9663388056,19,5,0,9860.0801836328,40.026248,2.3264176,5.634514616,-2.23694,0.671082,-1.789552,154.3, -14.4, 1.6,0,0,1684,1097,1024,1024,100,11,0,0,0,0,0,99,3.751,3.752,3.76,3.77,3.771,3.772,0,32,9860.0801836328,40.026248,6,P-GPS,
9700,2023-10-09 21:19:15,38.4981360523252,-112.064401475268,40.354332,,,9860.4082676328,24.278216,2.8185444,6.0872377276,7.4254923636,19,5,0,9860.4082676328,40.354332,2.8185444,6.0872377276,-2.684328,0.894776,-0.894776,154.3, -15.1, 1.5,0,0,1684,1097,1024,1024,100,11,0,0,0,0,0,99,3.751,3.752,3.76,3.77,3.771,3.772,0,32,9860.4082676328,40.354332,6,P-GPS,
9800,2023-10-09 21:19:15,38.4981347940097,-112.06440090867,40.354332,,,9860.4082676328,24.278216,3.3330406,6.5734582156,7.9122705944,19,5,0,9860.4082676328,40.354332,3.3330406,6.5734582156,-3.131716,1.11847,-0.447388,154.3, -15.1, 1.3,0,0,1684,1097,1024,1024,100,11,0,0,0,0,0,99,3.751,3.752,3.76,3.77,3.771,3.772,0,32,9860.4082676328,40.354332,6,P-GPS,
9900,2023-10-09 21:19:15,38.4981331669325,-112.064400213787,40.354332,,,9860.4082676328,24.278216,3.8251674,7.199147212,8.5381892496,19,5,0,9860.4082676328,40.354332,3.8251674,7.199147212,-3.579104,1.342164,0,154.2, -14.5, 1.1,0,0,1684,1097,1024,1024,100,11,0,0,0,0,0,99,3.751,3.752,3.76,3.77,3.771,3.772,0,32,9860.4082676328,40.354332,6,P-GPS,
10000,2023-10-09 21:19:15,38.498131546861,-112.064399461437,40.354332,,,9860.4082676328,24.278216,4.3172942,7.82726403,9.1670934692,19,5,0,9860.4082676328,40.354332,4.3172942,7.82726403,-4.026492,1.565858,0,154.2, -13.9, 1.2,0,0,1684,1097,1024,1024,100,11,0,0,0,0,0,99,3.751,3.752,3.76,3.77,3.771,3.772,0,32,9860.4082676328,40.354332,6,P-GPS,
10100,2023-10-09 21:19:16,38.4981300524847,-112.064398734646,40.354332,,,9860.4082676328,24.278216,4.7423128,8.4095803216,9.750492438,19,5,0,9860.4082676328,40.354332,4.7423128,8.4095803216,-4.47388,1.565858,0.223694,154, -13.6, 1.4,0,0,1684,1096,1024,1024,100,11,0,0,0,0,0,99,3.751,3.752,3.76,3.77,3.771,3.772,0,32,9860.4082676328,40.354332,6,P-GPS,
10200,2023-10-09 21:19:16,38.498128100464,-112.064397809859,40.026248,,,9860.0801836328,24.278216,5.2344396,9.1682745716,10.5100725148,19,5,0,9860.4082676328,40.354332,5.2344396,9.1682745716,-4.921268,1.789552,0.447388,154, -13.8, 1.7,0,0,1684,1096,1024,1024,100,11,0,0,0,0,0,99,3.751,3.752,3.76,3.77,3.771,3.772,0,32,9860.0801836328,40.026248,6,P-GPS,
10300,2023-10-09 21:19:16,38.4981260882624,-112.064396630503,40.026248,,,9860.0801836328,24.278216,5.9502604,9.9705383768,11.317749706,19,5,0,9860.4082676328,40.354332,5.9502604,9.9705383768,-5.59235,2.013246,0.447388,153.9, -14.2, 1.9,0,0,1684,1095,1024,1024,100,11,0,0,0,0,0,99,3.751,3.752,3.76,3.77,3.771,3.772,0,32,9860.0801836328,40.026248,6,P-GPS,
10400,2023-10-09 21:19:16,38.4981237704601,-112.064395517264,39.698164,,,9859.7520996328,24.278216,6.4423872,10.8732615028,12.2211946168,19,5,0,9860.4082676328,40.354332,6.4423872,10.8732615028,-6.039738,2.23694,0.447388,153.9, -14.6, 1.9,0,0,1684,1095,1024,1024,100,11,0,0,0,0,0,99,3.751,3.752,3.76,3.77,3.771,3.772,0,32,9859.7520996328,39.698164,6,P-GPS,
10500,2023-10-09 21:19:16,38.4981213902826,-112.064394244437,39.698164,,,9859.7520996328,24.278216,7.158208,11.8122707192,13.162566038,19,5,0,9860.4082676328,40.354332,7.158208,11.8122707192,-6.71082,2.460634,0.447388,153.9, -14.8, 1.7,0,0,1684,1095,1024,1024,100,11,0,0,0,0,0,99,3.751,3.752,3.76,3.77,3.771,3.772,0,32,9859.7520996328,39.698164,6,P-GPS,
10600,2023-10-09 21:19:16,38.498118679297,-112.0643929437,39.698164,,,9859.7520996328,24.278216,7.5608572,12.8683403068,14.2191277516,19,5,0,9860.4082676328,40.354332,7.5608572,12.8683403068,-7.158208,2.460634,0.223694,153.9, -14.8, 1.2,0,0,1684,1095,1024,1024,100,11,0,0,0,0,0,99,3.751,3.752,3.76,3.77,3.771,3.772,0,32,9859.7520996328,39.698164,6,P-GPS,
10700,2023-10-09 21:19:16,38.4981155666658,-112.064391270777,39.698164,,,9859.7520996328,24.278216,8.0753534,14.0978022884,15.4511487884,19,5,0,9860.4082676328,40.354332,8.0753534,14.0978022884,-7.605596,2.684328,0.223694,153.8, -14.6, 0.7,0,0,1684,1095,1024,1024,100,11,0,0,0,0,0,99,3.751,3.752,3.76,3.77,3.771,3.772,0,32,9859.7520996328,39.698164,6,P-GPS,
10800,2023-10-09 21:19:16,38.4981124517653,-112.06438972182,39.37008,,,9859.4240156328,24.278216,8.7688048,15.3166343484,16.6706370164,19,5,0,9860.4082676328,40.354332,8.7688048,15.3166343484,-8.276678,2.908022,0.223694,153.6, -14.7, 0.4,0,0,1684,1096,1024,1024,100,11,0,0,0,0,0,99,3.751,3.752,3.76,3.77,3.771,3.772,0,32,9859.4240156328,39.37008,6,P-GPS,
10900,2023-10-09 21:19:16,38.4981094171944,-112.064388107525,39.37008,,,9859.4240156328,24.278216,9.3504092,16.5142065652,17.86991527,19,5,0,9860.4082676328,40.354332,9.3504092,16.5142065652,-8.724066,3.35541,0,153.5, -15, 0.1,0,0,1684,1096,1024,1024,100,11,0,0,0,0,0,99,3.751,3.752,3.76,3.77,3.771,3.772,0,32,9859.4240156328,39.37008,6,P-GPS,
11000,2023-10-09 21:19:16,38.4981059619531,-112.06438631474,39.37008,,,9859.4240156328,24.278216,9.3504092,17.873688236,19.2305452348,19,5,0,9860.4082676328,40.354332,9.3504092,17.873688236,-9.171454,3.579104,0,153.4, -15.5, 0.1,0,0,1684,1095,1024,1024,100,11,0,0,0,0,0,99,3.751,3.752,3.76,3.77,3.771,3.772,0,32,9859.4240156328,39.37008,6,P-GPS,
11100,2023-10-09 21:19:17,38.4981023947247,-112.064384229424,39.37008,,,9859.4240156328,24.278216,10.3346628,19.3004271268,20.6617788764,19,5,0,9860.4082676328,40.354332,10.3346628,19.3004271268,-9.618842,3.802798,0,153.3, -15.9, 0.3,0,0,1684,1095,1024,1024,100,11,0,0,0,0,0,99,3.751,3.752,3.76,3.77,3.771,3.772,0,32,9859.4240156328,39.37008,6,P-GPS,
11200,2023-10-09 21:19:17,38.4980985789765,-112.064382154716,39.37008,,,9859.4240156328,24.278216,10.849159,20.811680456,22.1747710508,19,5,0,9860.4082676328,40.354332,10.849159,20.811680456,-10.06623,4.026492,0,153.3, -16.1, 0.6,0,0,1684,1095,1024,1024,100,11,0,0,0,0,0,99,3.751,3.752,3.76,3.77,3.771,3.772,0,32,9859.4240156328,39.37008,6,P-GPS,
11300,2023-10-09 21:19:17,38.4980944217785,-112.064379768654,39.37008,,,9859.4240156328,24.278216,11.1399612,22.4710637112,23.8375007628,19,5,0,9860.4082676328,40.354332,11.1399612,22.4710637112,-10.289924,4.250186,0,153.3, -16.3, 1,0,0,1684,1095,1024,1024,100,11,0,0,0,0,0,99,3.751,3.752,3.76,3.77,3.771,3.772,0,32,9859.4240156328,39.37008,6,P-GPS,
11400,2023-10-09 21:19:17,38.498090216405,-112.064377430418,39.37008,,,9859.4240156328,24.278216,11.632088,24.1424876492,25.5107947796,20,5,0,9860.4082676328,40.354332,11.632088,24.1424876492,-10.737312,4.47388,-0.223694,153.3, -16.5, 1.2,0,0,1684,1094,1024,1024,100,11,0,0,0,0,0,99,3.751,3.752,3.76,3.77,3.771,3.772,0,32,9859.4240156328,39.37008,6,P-GPS,
11500,2023-10-09 21:19:17,38.4980859165516,-112.064374855463,39.37008,,,9859.4240156328,24.278216,11.632088,25.8706373108,27.2433407668,20,5,0,9860.4082676328,40.354332,11.632088,25.8706373108,-11.1847,4.697574,-0.223694,153.3, -16.9, 1.5,0,0,1684,1093,1024,1024,100,10,0,0,0,0,0,99,3.751,3.752,3.76,3.77,3.771,3.772,0,32,9859.4240156328,39.37008,6,P-GPS,
11600,2023-10-09 21:19:17,38.4980813424765,-112.06437228849,39.37008,,,9859.4240156328,24.278216,12.638711,27.6916675528,29.0660770456,20,5,0,9860.4082676328,40.354332,12.638711,27.6916675528,-11.632088,4.921268,-0.223694,153.4, -17.5, 1.7,0,0,1684,1094,1024,1024,100,11,0,0,0,0,0,99,3.751,3.752,3.76,3.77,3.771,3.772,0,32,9859.4240156328,39.37008,6,P-GPS,
11700,2023-10-09 21:19:17,38.4980766784427,-112.064369572046,39.37008,,,9859.4240156328,24.278216,13.1308378,29.5591216808,30.936188654,20,5,0,9860.4082676328,40.354332,13.1308378,29.5591216808,-12.079476,5.144962,-0.223694,153.4, -18.1, 1.9,0,0,1684,1094,1024,1024,100,11,0,0,0,0,0,99,3.751,3.752,3.76,3.77,3.771,3.772,0,32,9859.4240156328,39.37008,6,P-GPS,
11800,2023-10-09 21:19:17,38.4980717145025,-112.064366789331,39.37008,,,9859.4240156328,24.278216,13.6229646,31.5355325052,32.914043048,20,5,0,9860.4082676328,40.354332,13.6229646,31.5355325052,-12.526864,5.368656,-0.223694,153.5, -18.5, 1.9,0,0,1684,1093,1024,1024,100,10,0,0,0,0,0,99,3.751,3.752,3.76,3.77,3.771,3.772,0,32,9859.4240156328,39.37008,6,P-GPS,
11900,2023-10-09 21:19:17,38.4980665267596,-112.064363854015,39.698164,,,9859.7520996328,24.278216,13.6229646,33.6040037,34.983925004,20,5,0,9860.4082676328,40.354332,13.6229646,33.6040037,-12.974252,5.59235,-0.223694,153.4, -18.7, 1.8,0,0,1684,1093,1024,996,100,10,0,-4,0,0,0,99,3.751,3.752,3.76,3.77,3.771,3.772,0,32,9859.7520996328,39.698164,6,P-GPS,
12000,2023-10-09 21:19:17,38.498061147565,-112.064360854732,39.698164,,,9859.7520996328,24.278216,14.7414346,35.744423716,37.125329272,20,5,0,9860.4082676328,40.354332,14.7414346,35.744423716,-13.645334,5.59235,-0.223694,153.5, -18.6, 1.7,0,0,1684,1093,1024,984,100,10,0,-6,0,0,0,99,3.751,3.752,3.76,3.77,3.771,3.772,0,32,9859.7520996328,39.698164,6,P-GPS,
12100,2023-10-09 21:19:18,38.4980554853887,-112.064357791281,39.698164,,,9859.7520996328,24.278216,15.2559308,37.987534024,39.368767664,20,5,0,9860.4082676328,40.354332,15.2559308,37.987534024,-14.092722,5.816044,-0.223694,153.6, -18.6, 1.2,0,0,1684,1093,1024,974,100,10,0,-8,0,0,0,99,3.751,3.752,3.76,3.77,3.771,3.772,0,32,9859.7520996328,39.698164,6,P-GPS,
12200,2023-10-09 21:19:18,38.4980496909055,-112.064354599784,39.698164,,,9859.7520996328,24.278216,15.7480576,40.289043284,41.670933092,20,5,0,9860.4082676328,40.354332,15.7480576,40.289043284,-14.54011,6.039738,-0.223694,153.7, -18.6, -0.2,0,0,1684,1093,1024,978,100,10,0,-7,0,0,0,99,3.751,3.752,3.76,3.77,3.771,3.772,0,32,9859.7520996328,39.698164,6,P-GPS,
12300,2023-10-09 21:19:18,38.4980440814088,-112.064351411621,39.698164,,,9859.7520996328,24.278216,16.2401844,42.5278885,43.91076256,20,5,0,9860.4082676328,40.354332,16.2401844,42.5278885,-14.987498,6.263432,-0.223694,153.4, -18.5, -1.6,0,0,1684,1094,1024,980,100,11,0,-7,0,0,0,99,3.751,3.752,3.76,3.77,3.771,3.772,0,32,9859.7520996328,39.698164,6,P-GPS,
12400,2023-10-09 21:19:18,38.4980379643914,-112.064347944057,39.698164,,,9859.7520996328,24.278216,16.2401844,44.968177292,46.352363688,20,5,0,9860.4082676328,40.354332,16.2401844,44.968177292,-15.434886,6.71082,0,153, -18.4, -2.7,0,0,1684,1093,1024,979,100,10,0,-7,0,0,0,99,3.751,3.752,3.76,3.77,3.771,3.772,0,32,9859.7520996328,39.698164,6,P-GPS,
12500,2023-10-09 21:19:18,38.4980311710593,-112.064343964712,39.698164,,,9859.7520996328,24.278216,17.336285,47.692586828,49.079069812,20,5,0,9860.4082676328,40.354332,17.336285,47.692586828,-15.882274,6.934514,0,152.3, -18.2, -3.5,0,0,1684,1093,1024,980,100,10,0,-7,0,0,0,99,3.751,3.752,3.76,3.77,3.771,3.772,0,32,9859.7520996328,39.698164,6,P-GPS,
12600,2023-10-09 21:19:18,38.4980247194682,-112.064340094895,39.698164,,,9859.7520996328,24.278216,17.7165648,50.290027856,51.679135512,20,5,0,9860.4082676328,40.354332,17.7165648,50.290027856,-16.105968,7.381902,0,151.7, -18.2, -4.1,0,0,1684,1094,1024,980,100,11,0,-7,0,0,0,99,3.751,3.752,3.76,3.77,3.771,3.772,0,32,9859.7520996328,39.698164,6,P-GPS,
12700,2023-10-09 21:19:18,38.4980174448866,-112.064335612767,39.698164,,,9859.7520996328,24.278216,18.3205386,53.232285168,54.625986,20,5,0,9860.4082676328,40.354332,18.3205386,53.232285168,-16.553356,7.82929,0,151, -18.3, -4.1,0,0,1684,1092,1024,981,100,10,0,-7,0,0,0,99,3.751,3.752,3.76,3.77,3.771,3.772,0,32,9859.7520996328,39.698164,6,P-GPS,
12800,2023-10-09 21:19:18,38.4980106900024,-112.064331296724,39.698164,,,9859.7520996328,24.278216,18.6113408,55.981957172,57.381235432,20,5,0,9860.4082676328,40.354332,18.6113408,55.981957172,-16.77705,8.052984,0,150.5, -18.5, -3.9,0,0,1684,1093,1024,981,100,10,0,-7,0,0,0,99,3.751,3.752,3.76,3.77,3.771,3.772,0,32,9859.7520996328,39.698164,6,P-GPS,
12900,2023-10-09 21:19:18,38.4980044852998,-112.064327289314,39.698164,,,9859.7520996328,24.278216,19.01399,58.512797148,59.91798092,20,5,0,9860.4082676328,40.354332,19.01399,58.512797148,-17.000744,8.500372,0,149.9, -18.7, -3.4,0,0,1684,1093,1024,981,100,10,0,-7,0,0,0,99,3.751,3.752,3.76,3.77,3.771,3.772,0,32,9859.7520996328,39.698164,6,P-GPS,
13000,2023-10-09 21:19:18,38.4979975400343,-112.06432259627,39.698164,,,9859.7520996328,24.278216,19.6179638,61.36975262,62.784450828,19,5,0,9860.4082676328,40.354332,19.6179638,61.36975262,-17.448132,8.94776,0,149.4, -18.7, -2.8,0,0,1684,1093,1024,982,100,10,0,-6,0,0,0,99,3.751,3.752,3.76,3.77,3.771,3.772,0,32,9859.7520996328,39.698164,6,P-GPS,
13100,2023-10-09 21:19:19,38.4979906100965,-112.064317769621,39.698164,,,9859.7520996328,24.278216,20.020613,64.237534864,65.664044096,19,5,0,9860.4082676328,40.354332,20.020613,64.237534864,-17.671826,9.395148,0,148.9, -18.8, -2.2,0,0,1684,1093,1024,983,100,10,0,-6,0,0,0,99,3.751,3.752,3.76,3.77,3.771,3.772,0,32,9859.7520996328,39.698164,6,P-GPS,
13200,2023-10-09 21:19:19,38.4979834338182,-112.064312704971,39.698164,,,9859.7520996328,24.278216,20.5127398,67.215881416,68.655185924,20,5,0,9860.4082676328,40.354332,20.5127398,67.215881416,-18.119214,9.618842,0,148.6, -19.5, -1.8,0,0,1684,1093,1024,981,100,10,0,-7,0,0,0,99,3.751,3.752,3.76,3.77,3.771,3.772,0,32,9859.7520996328,39.698164,6,P-GPS,
13300,2023-10-09 21:19:19,38.497975462756,-112.064307171791,39.698164,,,9859.7520996328,24.278216,20.915389,70.514766036,71.964897316,20,5,0,9860.4082676328,40.354332,20.915389,70.514766036,-18.342908,10.06623,0,148.2, -20.6, -1.4,0,0,1684,1094,1024,974,100,11,0,-8,0,0,0,99,3.751,3.752,3.76,3.77,3.771,3.772,0,32,9859.7520996328,39.698164,6,P-GPS,
13400,2023-10-09 21:19:19,38.4979679590284,-112.064301716239,40.026248,,,9860.0801836328,24.278216,21.5417322,73.64993674,75.1148318,20,5,0,9860.4082676328,40.354332,21.5417322,73.64993674,-18.790296,10.513618,0,147.9, -21.3, -1.2,0,0,1684,1094,1024,974,100,11,0,-8,0,0,0,99,3.751,3.752,3.76,3.77,3.771,3.772,0,32,9860.0801836328,40.026248,6,P-GPS,
13500,2023-10-09 21:19:19,38.4979608434104,-112.064296446986,40.026248,,,9860.0801836328,24.278216,21.8325344,76.63550114,78.11515998,20,5,0,9860.4082676328,40.354332,21.8325344,76.63550114,-19.01399,10.737312,0,147.6, -21.4, -1.3,0,0,1684,1094,1024,967,100,11,0,-9,0,0,0,99,3.751,3.752,3.76,3.77,3.771,3.772,0,32,9860.0801836328,40.026248,6,P-GPS,
13600,2023-10-09 21:19:19,38.4979530787509,-112.064290650688,40.026248,,,9860.0801836328,24.278216,22.4365082,79.900265024,81.396328064,20,5,0,9860.4082676328,40.354332,22.4365082,79.900265024,-19.461378,11.1847,0,147.3, -21.1, -1.5,0,0,1684,1095,1024,964,100,11,0,-9,0,0,0,99,3.751,3.752,3.76,3.77,3.771,3.772,0,32,9860.0801836328,40.026248,6,P-GPS,
13700,2023-10-09 21:19:19,38.4979452035943,-112.064284561064,40.026248,,,9860.0801836328,24.278216,22.9510044,83.23819164,84.754595888,20,5,0,9860.4082676328,40.354332,22.9510044,83.23819164,-19.908766,11.408394,0,147, -20.8, -2,0,0,1684,1095,1024,964,100,11,0,-9,0,0,0,99,3.751,3.752,3.76,3.77,3.771,3.772,0,32,9860.0801836328,40.026248,6,P-GPS,
13800,2023-10-09 21:19:19,38.4979371880901,-112.064278389904,40.026248,,,9860.0801836328,24.278216,23.3536536,86.63386104,88.168966076,20,5,0,9860.4082676328,40.354332,23.3536536,86.63386104,-20.13246,11.855782,0,146.6, -20.6, -2.6,0,0,1684,1096,1024,964,100,11,0,-9,0,0,0,99,3.751,3.752,3.76,3.77,3.771,3.772,0,32,9860.0801836328,40.026248,6,P-GPS,
13900,2023-10-09 21:19:19,38.4979290128002,-112.064271993879,40.026248,,,9860.0801836328,24.278216,23.7786722,90.111223356,91.6666696,20,5,0,9860.4082676328,40.354332,23.7786722,90.111223356,-20.356154,12.30317,0,146.1, -20.2, -3.2,0,0,1684,1096,1024,965,100,11,0,-9,0,0,0,99,3.751,3.752,3.76,3.77,3.771,3.772,0,32,9860.0801836328,40.026248,6,P-GPS,
14000,2023-10-09 21:19:19,38.4979207959455,-112.064265433022,40.026248,,,9860.0801836328,24.278216,24.0918438,93.624018744,95.2017747,20,5,0,9860.4082676328,40.354332,24.0918438,93.624018744,-20.579848,12.526864,0,145.7, -20, -3.8,0,0,1684,1096,1024,965,100,11,0,-9,0,0,0,99,3.751,3.752,3.76,3.77,3.771,3.772,0,32,9860.0801836328,40.026248,6,P-GPS,
14100,2023-10-09 21:19:20,38.4979125934766,-112.064258696632,40.026248,,,9860.0801836328,24.278216,24.5168624,97.15551492,98.759189512,20,5,0,9860.4082676328,40.354332,24.5168624,97.15551492,-20.803542,12.974252,0,145.2, -20, -4.1,0,0,1684,1096,1024,967,100,11,0,-9,0,0,0,99,3.751,3.752,3.76,3.77,3.771,3.772,0,32,9860.0801836328,40.026248,6,P-GPS,
14200,2023-10-09 21:19:20,38.4979042411038,-112.064251735289,40.026248,,,9860.0801836328,24.278216,24.941881,100.766735508,102.397641072,20,5,0,9860.4082676328,40.354332,24.941881,100.766735508,-21.027236,13.42164,0,144.7, -20.2, -4.2,0,0,1684,1095,1024,971,100,11,0,-8,0,0,0,99,3.751,3.752,3.76,3.77,3.771,3.772,0,32,9860.0801836328,40.026248,6,P-GPS,
14300,2023-10-09 21:19:20,38.4978955966469,-112.0642443379,40.026248,,,9860.0801836328,24.278216,25.1879444,104.530187072,106.193572952,20,5,0,9860.4082676328,40.354332,25.1879444,104.530187072,-21.027236,13.869028,0,144.2, -20.2, -4,0,0,1684,1095,1024,983,100,11,0,-6,0,0,0,99,3.751,3.752,3.76,3.77,3.771,3.772,0,32,9860.0801836328,40.026248,6,P-GPS,
14400,2023-10-09 21:19:20,38.4978870890781,-112.064236933356,40.026248,,,9860.0801836328,24.278216,25.612963,108.252628136,109.9491505,20,5,0,9860.4082676328,40.354332,25.612963,108.252628136,-21.25093,14.316416,0,143.7, -20.2, -3.3,0,0,1684,1095,1024,988,100,11,0,-5,0,0,0,99,3.751,3.752,3.76,3.77,3.771,3.772,0,32,9860.0801836328,40.026248,6,P-GPS,
14500,2023-10-09 21:19:20,38.4978784552564,-112.064229286056,40.026248,,,9860.0801836328,24.278216,25.9261346,112.049544268,113.781827788,20,5,0,9860.4082676328,40.354332,25.9261346,112.049544268,-21.474624,14.54011,0,143.3, -20.2, -2.3,0,0,1684,1094,1024,1002,100,11,0,-3,0,0,0,99,3.751,3.752,3.76,3.77,3.771,3.772,0,32,9860.0801836328,40.026248,6,P-GPS,
14600,2023-10-09 21:19:20,38.4978697931426,-112.064221498346,40.026248,,,9860.0801836328,24.278216,26.3735226,115.876644128,117.646329224,20,5,0,9860.4082676328,40.354332,26.3735226,115.876644128,-21.698318,14.987498,0,142.8, -20.3, -1,0,0,1684,1094,1024,1024,100,11,0,0,0,0,0,99,3.751,3.752,3.76,3.77,3.771,3.772,0,32,9860.0801836328,40.026248,6,P-GPS,
14700,2023-10-09 21:19:20,38.4978609779906,-112.064213535968,40.026248,,,9860.0801836328,24.278216,26.6866942,119.77854714,121.584977644,20,5,0,9860.4082676328,40.354332,26.6866942,119.77854714,-21.922012,15.211192,0,142.4, -20.6, 0.3,0,0,1684,1091,1024,1024,100,10,0,0,0,0,0,99,3.751,3.752,3.76,3.77,3.771,3.772,0,32,9860.0801836328,40.026248,6,P-GPS,
14800,2023-10-09 21:19:20,38.4978521114093,-112.064205437688,40.026248,,,9860.0801836328,24.278216,26.9998658,123.717523644,125.561355724,20,5,0,9860.4082676328,40.354332,26.9998658,123.717523644,-22.145706,15.434886,0,142.2, -20.6, 1.6,0,0,1684,1087,1024,1024,100,10,0,0,0,0,0,99,3.751,3.752,3.76,3.77,3.771,3.772,0,32,9860.0801836328,40.026248,6,P-GPS,
14900,2023-10-09 21:19:20,38.4978431600885,-112.064197228332,40.026248,,,9860.0801836328,24.278216,27.4919926,127.700791488,129.581368976,20,5,0,9860.4082676328,40.354332,27.4919926,127.700791488,-22.593094,15.65858,0,142.1, -20.4, 2.2,0,0,1684,1083,1024,1024,100,9,0,0,0,0,0,99,3.751,3.752,3.76,3.77,3.771,3.772,0,32,9860.0801836328,40.026248,6,P-GPS,
15000,2023-10-09 21:19:21,38.4978340533319,-112.064188904441,40.026248,,,9860.0801836328,24.278216,27.8051642,131.75197272,133.666670944,21,5,0,9860.4082676328,40.354332,27.8051642,131.75197272,-22.816788,15.882274,0,142.1, -20, 2.4,0,0,1684,1081,1024,1024,100,9,0,0,0,0,0,99,3.751,3.752,3.76,3.77,3.771,3.772,0,32,9860.0801836328,40.026248,6,P-GPS,
15100,2023-10-09 21:19:21,38.4978248499847,-112.064180538601,40.026248,,,9860.0801836328,24.278216,28.1183358,135.841867864,137.787405984,21,5,0,9860.4082676328,40.354332,28.1183358,135.841867864,-23.040482,16.105968,0,142.2, -19.7, 2.1,0,0,1684,1077,1024,1024,100,8,0,0,0,0,0,99,3.751,3.752,3.76,3.77,3.771,3.772,0,32,9860.0801836328,40.026248,6,P-GPS,
15200,2023-10-09 21:19:21,38.4978155303177,-112.064172028313,40.026248,,,9860.0801836328,24.278216,28.4315074,139.990818128,141.96686806,21,5,0,9860.4082676328,40.354332,28.4315074,139.990818128,-23.264176,16.329662,0,142.2, -19.4, 1.9,0,0,1684,1075,1024,1068,100,8,0,7,0,0,0,99,3.751,3.752,3.76,3.77,3.771,3.772,0,32,9860.0801836328,40.026248,6,P-GPS,
15300,2023-10-09 21:19:21,38.4978053801761,-112.064162665848,40.026248,,,9860.0801836328,24.278216,28.744679,144.523954756,146.534453508,21,5,0,9860.4082676328,40.354332,28.744679,144.523954756,-23.48787,16.553356,0,142.2, -19.5, 1.7,0,0,1684,1074,1045,1086,100,8,3,9,0,0,0,99,3.751,3.752,3.76,3.77,3.771,3.772,0,32,9860.0801836328,40.026248,6,P-GPS,
15400,2023-10-09 21:19:21,38.4977958185184,-112.064153937894,40.026248,,,9860.0801836328,24.278216,28.9236342,148.783797412,150.821527136,21,5,0,9860.4082676328,40.354332,28.9236342,148.783797412,-23.711564,16.553356,0,142.2, -20, 2.7,0,0,1684,1072,1039,1048,100,7,2,4,0,0,0,99,3.751,3.752,3.76,3.77,3.771,3.772,0,32,9860.0801836328,40.026248,6,P-GPS,
15500,2023-10-09 21:19:21,38.4977870206124,-112.064145805017,40.026248,,,9860.0801836328,24.278216,29.2368058,152.718836908,154.78346952,21,5,0,9860.4082676328,40.354332,29.2368058,152.718836908,-23.935258,16.77705,0,142.1, -19.9, 4.9,0,0,1684,1072,1164,1024,100,7,21,0,0,0,0,99,3.751,3.752,3.76,3.77,3.771,3.772,0,32,9860.0801836328,40.026248,6,P-GPS,
15600,2023-10-09 21:19:21,38.4977773053345,-112.064137019008,40.026248,,,9860.0801836328,24.278216,29.5947162,157.038390852,159.125989344,21,5,0,9860.4082676328,40.354332,29.5947162,157.038390852,-24.382646,16.77705,0,142.5, -19.4, 5.3,0,0,1684,1070,1314,1024,100,7,44,0,0,0,0,99,3.751,3.752,3.76,3.77,3.771,3.772,0,32,9860.0801836328,40.026248,6,P-GPS,
15700,2023-10-09 21:19:21,38.497768204298,-112.064128911056,40.026248,,,9860.0801836328,24.278216,29.5947162,161.068574708,163.17421782,21,5,0,9860.4082676328,40.354332,29.5947162,161.068574708,-24.60634,16.77705,0,142.7, -19.1, 4.2,0,0,1684,1065,1496,1024,100,6,72,0,0,0,0,99,3.751,3.752,3.76,3.77,3.771,3.772,0,32,9860.0801836328,40.026248,6,P-GPS,
15800,2023-10-09 21:19:21,38.4977583255009,-112.064120164851,40.026248,,,9860.0801836328,24.278216,29.974996,165.436685084,167.55906048,21,5,0,9860.4082676328,40.354332,29.974996,165.436685084,-24.830034,16.77705,-0.223694,142.9, -18.7, 2.9,0,0,1684,1056,1684,1024,100,5,100,0,0,0,0,99,3.751,3.752,3.76,3.77,3.771,3.772,0,32,9860.0801836328,40.026248,6,P-GPS,
15900,2023-10-09 21:19:21,38.4977481939924,-112.064111157279,40.354332,,,9860.4082676328,24.278216,29.974996,169.922577616,172.062341464,21,5,0,9860.4082676328,40.354332,29.974996,169.922577616,-25.053728,17.000744,-0.671082,143, -18, 1.8,0,0,1684,1056,1684,1024,100,5,100,0,0,0,0,99,3.751,3.752,3.76,3.77,3.771,3.772,0,32,9860.4082676328,40.354332,6,P-GPS,
16000,2023-10-09 21:19:21,38.4977380954686,-112.064102247523,40.354332,,,9860.4082676328,24.278216,30.5789698,174.385176184,176.539703812,20,5,0,9860.4082676328,40.354332,30.5789698,174.385176184,-25.277422,17.224438,-1.342164,143.1, -17.1, 1.4,0,0,1684,1055,1684,1024,100,5,100,0,0,0,0,99,3.751,3.752,3.76,3.77,3.771,3.772,0,32,9860.4082676328,40.354332,6,P-GPS,
16100,2023-10-09 21:19:22,38.4977276749415,-112.064093241265,40.682416,,,9860.7363516328,24.278216,30.8921414,178.963916488,181.129598972,20,5,0,9860.7363516328,40.682416,30.8921414,178.963916488,-25.501116,17.448132,-2.013246,143.2, -16.3, 1.2,0,0,1684,1056,1684,1024,100,5,100,0,0,0,0,99,3.751,3.752,3.76,3.77,3.771,3.772,0,32,9860.7363516328,40.682416,6,P-GPS,
16200,2023-10-09 21:19:22,38.4977173995403,-112.064084211263,41.0105,,,9861.0644356328,24.278216,31.093466,183.50066204,185.679795968,20,5,0,9861.0644356328,41.0105,31.093466,183.50066204,-25.72481,17.448132,-2.684328,143.2, -15.9, 1.1,0,0,1684,1055,1684,1024,100,5,100,0,0,0,0,99,3.751,3.752,3.76,3.77,3.771,3.772,0,32,9861.0644356328,41.0105,6,P-GPS,
16300,2023-10-09 21:19:22,38.4977070616291,-112.064074951056,41.338584,,,9861.3925196328,24.278216,31.3842682,188.091213368,190.286095328,20,5,0,9861.3925196328,41.338584,31.3842682,188.091213368,-25.948504,17.671826,-3.35541,143, -16.1, 1.3,0,0,1684,1055,1684,1032,100,5,100,1,0,0,0,99,3.751,3.752,3.76,3.77,3.771,3.772,0,32,9861.3925196328,41.338584,6,P-GPS,
16400,2023-10-09 21:19:22,38.4976966517887,-112.064065765228,41.994752,,,9862.0486876328,24.278216,31.3842682,192.694231888,194.901909124,22,5,0,9862.0486876328,41.994752,31.3842682,192.694231888,-26.172198,17.671826,-4.250186,143, -16.4, 1.5,0,0,1684,1055,1684,1042,100,5,100,3,0,0,0,99,3.751,3.752,3.76,3.77,3.771,3.772,0,32,9862.0486876328,41.994752,6,P-GPS,
16500,2023-10-09 21:19:22,38.4976851526654,-112.064055736413,42.65092,,,9862.7048556328,24.278216,31.8987644,197.76247352,199.981305612,22,5,0,9862.7048556328,42.65092,31.8987644,197.76247352,-26.395892,17.89552,-5.144962,143, -16.5, 1.4,0,0,1684,1055,1684,1093,100,5,100,10,0,0,0,99,3.751,3.752,3.76,3.77,3.771,3.772,0,32,9862.7048556328,42.65092,6,P-GPS,
16600,2023-10-09 21:19:22,38.4976744602458,-112.064046345939,43.307088,,,9863.3610236328,24.278216,32.211936,202.484914616,204.715229648,22,5,0,9863.3610236328,43.307088,32.211936,202.484914616,-26.619586,18.119214,-5.816044,142.9, -15.5, 0.6,0,0,1684,1053,1684,1131,100,4,100,16,0,0,0,99,3.751,3.752,3.76,3.77,3.771,3.772,0,32,9863.3610236328,43.307088,6,P-GPS,
16700,2023-10-09 21:19:22,38.4976645891212,-112.06403768512,44.29134,,,9864.3452756328,24.278216,32.3908912,206.844166724,209.083996192,22,5,0,9864.3452756328,44.29134,32.3908912,206.844166724,-26.84328,18.119214,-6.71082,142.6, -14.2, 0.9,0,0,1684,1049,1684,1163,100,4,100,21,0,0,0,99,3.751,3.752,3.76,3.77,3.771,3.772,0,32,9864.3452756328,44.29134,6,P-GPS,
16800,2023-10-09 21:19:22,38.4976538729993,-112.064028244862,45.275592,,,9865.3295276328,24.278216,32.5027382,211.582355852,213.833012092,22,5,0,9865.3295276328,45.275592,32.5027382,211.582355852,-26.84328,18.342908,-7.605596,142.3, -12.8, 3.1,0,0,1684,1048,1684,1186,100,4,100,25,0,0,0,99,3.751,3.752,3.76,3.77,3.771,3.772,0,32,9865.3295276328,45.275592,6,P-GPS,
16900,2023-10-09 21:19:22,38.4976419826152,-112.064017976235,46.587928,,,9866.6418636328,24.278216,32.5698464,216.810374392,219.069232732,22,5,0,9866.6418636328,46.587928,32.5698464,216.810374392,-27.066974,18.119214,-8.500372,142.2, -11.1, 7.2,0,0,1684,1047,1684,1219,100,3,100,30,0,0,0,99,3.751,3.752,3.76,3.77,3.771,3.772,0,32,9866.6418636328,46.587928,6,P-GPS,
17000,2023-10-09 21:19:22,38.4976310692359,-112.064008603004,47.900264,,,9867.9541996328,24.278216,32.4579994,221.601385044,223.866805064,22,5,0,9867.9541996328,47.900264,32.5698464,221.601385044,-27.066974,17.89552,-9.395148,142.5, -8.8, 11.8,0,0,1684,1048,1684,1221,100,4,100,30,0,0,0,99,3.751,3.752,3.76,3.77,3.771,3.772,0,32,9867.9541996328,47.900264,6,P-GPS,
17100,2023-10-09 21:19:23,38.4976211735183,-112.064000271739,49.2126,,,9869.2665356328,24.278216,32.2790442,225.921267072,228.1906241,22,5,0,9869.2665356328,49.2126,32.5698464,225.921267072,-27.290668,17.224438,-10.06623,143.6, -6.8, 17,0,0,1684,1047,1684,1218,100,3,100,29,0,0,0,99,3.751,3.752,3.76,3.77,3.771,3.772,0,32,9869.2665356328,49.2126,6,P-GPS,
17200,2023-10-09 21:19:23,38.4976101672474,-112.063991648384,50.85302,,,9870.9069556328,24.278216,31.988242,230.63156906,232.900926088,22,5,0,9870.9069556328,50.85302,32.5698464,230.63156906,-27.514362,16.329662,-10.737312,145.1, -5.5, 20.8,0,0,1684,1048,1684,1190,100,4,100,25,0,0,0,99,3.751,3.752,3.76,3.77,3.771,3.772,0,32,9870.9069556328,50.85302,6,P-GPS,
17300,2023-10-09 21:19:23,38.497598969679,-112.063983288627,52.49344,,,9872.5473756328,24.278216,31.7421786,235.362868424,237.63288162,22,5,0,9872.5473756328,52.49344,32.5698464,235.362868424,-27.738056,15.434886,-11.1847,146.9, -4.6, 22,0,0,1684,1048,1684,1168,100,4,100,22,0,0,0,99,3.751,3.752,3.76,3.77,3.771,3.772,0,32,9872.5473756328,52.49344,6,P-GPS,
17400,2023-10-09 21:19:23,38.4975877717339,-112.063975702424,54.13386,,,9874.1877956328,24.278216,31.4066376,239.980978808,242.256897516,22,5,0,9874.1877956328,54.13386,32.5698464,239.980978808,-27.96175,14.316416,-11.408394,148.8, -4.6, 19.6,0,0,1684,1048,1684,1148,100,4,100,19,0,0,0,99,3.751,3.752,3.76,3.77,3.771,3.772,0,32,9874.1877956328,54.13386,6,P-GPS,
