time(millisecond),datetime(utc),latitude,longitude,height_above_takeoff(feet),height_above_ground_at_drone_location(feet),ground_elevation_at_drone_location(feet),altitude_above_seaLevel(feet),height_sonar(feet),speed(mph),distance(feet),mileage(feet),satellites,gpslevel,voltage(v),max_altitude(feet),max_ascent(feet),max_speed(mph),max_distance(feet), xSpeed(mph), ySpeed(mph), zSpeed(mph), compass_heading(degrees), pitch(degrees), roll(degrees),isPhoto,isVideo,rc_elevator,rc_aileron,rc_throttle,rc_rudder,rc_elevator(percent),rc_aileron(percent),rc_throttle(percent),rc_rudder(percent),gimbal_heading(degrees),gimbal_pitch(degrees),gimbal_roll(degrees),battery_percent,voltageCell1,voltageCell2,voltageCell3,voltageCell4,voltageCell5,voltageCell6,current(A),battery_temperature(f),altitude(feet),ascent(feet),flycStateRaw,flycState,message
0,,38.498137358609,-112.064417832366,0,Available with any HD 360 subscription,Available with any HD 360 subscription,9820.1364369478,0.656168,0,0,0,16,5,0,9820.1364369478,0,0,0,0,0,0,328.9, 0.3, 1.3,0,0,364,364,364,1684,-100,-100,-100,100,0,0,0,100,,,,,,,0,32,9820.1364369478,0,41,Motors_Started,
100,2023-10-10 00:44:57,38.4981373567044,-112.064417817022,0,,,9820.1364369478,0.656168,0,0.0044361221892,0.0044361221892,16,5,0,9820.1364369478,0,0,0.0044361221892,0,0,0,328.9, 0.3, 1.3,0,0,364,364,364,1684,-100,-100,-100,100,0,0,0,100,,,,,,,0,32,9820.1364369478,0,41,Motors_Started,"Setting new Return-To-Home altitude to 152m (499 ft). Data Recorder File Index is 22. Setting new Maximum Flight Altitude to 244m (801 ft)"
200,2023-10-10 00:44:58,38.4981373536315,-112.064418000413,0,,,9820.1364369478,0.656168,0,0.048018702324,0.056813978196,16,5,0,9820.1364369478,0,0,0.048018702324,0,0,0,328.9, 0.3, 1.3,0,0,364,364,364,1684,-100,-100,-100,100,0,0,0,100,,,,,,,0,32,9820.1364369478,0,41,Motors_Started,
300,2023-10-10 00:44:58,38.4981373503007,-112.064418001436,0,,,9820.1364369478,0.656168,0,0.048371392624,0.058063650152,16,5,0,9820.1364369478,0,0,0.048371392624,0,0,0,328.9, 0.3, 1.3,0,0,364,364,364,1684,-100,-100,-100,100,0,0,0,100,,,,,,,0,32,9820.1364369478,0,41,Motors_Started,
400,2023-10-10 00:44:58,38.4981373503619,-112.064417841752,0,,,9820.1364369478,0.656168,0,0.0040294948796,0.103660108304,16,5,0,9820.1364369478,0,0,0.048371392624,0,0,0,328.9, 0.3, 1.3,0,0,364,364,364,1684,-100,-100,-100,100,0,0,0,100,,,,,,,0,32,9820.1364369478,0,41,Motors_Started,
500,2023-10-10 00:44:58,38.4981373472711,-112.064417828732,0,,,9820.1364369478,0.656168,0,0.0042648295328,0.107544950948,16,5,0,9820.1364369478,0,0,0.048371392624,0,0,0,328.9, 0.3, 1.3,0,0,364,364,364,1684,-100,-100,-100,100,0,0,0,100,,,,,,,0,32,9820.1364369478,0,41,Motors_Started,
600,2023-10-10 00:44:58,38.4981373496197,-112.06441785052,0,,,9820.1364369478,0.656168,0,0.006134022506,0.113825134876,16,5,0,9820.1364369478,0,0,0.048371392624,0,0,0,328.8, 0.3, 1.3,0,0,364,364,364,1684,-100,-100,-100,100,0,0,0,100,,,,,,,0,32,9820.1364369478,0,41,Motors_Started,
700,2023-10-10 00:44:58,38.4981373465181,-112.064417839624,0,,,9820.1364369478,0.656168,0,0.0048739174788,0.117135502436,16,5,0,9820.1364369478,0,0,0.048371392624,0,0,0,328.8, 0.3, 1.3,0,0,364,364,364,1684,-100,-100,-100,100,0,0,0,100,,,,,,,0,32,9820.1364369478,0,41,Motors_Started,
800,2023-10-10 00:44:58,38.4981375090122,-112.064417859198,0,,,9820.1364369478,0.656168,0,0.05540682592,0.176684388856,16,5,0,9820.1364369478,0,0,0.05540682592,0,0,0,328.8, 0.3, 1.3,0,0,856,827,1024,1024,-25,-30,0,0,0,0,0,100,,,,,,,0,32,9820.1364369478,0,41,Motors_Started,
900,2023-10-10 00:44:58,38.4981375200171,-112.06441785067,0,,,9820.1364369478,0.656168,0,0.059121064884,0.181380255148,16,5,0,9820.1364369478,0,0,0.059121064884,0,0,0,328.7, 0.3, 1.3,0,0,1024,1024,1024,1024,0,0,0,0,0,0,0,100,,,,,,,0,32,9820.1364369478,0,41,Motors_Started,
1000,2023-10-10 00:44:58,38.4981374952294,-112.064417867684,0,,,9820.1364369478,0.656168,0,0.050855644672,0.191646331592,16,5,0,9820.1364369478,0,0,0.059121064884,0,0,0,328.7, 0.3, 1.2,0,0,1024,1024,1024,1024,0,0,0,0,0,0,0,100,,,,,,,0,32,9820.1364369478,0,41,Motors_Started,
1100,2023-10-10 00:44:58,38.4981375032197,-112.064417861201,0,,,9820.1364369478,0.656168,0,0.053399608008,0.195099743776,16,5,0,9820.1364369478,0,0,0.059121064884,0,0,0,328.7, 0.3, 1.2,0,0,1024,1024,1024,1024,0,0,0,0,0,0,0,100,,,,,,,0,32,9820.1364369478,0,41,Motors_Started,
1200,2023-10-10 00:44:59,38.4981374791517,-112.064417879232,0,,,9820.1364369478,0.656168,0,0.045970801996,0.205279206044,16,5,0,9820.1364369478,0,0,0.059121064884,0,0,0,328.7, 0.3, 1.3,0,0,1024,1024,1024,1024,0,0,0,0,0,0,0,100,,,,,,,0,32,9820.1364369478,0,41,Motors_Started,
1300,2023-10-10 00:44:59,38.4981374839379,-112.064417878458,0,,,9820.1364369478,0.656168,0,0.047582350604,0.207039376704,16,5,0,9820.1364369478,0,0,0.059121064884,0,0,0,328.7, 0.3, 1.2,0,0,1024,1024,1024,1024,0,0,0,0,0,0,0,100,,,,,,,0,32,9820.1364369478,0,41,Motors_Started,
1400,2023-10-10 00:44:59,38.4981374507427,-112.064417894239,0,,,9820.1364369478,0.656168,0,0.037974738748,0.219961621212,16,5,0,9820.1364369478,0,0,0.059121064884,0,0,0,328.7, 0.2, 1.2,0,0,1024,1024,1024,1024,0,0,0,0,0,0,0,100,,,,,,,0,32,9820.1364369478,0,41,Motors_Started,
1500,2023-10-10 00:44:59,38.4981374515056,-112.064417895727,0,,,9820.1364369478,0.656168,0,0.038419620652,0.220469495244,16,5,0,9820.1364369478,0,0,0.059121064884,0,0,0,328.6, 0.3, 1.2,0,0,1024,1024,1024,1024,0,0,0,0,0,0,0,100,,,,,,,0,32,9820.1364369478,0,41,Motors_Started,
1600,2023-10-10 00:44:59,38.49813744313,-112.064417907392,0,,,9820.1364369478,0.656168,0,0.037548557632,0.224989836596,16,5,0,9820.1364369478,0,0,0.059121064884,0,0,0,328.6, 0.3, 1.3,0,0,1024,1024,1024,1024,0,0,0,0,0,0,0,100,,,,,,,0,32,9820.1364369478,0,41,Motors_Started,
1700,2023-10-10 00:44:59,38.4981374416468,-112.064417910018,0,,,9820.1364369478,0.656168,0,0.037543308288,0.225914377308,16,5,0,9820.1364369478,0,0,0.059121064884,0,0,0,328.5, 0.3, 1.3,0,0,1024,1024,1024,1024,0,0,0,0,0,0,0,100,,,,,,,0,32,9820.1364369478,0,41,Motors_Started,
1800,2023-10-10 00:44:59,38.4981374350099,-112.064417912627,0,,,9820.1364369478,0.656168,0,0.036086287244,0.228447841956,16,5,0,9820.1364369478,0,0,0.059121064884,0,0,0,328.6, 0.3, 1.3,0,0,1024,1024,1024,1024,0,0,0,0,0,0,0,100,,,,,,,0,32,9820.1364369478,0,41,Motors_Started,
1900,2023-10-10 00:44:59,38.498137431449,-112.06441791802,0,,,9820.1364369478,0.656168,0,0.036116799056,0.2304626058,16,5,0,9820.1364369478,0,0,0.059121064884,0,0,0,328.5, 0.3, 1.2,0,0,1024,1024,1024,1024,0,0,0,0,0,0,0,100,,,,,,,0,32,9820.1364369478,0,41,Motors_Started,
2000,2023-10-10 00:44:59,38.4981374240477,-112.064417913842,0,,,9820.1364369478,0.656168,0,0.033335630988,0.233414705632,16,5,0,9820.1364369478,0,0,0.059121064884,0,0,0,328.5, 0.3, 1.3,0,0,1024,1024,1024,1024,0,0,0,0,0,0,0,100,,,,,,,0,32,9820.1364369478,0,10,Assisted_Takeoff,
2100,2023-10-10 00:44:59,38.4981374210676,-112.064417918064,0,,,9820.1364369478,0.656168,0,0.033437665112,0.235038393348,16,5,0,9820.1364369478,0,0,0.059121064884,0,0,0,328.5, 0.3, 1.3,0,0,1024,1024,1024,1024,0,0,0,0,0,0,0,100,,,,,,,0,32,9820.1364369478,0,10,Assisted_Takeoff,
2200,2023-10-10 00:45:00,38.4981374235707,-112.064417915409,0,,,9820.1364369478,0.656168,0,0.033526247792,0.23622540126,16,5,0,9820.1364369478,0,0,0.059121064884,0,0,0,328.5, 0.3, 1.3,0,0,1024,1024,1024,1024,0,0,0,0,0,0,0,100,,,,,,,0,32,9820.1364369478,0,10,Assisted_Takeoff,
2300,2023-10-10 00:45:00,38.498137419394,-112.064417919941,0,,,9820.1364369478,0.656168,0,0.0334235575,0.238224417072,16,5,0,9820.1364369478,0,0,0.059121064884,0,0,0,328.5, 0.3, 1.3,0,0,1024,1024,1024,1024,0,0,0,0,0,0,0,100,,,,,,,0,32,9820.1364369478,0,10,Assisted_Takeoff,
2400,2023-10-10 00:45:00,38.4981374295659,-112.064417912391,0,,,9820.1364369478,0.656168,0,0.034530512916,0.24251641196,16,5,0,9820.1364369478,0,0,0.059121064884,0,0,0,328.5, 0.3, 1.3,0,0,1024,1024,1024,1024,0,0,0,0,0,0,0,100,,,,,,,0,32,9820.1364369478,0,10,Assisted_Takeoff,
2500,2023-10-10 00:45:00,38.498137426033,-112.06441791556,0,,,9820.1364369478,0.656168,0,0.034197179572,0.24409121516,16,5,0,9820.1364369478,0,0,0.059121064884,0,0,0,328.5, 0.3, 1.3,0,0,1024,1024,1024,1024,0,0,0,0,0,0,0,100,,,,,,,0,32,9820.1364369478,0,10,Assisted_Takeoff,
2600,2023-10-10 00:45:00,38.4981374232218,-112.064417910486,0,,,9820.1364369478,0.656168,0,0.0324546598312,0.245866477684,16,5,0,9820.1364369478,0,0,0.059121064884,0,0,0,328.5, 0.3, 1.3,0,0,1024,1024,1024,1024,0,0,0,0,0,0,0,100,,,,,,,0,32,9820.1364369478,0,10,Assisted_Takeoff,
2700,2023-10-10 00:45:00,38.4981374192151,-112.064417912858,0,,,9820.1364369478,0.656168,0,0.031893537766,0.247477370124,16,5,0,9820.1364369478,0,0,0.059121064884,0,0,0,328.4, 0.3, 1.3,0,0,1024,1024,1024,1024,0,0,0,0,0,0,0,100,,,,,,,0,32,9820.1364369478,0,10,Assisted_Takeoff,
2800,2023-10-10 00:45:00,38.4981374225945,-112.064418064734,0,,,9820.1364369478,0.656168,0,0.070337600676,0.290861885948,16,5,0,9820.1364369478,0,0,0.070337600676,0,0,0,328.4, 0.3, 1.3,0,0,1024,1024,1024,1024,0,0,0,0,0,0,0,100,,,,,,,0,32,9820.1364369478,0,10,Assisted_Takeoff,
2900,2023-10-10 00:45:00,38.4981374182135,-112.064418080351,0,,,9820.1364369478,0.656168,0,0.074074149352,0.295599090824,16,5,0,9820.1364369478,0,0,0.074074149352,0,0,0,328.4, 0.3, 1.3,0,0,1024,1024,1024,1024,0,0,0,0,0,0,0,100,,,,,,,0,32,9820.1364369478,0,10,Assisted_Takeoff,
3000,2023-10-10 00:45:00,38.4981374196914,-112.064418052149,0,,,9820.1364369478,0.656168,0,0.066596786908,0.303669957224,16,5,0,9820.1364369478,0,0,0.074074149352,0,0,0,328.4, 0.3, 1.2,0,0,1024,1024,1024,1024,0,0,0,0,0,0,0,100,,,,,,,0,32,9820.1364369478,0,10,Assisted_Takeoff,
3100,2023-10-10 00:45:00,38.4981374155204,-112.064418065203,0,,,9820.1364369478,0.656168,0,0.069651577032,0.307695875988,16,5,0,9820.1364369478,0,0,0.074074149352,0,0,0,328.4, 0.3, 1.2,0,0,1024,1024,1024,1024,0,0,0,0,0,0,0,100,,,,,,,0,32,9820.1364369478,0,10,Assisted_Takeoff,
3200,2023-10-10 00:45:00,38.4981374175025,-112.064418043787,0,,,9820.1364369478,0.656168,0,0.064079398376,0.313853684584,16,5,0,9820.1364369478,0,0,0.074074149352,0,0,0,328.4, 0.3, 1.2,0,0,1024,1024,1024,1024,0,0,0,0,0,0,0,100,,,,,,,0,32,9820.1364369478,0,10,Assisted_Takeoff,
3300,2023-10-10 00:45:01,38.4981374125908,-112.064418054537,0,,,9820.1364369478,0.656168,0,0.066425855144,0.317407818556,16,5,0,9820.1364369478,0,0,0.074074149352,0,0,0,328.4, 0.3, 1.2,0,0,1024,1024,1024,1024,0,0,0,0,0,0,0,100,,,,,,,0,32,9820.1364369478,0,10,Assisted_Takeoff,
3400,2023-10-10 00:45:01,38.498137416113,-112.064418035681,0,,,9820.1364369478,0.656168,0,0.061729660768,0.32294292372,16,5,0,9820.1364369478,0,0,0.074074149352,0,0,0,328.4, 0.3, 1.2,0,0,1024,1024,1024,1024,0,0,0,0,0,0,0,100,,,,,,,0,32,9820.1364369478,0,10,Assisted_Takeoff,
3500,2023-10-10 00:45:01,38.498137411741,-112.064418045631,0,,,9820.1364369478,0.656168,0,0.063906826192,0.326201125924,16,5,0,9820.1364369478,0,0,0.074074149352,0,0,0,328.4, 0.3, 1.2,0,0,1024,1024,1024,1024,0,0,0,0,0,0,0,100,,,,,,,0,32,9820.1364369478,0,10,Assisted_Takeoff,
3600,2023-10-10 00:45:01,38.4981372570452,-112.064417871811,0,,,9820.1364369478,0.656168,0,0.038729331948,0.4013615614,16,5,0,9820.1364369478,0,0,0.074074149352,0,0,0,328.4, 0.3, 1.2,0,0,1024,1024,1024,1024,0,0,0,0,0,0,0,100,,,,,,,0,32,9820.1364369478,0,10,Assisted_Takeoff,
3700,2023-10-10 00:45:01,38.4981372383163,-112.064417864709,0,,,9820.1364369478,0.656168,0,0.044849738968,0.40848754588,16,5,0,9820.1364369478,0,0,0.074074149352,0,0,0,328.4, 0.3, 1.2,0,0,1024,1024,1024,1024,0,0,0,0,0,0,0,100,,,,,,,0,32,9820.1364369478,0,10,Assisted_Takeoff,
3800,2023-10-10 00:45:01,38.4981372641231,-112.064417876632,0,,,9820.1364369478,0.656168,0,0.036717192776,0.41850066956,16,5,0,9820.1364369478,0,0,0.074074149352,0,0,0,328.4, 0.3, 1.2,0,0,1024,1024,1024,1024,0,0,0,0,0,0,0,100,,,,,,,0,32,9820.1364369478,0,10,Assisted_Takeoff,
3900,2023-10-10 00:45:01,38.4981372466701,-112.064417871744,0,,,9820.1364369478,0.656168,0,0.042360237576,0.42501969864,16,5,0,9820.1364369478,0,0,0.074074149352,0,0,0,328.4, 0.3, 1.2,0,0,1024,1024,1207,1024,0,0,28,0,0,0,0,100,,,,,,,0,32,9820.1364369478,0,10,Assisted_Takeoff,
4000,2023-10-10 00:45:01,38.4981372747101,-112.064417878186,0,,,9820.1364369478,0.656168,0,0.033289371144,0.43541339976,16,5,0,9820.1364369478,0,0,0.074074149352,0,0,0,328.4, 0.3, 1.2,0,0,1024,1024,1384,1024,0,0,55,0,0,0,0,100,,,,,,,0,32,9820.1364369478,0,10,Assisted_Takeoff,
4100,2023-10-10 00:45:01,38.4981372603216,-112.064417873033,0,,,9820.1364369478,0.656168,0,0.037693242676,0.44086615584,16,5,0,9820.1364369478,0,0,0.074074149352,0,0,0,328.4, 0.3, 1.2,0,0,1024,1024,1558,1024,0,0,81,0,0,0,0,100,,,,,,,0,32,9820.1364369478,0,10,Assisted_Takeoff,
4200,2023-10-10 00:45:02,38.4981372804988,-112.064417880984,0,,,9820.1364369478,0.656168,0,0.0316999025892,0.44856956816,16,5,0,9820.1364369478,0,0,0.074074149352,0,0,0,328.4, 0.3, 1.2,0,0,1024,1024,1684,1024,0,0,100,0,0,0,0,100,,,,,,,0,32,9820.1364369478,0,10,Assisted_Takeoff,
4300,2023-10-10 00:45:02,38.4981372666492,-112.06441787403,0,,,9820.1364369478,0.656168,0,0.035598098252,0.45399935836,16,5,0,9820.1364369478,0,0,0.074074149352,0,0,0,328.4, 0.3, 1.2,0,0,1024,1024,1684,1024,0,0,100,0,0,0,0,100,,,,,,,0,32,9820.1364369478,0,10,Assisted_Takeoff,
4400,2023-10-10 00:45:02,38.4981372878894,-112.064417881024,0,,,9820.1364369478,0.656168,0,0.0293050206228,0.46200132712,16,5,0,9820.1364369478,0,0,0.074074149352,0,0,0,328.4, 0.4, 1.2,0,0,1024,1024,1684,1024,0,0,100,0,0,0,0,100,,,,,,,0,32,9820.1364369478,0,10,Assisted_Takeoff,
4500,2023-10-10 00:45:02,38.4981372750562,-112.064417875361,0,,,9820.1364369478,0.656168,0,0.032863518112,0.46695539552,16,5,0,9820.1364369478,0,0,0.074074149352,0,0,0,328.4, 0.4, 1.2,0,0,1024,1024,1684,1024,0,0,100,0,0,0,0,100,,,,,,,0,32,9820.1364369478,0,10,Assisted_Takeoff,
4600,2023-10-10 00:45:02,38.4981371323864,-112.064417875228,0,,,9820.1364369478,0.656168,0,0.083439635216,0.51900920296,16,5,0,9820.1364369478,0,0,0.083439635216,0,0,0,328.4, 0.6, 1.2,0,0,1024,1024,1684,1024,0,0,100,0,0,0,0,100,,,,,,,0,32,9820.1364369478,0,10,Assisted_Takeoff,
4700,2023-10-10 00:45:02,38.4981371001344,-112.064417866527,0,,,9820.1364369478,0.656168,0,0.094807417732,0.53103348156,16,5,0,9820.1364369478,0,0,0.094807417732,0,0,0,328.4, 0.8, 1.1,0,0,1024,1024,1684,1024,0,0,100,0,0,0,0,100,,,,,,,0,32,9820.1364369478,0,10,Assisted_Takeoff,
4800,2023-10-10 00:45:02,38.4981371219647,-112.064417871291,0,,,9820.1364369478,0.656168,0,0.08705216814,0.53911419048,16,5,0,9820.1364369478,0,0,0.094807417732,0,0,0,328.4, 1.2, 1.1,0,0,1024,1024,1684,1024,0,0,100,0,0,0,0,100,,,,,,,0,32,9820.1364369478,0,10,Assisted_Takeoff,
4900,2023-10-10 00:45:02,38.4981370715868,-112.064417856008,0,,,9820.1364369478,0.656168,0,0.104937339316,0.5580052672,16,5,0,9820.1364369478,0,0,0.104937339316,0,0,0,328.4, 1.9, 1,0,0,1024,1024,1684,1024,0,0,100,0,0,0,0,100,,,,,,,0,32,9820.1364369478,0,10,Assisted_Takeoff,
5000,2023-10-10 00:45:02,38.4981370563647,-112.064417838183,0,,,9820.1364369478,0.656168,0,0.110286092768,0.56553807584,16,5,0,9820.1364369478,0,0,0.110286092768,0,0,0,328.4, 3.2, 1,0,0,1024,1024,1684,1024,0,0,100,0,0,0,0,100,,,,,,,0,32,9820.1364369478,0,10,Assisted_Takeoff,
5100,2023-10-10 00:45:03,38.4981369495858,-112.064417762786,0,,,9820.1364369478,0.656168,0.223694,0.150548561248,0.61004923212,16,5,0,9820.1364369478,0,0.223694,0.150548561248,-0.223694,0,-0.223694,327.9, 4.7, 1.1,0,0,1024,1024,1684,1024,0,0,100,0,0,0,0,100,,,,,,,0,32,9820.1364369478,0,10,Assisted_Takeoff,
5200,2023-10-10 00:45:03,38.4981368537656,-112.064417484831,0,,,9820.1364369478,0.656168,0.223694,0.209223103808,0.69677823752,16,5,0,9820.1364369478,0,0.223694,0.209223103808,-0.447388,0.223694,-0.447388,326.9, 6.1, 1.2,0,0,1024,1024,1684,1024,0,0,100,0,0,0,0,100,,,,,,,0,32,9820.1364369478,0,6,P-GPS,
5300,2023-10-10 00:45:03,38.4981366025319,-112.064417241185,0,,,9820.1364369478,0.984252,0.8052984,0.323405850244,0.81185041968,16,5,0,9820.1364369478,0,0.8052984,0.323405850244,-0.671082,0.447388,-0.894776,326.1, 5.3, 1.5,0,0,1024,1024,1684,1024,0,0,100,0,0,0,0,100,,,,,,,0,32,9820.1364369478,0,6,P-GPS,
5400,2023-10-10 00:45:03,38.4981362642317,-112.064416995892,0.328084,,,9820.4645209478,0.984252,0.9395148,0.46526904376,0.95376971556,16,5,0,9820.4645209478,0.328084,0.9395148,0.46526904376,-0.671082,0.671082,-1.342164,325.6, 2.4, 1.8,0,0,1024,1024,1684,1024,0,0,100,0,0,0,0,100,,,,,,,0,32,9820.4645209478,0.328084,6,P-GPS,
5500,2023-10-10 00:45:03,38.4981359134381,-112.064416606341,0.328084,,,9820.4645209478,1.312336,0.9395148,0.6329068444,1.12333665012,16,5,0,9820.4645209478,0.328084,0.9395148,0.6329068444,-0.671082,0.671082,-1.789552,325.3, -1.4, 1,0,0,1024,1024,1684,1024,0,0,100,0,0,0,0,100,,,,,,,0,32,9820.4645209478,0.328084,6,P-GPS,
5600,2023-10-10 00:45:03,38.4981355135085,-112.064416094364,0.656168,,,9820.7926049478,1.64042,0.9395148,0.83633860944,1.32988521316,16,5,0,9820.7926049478,0.656168,0.9395148,0.83633860944,-0.671082,0.671082,-2.23694,325.3, -4.2, -0.2,0,0,1024,1024,1684,1024,0,0,100,0,0,0,0,100,,,,,,,0,32,9820.7926049478,0.656168,6,P-GPS,
5700,2023-10-10 00:45:03,38.4981352348824,-112.064415766357,0.984252,,,9821.1206889478,2.296588,0.6263432,0.97385501804,1.4681102832,16,5,0,9821.1206889478,0.984252,0.9395148,0.97385501804,-0.447388,0.447388,-2.684328,325.4, -5.2, -1.2,0,0,1024,1024,1684,1024,0,0,100,0,0,0,0,100,,,,,,,0,32,9821.1206889478,0.984252,6,P-GPS,
5800,2023-10-10 00:45:03,38.4981351456662,-112.064415541311,1.64042,,,9821.7768569478,2.624672,0.4921268,1.0391568574,1.54014440624,16,5,0,9821.7768569478,1.64042,0.9395148,1.0391568574,-0.447388,0.223694,-3.131716,325.5, -4.5, -1.1,0,0,1024,1024,1684,1024,0,0,100,0,0,0,0,100,,,,,,,0,32,9821.7768569478,1.64042,6,P-GPS,
5900,2023-10-10 00:45:03,38.4981349776946,-112.064415420964,1.968504,,,9822.1049409478,3.28084,0.223694,1.10847116408,1.61040687568,16,5,0,9822.1049409478,1.968504,0.9395148,1.10847116408,-0.223694,0,-3.802798,325.5, -2.7, 0,0,0,1024,1024,1684,1012,0,0,100,-2,0,0,0,100,,,,,,,0,32,9822.1049409478,1.968504,6,P-GPS,
6000,2023-10-10 00:45:03,38.4981348005755,-112.064415564368,2.624672,,,9822.7611089478,3.608924,0.223694,1.1359744458,1.6869095028,16,5,0,9822.7611089478,2.624672,0.9395148,1.1359744458,-0.223694,0,-4.250186,325.6, -0.7, 1.2,0,0,1024,1024,1684,956,0,0,100,-10,0,0,0,100,,,,,,,0,32,9822.7611089478,2.624672,6,P-GPS,
6100,2023-10-10 00:45:03,38.4981346847169,-112.064415497078,3.28084,,,9823.4172769478,4.265092,0.223694,1.18168638952,1.73334323132,16,5,0,9823.4172769478,3.28084,0.9395148,1.18168638952,-0.223694,0,-4.921268,325.8, 0.7, 2,0,0,1024,1024,1684,834,0,0,100,-29,0,0,0,100,,,,,,,0,32,9823.4172769478,3.28084,6,P-GPS,
6200,2023-10-10 00:45:04,38.4981348703041,-112.064415250296,4.265092,,,9824.4015289478,5.249344,0.3131716,1.16952759648,1.8310696124,16,5,0,9824.4015289478,4.265092,0.9395148,1.18168638952,-0.223694,0.223694,-5.59235,325.4, 1.1, 2,0,0,1024,1024,1684,750,0,0,100,-42,0,0,0,100,,,,,,,0,32,9824.4015289478,4.265092,6,P-GPS,
6300,2023-10-10 00:45:04,38.4981347730866,-112.064415073089,4.92126,,,9825.0576969478,5.905512,0.3131716,1.22907812332,1.89286095296,16,5,0,9825.0576969478,4.92126,0.9395148,1.22907812332,-0.223694,0.223694,-6.263432,324.5, 0.5, 1.5,0,0,1024,1024,1684,636,0,0,100,-59,0,0,0,100,,,,,,,0,32,9825.0576969478,4.92126,6,P-GPS,
6400,2023-10-10 00:45:04,38.498134642806,-112.064414843532,5.905512,,,9826.0419489478,6.889764,0.3131716,1.30772970064,1.97382880332,16,5,0,9826.0419489478,5.905512,0.9395148,1.30772970064,-0.223694,0.223694,-6.934514,322.7, -0.4, 0.9,0,0,1024,1024,1684,561,0,0,100,-70,0,0,0,100,,,,,,,0,32,9826.0419489478,5.905512,6,P-GPS,
6500,2023-10-10 00:45:04,38.4981345440737,-112.064414624111,6.889764,,,9827.0262009478,7.874016,0.3131716,1.37611881044,2.04610242768,16,5,0,9827.0262009478,6.889764,0.9395148,1.37611881044,-0.223694,0.223694,-7.605596,319.5, -1.3, 0.7,0,0,1024,1024,1684,451,0,0,100,-87,0,0,0,100,,,,,,,0,32,9827.0262009478,6.889764,6,P-GPS,
6600,2023-10-10 00:45:04,38.4981342760012,-112.064414397281,8.2021,,,9828.3385369478,8.858268,0.3131716,1.49231632072,2.16340886188,16,5,0,9828.3385369478,8.2021,0.9395148,1.49231632072,-0.223694,0.223694,-8.276678,314.9, -1.8, 1,0,0,1024,1024,1684,370,0,0,100,-99,0,0,0,100,,,,,,,0,32,9828.3385369478,8.2021,6,P-GPS,
6700,2023-10-10 00:45:04,38.4981341993404,-112.064414204888,9.514436,,,9829.6508729478,10.170604,0.223694,1.54967524644,2.22505584548,16,5,0,9829.6508729478,9.514436,0.9395148,1.54967524644,0,0.223694,-8.94776,309, -1.9, 1.4,0,0,1024,1024,1619,364,0,0,90,-100,0,0,0,100,,,,,,,0,32,9829.6508729478,9.514436,6,P-GPS,
6800,2023-10-10 00:45:04,38.4981340828088,-112.064414207084,10.826772,,,9830.9632089478,11.154856,0.223694,1.58114178288,2.26757553188,16,5,0,9830.9632089478,10.826772,0.9395148,1.58114178288,0,0.223694,-9.618842,301.8, -1.8, 1.6,0,0,1024,1024,1596,364,0,0,87,-100,0,0,0,100,,,,,,,0,32,9830.9632089478,10.826772,6,P-GPS,
6900,2023-10-10 00:45:04,38.498134061066,-112.064414050273,12.139108,,,9832.2755449478,12.467192,0.223694,1.61670936932,2.31305125512,16,5,0,9832.2755449478,12.139108,0.9395148,1.61670936932,0,0.223694,-10.06623,293.5, -1.7, 1.3,0,0,1024,1024,1574,364,0,0,83,-100,0,0,0,100,,,,,,,0,32,9832.2755449478,12.139108,6,P-GPS,
7000,2023-10-10 00:45:04,38.4981340776427,-112.064413832272,13.779528,,,9833.9159649478,13.451444,0,1.65455713956,2.3755906272,16,5,0,9833.9159649478,13.779528,0.9395148,1.65455713956,0,0,-10.289924,284.7, -2.1, 0.6,0,0,1024,1024,1540,364,0,0,78,-100,0,0,0,100,,,,,,,0,32,9833.9159649478,13.779528,6,P-GPS,
7100,2023-10-10 00:45:04,38.4981340856154,-112.064413707485,15.419948,,,9835.5563849478,14.435696,0,1.6772802374,2.41134194068,17,5,0,9835.5563849478,15.419948,0.9395148,1.6772802374,0,0,-10.513618,275.6, -2.6, 0.2,0,0,1024,1024,1512,364,0,0,74,-100,0,0,0,100,,,,,,,0,32,9835.5563849478,15.419948,6,P-GPS,
7200,2023-10-10 00:45:05,38.4981340154091,-112.064413168654,17.060368,,,9837.1968049478,16.076116,0,1.80588260372,2.56731963596,17,5,0,9837.1968049478,17.060368,0.9395148,1.80588260372,0,0,-10.513618,266.4, -2.9, 0,0,0,1024,1024,1491,364,0,0,71,-100,0,0,0,100,,,,,,,0,32,9837.1968049478,17.060368,6,P-GPS,
7300,2023-10-10 00:45:05,38.4981340041212,-112.064413083983,18.372704,,,9838.5091409478,17.060368,0,1.82653877236,2.59184391496,18,5,0,9838.5091409478,18.372704,0.9395148,1.82653877236,0,0,-10.289924,257.1, -2.9, 0.2,0,0,1024,1024,1490,364,0,0,71,-100,0,0,0,100,,,,,,,0,32,9838.5091409478,18.372704,6,P-GPS,
7400,2023-10-10 00:45:05,38.4981338344334,-112.064413025965,20.013124,,,9840.1495609478,15.748032,0,1.8806431048,2.65593184352,18,5,0,9840.1495609478,20.013124,0.9395148,1.8806431048,0,0,-10.06623,248, -2.4, 0.4,0,0,1024,1024,1486,364,0,0,70,-100,0,0,0,100,,,,,,,0,32,9840.1495609478,20.013124,6,P-GPS,
7500,2023-10-10 00:45:05,38.4981337861961,-112.064412993062,21.32546,,,9841.4618969478,17.060368,0,1.89954402404,2.67588263156,18,5,0,9841.4618969478,21.32546,0.9395148,1.89954402404,0,0,-9.618842,238.8, -1.6, 0.6,0,0,1024,1024,1475,364,0,0,68,-100,0,0,0,100,,,,,,,0,32,9841.4618969478,21.32546,6,P-GPS,
7600,2023-10-10 00:45:05,38.4981337507241,-112.064413350778,22.96588,,,9843.1023169478,18.700788,0,1.8358432346,2.77884195244,18,5,0,9843.1023169478,22.96588,0.9395148,1.89954402404,0,0,-9.171454,229.7, -0.7, 0.6,0,0,1024,1024,1466,364,0,0,67,-100,0,0,0,100,,,,,,,0,32,9843.1023169478,22.96588,6,P-GPS,
7700,2023-10-10 00:45:05,38.4981336964691,-112.064413356832,24.278216,,,9844.4146529478,20.013124,0,1.84889113528,2.79871071948,18,5,0,9844.4146529478,24.278216,0.9395148,1.89954402404,0,0,-8.724066,220.6, -0.1, 0.7,0,0,1024,1024,1468,364,0,0,67,-100,0,0,0,100,,,,,,,0,32,9844.4146529478,24.278216,6,P-GPS,
7800,2023-10-10 00:45:05,38.4981337276345,-112.064413452263,25.262468,,,9845.3989049478,20.997376,0,1.82187669872,2.82823827948,18,5,0,9845.3989049478,25.262468,0.9395148,1.89954402404,0,0,-8.052984,211.6, 0.2, 0.7,0,0,1024,1024,1458,364,0,0,66,-100,0,0,0,100,,,,,,,0,32,9845.3989049478,25.262468,6,P-GPS,
7900,2023-10-10 00:45:05,38.498133696269,-112.064413449657,26.574804,,,9846.7112409478,22.309712,0,1.8307251242,2.83970481528,18,5,0,9846.7112409478,26.574804,0.9395148,1.89954402404,0,0,-7.605596,202.5, 0.5, 0.9,0,0,1024,1024,1446,364,0,0,64,-100,0,0,0,100,,,,,,,0,32,9846.7112409478,26.574804,6,P-GPS,
8000,2023-10-10 00:45:05,38.4981338026384,-112.064413692991,27.559056,,,9847.6954929478,22.96588,0,1.7550689538,2.919291432,18,5,0,9847.6954929478,27.559056,0.9395148,1.89954402404,0,0,-7.158208,193.5, 0.7, 1.1,0,0,1085,1024,1490,364,9,0,71,-100,0,0,0,100,,,,,,,0,32,9847.6954929478,27.559056,6,P-GPS,
8100,2023-10-10 00:45:06,38.4981338200144,-112.064413708649,28.543308,,,9848.6797449478,22.96588,0,1.74737210316,2.9270506186,18,5,0,9848.6797449478,28.543308,0.9395148,1.89954402404,0,0,-6.71082,184.3, 0.9, 1.2,0,0,1108,1024,1398,531,13,0,57,-75,0,0,0,99,,,,,,,0,32,9848.6797449478,28.543308,6,P-GPS,
8200,2023-10-10 00:45:06,38.4981341276461,-112.06441371134,29.52756,,,9849.6639969478,22.96588,0,1.6656168512,3.03929143584,18,5,0,9849.6639969478,29.52756,0.9395148,1.89954402404,0,0,-6.263432,175.2, 0.6, 1.5,0,0,1406,1024,1024,1024,58,0,0,0,0,0,0,99,,,,,,,0,32,9849.6639969478,29.52756,6,P-GPS,
8300,2023-10-10 00:45:06,38.4981342136907,-112.064413748063,30.511812,,,9850.6482489478,22.96588,0,1.63605976364,3.07238854976,19,5,0,9850.6482489478,30.511812,0.9395148,1.89954402404,0,0,-6.039738,168, -0.3, 1.5,0,0,1504,1024,1024,1024,73,0,0,0,0,0,0,99,,,,,,,0,32,9850.6482489478,30.511812,6,P-GPS,
8400,2023-10-10 00:45:06,38.4981341447823,-112.064413969265,31.496064,,,9851.6325009478,22.96588,0,1.60986881792,3.1403708354,19,5,0,9851.6325009478,31.496064,0.9395148,1.89954402404,0,0,-5.59235,164.6, -2.7, 0.5,0,0,1612,1024,1024,1024,89,0,0,0,0,0,0,99,,,,,,,0,32,9851.6325009478,31.496064,6,P-GPS,
8500,2023-10-10 00:45:06,38.4981342019321,-112.064414054145,32.152232,,,9852.2886689478,22.96588,0,1.57807747832,3.1723426212,19,5,0,9852.2886689478,32.152232,0.9395148,1.89954402404,0,0,-4.921268,163.2, -6, -0.6,0,0,1647,1024,1024,1024,94,0,0,0,0,0,0,99,,,,,,,0,32,9852.2886689478,32.152232,6,P-GPS,
8600,2023-10-10 00:45:06,38.4981352762793,-112.064414246835,33.136484,,,9853.2729209478,22.96588,0,1.27491473896,3.5681759672,19,5,0,9853.2729209478,33.136484,0.9395148,1.89954402404,0,0,-4.250186,162.5, -9.2, -1,0,0,1684,1024,1024,1024,100,0,0,0,0,0,0,99,,,,,,,0,32,9853.2729209478,33.136484,6,P-GPS,
8700,2023-10-10 00:45:06,38.4981352979715,-112.064414245251,33.464568,,,9853.6010049478,22.96588,0,1.27057746848,3.5760827916,19,5,0,9853.6010049478,33.464568,0.9395148,1.89954402404,0,0,-3.35541,162.1, -11.2, -0.3,0,0,1684,1024,1024,1024,100,0,0,0,0,0,0,99,,,,,,,0,32,9853.6010049478,33.464568,6,P-GPS,
8800,2023-10-10 00:45:06,38.4981347124251,-112.064414128772,34.120736,,,9854.2571729478,22.96588,0.4921268,1.43194886472,3.7922901476,19,5,0,9854.2571729478,34.120736,0.9395148,1.89954402404,-0.447388,0.223694,-2.460634,161.7, -12.1, 0.9,0,0,1684,1024,1024,1024,100,0,0,0,0,0,0,99,,,,,,,0,32,9854.2571729478,34.120736,6,P-GPS,
8900,2023-10-10 00:45:06,38.498134486649,-112.064414023642,34.44882,,,9854.5852569478,22.96588,0.7158208,1.5102034604,3.8799870008,19,5,0,9854.5852569478,34.44882,0.9395148,1.89954402404,-0.671082,0.223694,-1.789552,161.6, -12.1, 2.1,0,0,1684,1024,1024,937,100,0,0,-13,0,0,0,99,,,,,,,0,32,9854.5852569478,34.44882,6,P-GPS,
9000,2023-10-10 00:45:06,38.4981338539033,-112.06441381493,34.44882,,,9854.5852569478,22.96588,0.9171454,1.71784454316,4.1184056436,19,5,0,9854.5852569478,34.44882,0.9395148,1.89954402404,-0.894776,0.223694,-1.11847,161.5, -11.8, 2.6,0,0,1684,1024,1024,981,100,0,0,-7,0,0,0,99,,,,,,,0,32,9854.5852569478,34.44882,6,P-GPS,
9100,2023-10-10 00:45:07,38.4981333586522,-112.064413657079,34.776904,,,9854.9133409478,22.96588,1.3645334,1.88445872172,4.304626122,19,5,0,9854.9133409478,34.776904,1.3645334,1.89954402404,-1.342164,0.223694,-0.447388,161.3, -11.6, 2.3,0,0,1684,1024,1024,1019,100,0,0,-1,0,0,0,99,,,,,,,0,32,9854.9133409478,34.776904,6,P-GPS,
9200,2023-10-10 00:45:07,38.4981323059683,-112.064413700907,34.776904,,,9854.9133409478,22.96588,1.3645334,2.18861227476,4.6889109112,19,5,0,9854.9133409478,34.776904,1.3645334,2.18861227476,-1.565858,0.447388,0,160.9, -11.6, 1.6,0,0,1684,1024,1024,862,100,0,0,-25,0,0,0,99,,,,,,,0,32,9854.9133409478,34.776904,6,P-GPS,
9300,2023-10-10 00:45:07,38.4981315092669,-112.064413490842,34.776904,,,9854.9133409478,22.96588,2.0579848,2.4680611026,4.9856956976,19,5,0,9854.9133409478,34.776904,2.0579848,2.4680611026,-2.013246,0.447388,0,160.6, -12.1, 1,0,0,1684,1024,1024,1000,100,0,0,-4,0,0,0,99,,,,,,,0,32,9854.9133409478,34.776904,6,P-GPS,
9400,2023-10-10 00:45:07,38.4981302055604,-112.064413382196,34.776904,,,9854.9133409478,22.96588,2.5501116,2.90270350496,5.4623689412,19,5,0,9854.9133409478,34.776904,2.5501116,2.90270350496,-2.460634,0.671082,0.223694,159.9, -12.9, 0.2,0,0,1684,1024,1024,1024,100,0,0,0,0,0,0,99,,,,,,,0,32,9854.9133409478,34.776904,6,P-GPS,
9500,2023-10-10 00:45:07,38.4981290705692,-112.064413045139,34.44882,,,9854.5852569478,22.96588,3.0422384,3.3185040432,5.8875001884,19,5,0,9854.9133409478,34.776904,3.0422384,3.3185040432,-2.908022,0.894776,0.447388,159, -13.6, -0.3,0,0,1684,1024,1024,1024,100,0,0,0,0,0,0,99,,,,,,,0,32,9854.5852569478,34.44882,6,P-GPS,
9600,2023-10-10 00:45:07,38.4981274196199,-112.064412376871,34.44882,,,9854.5852569478,22.96588,3.5343652,3.946686478,6.519357164,19,5,0,9854.9133409478,34.776904,3.5343652,3.946686478,-3.35541,1.11847,0.447388,158.1, -14.1, -0.2,0,0,1684,1024,1024,975,100,0,0,-7,0,0,0,99,,,,,,,0,32,9854.5852569478,34.44882,6,P-GPS,
9700,2023-10-10 00:45:07,38.4981259061293,-112.06441179586,34.44882,,,9854.5852569478,22.96588,4.026492,4.5199804596,7.0959319856,20,5,0,9854.9133409478,34.776904,4.026492,4.5199804596,-3.802798,1.342164,0.447388,157.3, -14.3, -0.2,0,0,1684,1024,1024,1024,100,0,0,0,0,0,0,99,,,,,,,0,32,9854.5852569478,34.44882,6,P-GPS,
9800,2023-10-10 00:45:07,38.4981242521133,-112.06441117548,34.120736,,,9854.2571729478,22.96588,4.5186188,5.145833498,7.7248690136,20,5,0,9854.9133409478,34.776904,4.5186188,5.145833498,-4.250186,1.565858,0.447388,156.6, -14.4, -0.5,0,0,1684,1024,1024,1024,100,0,0,0,0,0,0,99,,,,,,,0,32,9854.2571729478,34.120736,6,P-GPS,
9900,2023-10-10 00:45:07,38.4981223779723,-112.064410349591,34.120736,,,9854.2571729478,22.96588,5.033115,5.8684713164,8.448163,20,5,0,9854.9133409478,34.776904,5.033115,5.8684713164,-4.697574,1.789552,0.447388,155.9, -14.6, -0.6,0,0,1684,1024,1024,1024,100,0,0,0,0,0,0,99,,,,,,,0,32,9854.2571729478,34.120736,6,P-GPS,
10000,2023-10-10 00:45:07,38.4981203454049,-112.064409128553,34.120736,,,9854.2571729478,22.96588,5.5252418,6.6863191116,9.2676184068,20,5,0,9854.9133409478,34.776904,5.5252418,6.6863191116,-5.144962,2.013246,0.223694,155.4, -14.8, -0.3,0,0,1684,1024,1024,1024,100,0,0,0,0,0,0,99,,,,,,,0,32,9854.2571729478,34.120736,6,P-GPS,
10100,2023-10-10 00:45:07,38.4981181145728,-112.064407990736,34.120736,,,9854.2571729478,22.96588,6.0173686,7.562664284,10.1439963876,20,5,0,9854.9133409478,34.776904,6.0173686,7.562664284,-5.59235,2.23694,0.223694,155, -15.1, 0,0,0,1684,1024,1024,1024,100,0,0,0,0,0,0,99,,,,,,,0,32,9854.2571729478,34.120736,6,P-GPS,
10200,2023-10-10 00:45:08,38.4981156765812,-112.064406481099,34.120736,,,9854.2571729478,22.96588,6.5318648,8.5489504048,11.1324478628,20,5,0,9854.9133409478,34.776904,6.5318648,8.5489504048,-6.039738,2.460634,0,154.7, -15.4, 0.4,0,0,1684,1024,1024,1024,100,0,0,0,0,0,0,99,,,,,,,0,32,9854.2571729478,34.120736,6,P-GPS,
10300,2023-10-10 00:45:08,38.4981130686716,-112.06440505425,33.792652,,,9853.9290889478,22.96588,7.1134692,9.5838913828,12.167487266,20,5,0,9854.9133409478,34.776904,7.1134692,9.5838913828,-6.487126,2.908022,0,154.5, -15.7, 0.8,0,0,1684,1024,1024,1024,100,0,0,0,0,0,0,99,,,,,,,0,32,9853.9290889478,33.792652,6,P-GPS,
10400,2023-10-10 00:45:08,38.4981102747692,-112.064403322972,33.792652,,,9853.9290889478,22.96588,7.605596,10.714895356,13.3003941264,20,5,0,9854.9133409478,34.776904,7.605596,10.714895356,-6.934514,3.131716,0,154.4, -16, 1.1,0,0,1684,1024,1024,1024,100,0,0,0,0,0,0,99,,,,,,,0,32,9853.9290889478,33.792652,6,P-GPS,
10500,2023-10-10 00:45:08,38.4981072796682,-112.064401636038,33.792652,,,9853.9290889478,22.96588,8.3214168,11.908957074,14.4946198864,20,5,0,9854.9133409478,34.776904,8.3214168,11.908957074,-7.605596,3.35541,0,154.4, -16.3, 1.1,0,0,1684,1024,1024,1024,100,0,0,0,0,0,0,99,,,,,,,0,32,9853.9290889478,33.792652,6,P-GPS,
10600,2023-10-10 00:45:08,38.4981038944279,-112.064399812465,33.792652,,,9853.9290889478,22.96588,8.8135436,13.2493114476,15.83497426,20,5,0,9854.9133409478,34.776904,8.8135436,13.2493114476,-8.052984,3.579104,0,154.5, -16.7, 1,0,0,1684,1024,1024,1024,100,0,0,0,0,0,0,99,,,,,,,0,32,9853.9290889478,33.792652,6,P-GPS,
10700,2023-10-10 00:45:08,38.4981004902355,-112.064397882476,33.792652,,,9853.9290889478,22.96588,9.3056704,14.6079072916,17.1937669544,20,5,0,9854.9133409478,34.776904,9.3056704,14.6079072916,-8.500372,3.802798,0,154.5, -17, 0.8,0,0,1684,1024,1024,1024,100,0,0,0,0,0,0,99,,,,,,,0,32,9853.9290889478,33.792652,6,P-GPS,
10800,2023-10-10 00:45:08,38.4980970157216,-112.064395942966,33.792652,,,9853.9290889478,22.96588,9.8201666,15.9911750524,18.5771331404,20,5,0,9854.9133409478,34.776904,9.8201666,15.9911750524,-8.94776,4.026492,0,154.5, -17.4, 0.8,0,0,1684,1024,1024,1024,100,0,0,0,0,0,0,99,,,,,,,0,32,9853.9290889478,33.792652,6,P-GPS,
10900,2023-10-10 00:45:08,38.498093224479,-112.064393773058,33.792652,,,9853.9290889478,22.96588,10.3122934,17.5065950484,20.0928156036,20,5,0,9854.9133409478,34.776904,10.3122934,17.5065950484,-9.395148,4.250186,0,154.6, -17.6, 0.8,0,0,1684,1024,1024,1024,100,0,0,0,0,0,0,99,,,,,,,0,32,9853.9290889478,33.792652,6,P-GPS,
11000,2023-10-10 00:45:08,38.49808882233,-112.064391151301,33.792652,,,9853.9290889478,22.96588,11.0057448,19.277723714,21.864830096,20,5,0,9854.9133409478,34.776904,11.0057448,19.277723714,-10.06623,4.47388,0,154.6, -17.8, 0.9,0,0,1684,1024,1024,1024,100,0,0,0,0,0,0,99,,,,,,,0,32,9853.9290889478,33.792652,6,P-GPS,
11100,2023-10-10 00:45:08,38.4980845915011,-112.064388703287,33.792652,,,9853.9290889478,22.96588,11.520241,20.97194949,23.5593511476,20,5,0,9854.9133409478,34.776904,11.520241,20.97194949,-10.513618,4.697574,0,154.6, -17.9, 1.1,0,0,1684,1024,1024,1024,100,0,0,0,0,0,0,99,,,,,,,0,32,9853.9290889478,33.792652,6,P-GPS,
11200,2023-10-10 00:45:09,38.4980803731442,-112.064385994735,34.120736,,,9854.2571729478,22.96588,12.0123678,22.691765818,25.2817921476,20,5,0,9854.9133409478,34.776904,12.0123678,22.691765818,-10.961006,4.921268,0,154.6, -17.9, 1.1,0,0,1684,1024,1024,1024,100,0,0,0,0,0,0,99,,,,,,,0,32,9854.2571729478,34.120736,6,P-GPS,
11300,2023-10-10 00:45:09,38.4980757596301,-112.064383305387,34.120736,,,9854.2571729478,22.96588,12.6163416,24.541667452,27.1319234404,20,5,0,9854.9133409478,34.776904,12.6163416,24.541667452,-11.408394,5.368656,0,154.7, -18, 1.1,0,0,1684,1024,1024,1024,100,0,0,0,0,0,0,99,,,,,,,0,32,9854.2571729478,34.120736,6,P-GPS,
11400,2023-10-10 00:45:09,38.4980707939109,-112.064380392335,34.120736,,,9854.2571729478,22.96588,13.309793,26.5349746024,29.125493058,20,5,0,9854.9133409478,34.776904,13.309793,26.5349746024,-12.079476,5.59235,0,154.7, -18.1, 1,0,0,1684,1024,1024,1024,100,0,0,0,0,0,0,99,,,,,,,0,32,9854.2571729478,34.120736,6,P-GPS,
11500,2023-10-10 00:45:09,38.498065782538,-112.064377457187,34.120736,,,9854.2571729478,22.96588,13.8019198,28.546096714,31.13681202,20,5,0,9854.9133409478,34.776904,13.8019198,28.546096714,-12.526864,5.816044,0,154.6, -18.3, 1,0,0,1684,1024,1024,1024,100,0,0,0,0,0,0,99,,,,,,,0,32,9854.2571729478,34.120736,6,P-GPS,
11600,2023-10-10 00:45:09,38.4980615350797,-112.064374935825,34.120736,,,9854.2571729478,22.96588,14.316416,30.2545613356,32.845473492,20,5,0,9854.9133409478,34.776904,14.316416,30.2545613356,-12.974252,6.039738,0,154.6, -18.4, 1,0,0,1684,1024,1024,1024,100,0,0,0,0,0,0,99,,,,,,,0,32,9854.2571729478,34.120736,6,P-GPS,
11700,2023-10-10 00:45:09,38.4980562329413,-112.064371814654,34.120736,,,9854.2571729478,22.96588,14.316416,32.3842530048,34.97539482,20,5,0,9854.9133409478,34.776904,14.316416,32.3842530048,-13.42164,6.263432,0,154.6, -18.5, 1.2,0,0,1684,1024,1024,1024,100,0,0,0,0,0,0,99,,,,,,,0,32,9854.2571729478,34.120736,6,P-GPS,
11800,2023-10-10 00:45:09,38.4980496609342,-112.064367688297,34.120736,,,9854.2571729478,22.96588,15.3006696,35.05413498,37.646982832,20,5,0,9854.9133409478,34.776904,15.3006696,35.05413498,-13.869028,6.487126,0,154.5, -18.7, 1.4,0,0,1684,1024,1151,1024,100,0,19,0,0,0,0,99,,,,,,,0,32,9854.2571729478,34.120736,6,P-GPS,
11900,2023-10-10 00:45:09,38.4980438874278,-112.064364263943,34.120736,,,9854.2571729478,22.96588,15.8151658,37.375985448,39.969489468,20,5,0,9854.9133409478,34.776904,15.8151658,37.375985448,-14.316416,6.71082,0,154.5, -18.7, 1.5,0,0,1684,1024,1129,1024,100,0,16,0,0,0,0,99,,,,,,,0,32,9854.2571729478,34.120736,6,P-GPS,
12000,2023-10-10 00:45:09,38.4980383394453,-112.064360850759,34.120736,,,9854.2571729478,22.96588,16.3072926,39.622048512,42.2162087,20,5,0,9854.9133409478,34.776904,16.3072926,39.622048512,-14.763804,6.934514,0,154.5, -18.6, 1.6,0,0,1684,1024,1171,1024,100,0,22,0,0,0,0,99,,,,,,,0,32,9854.2571729478,34.120736,6,P-GPS,
12100,2023-10-10 00:45:10,38.4980322130316,-112.064357210359,34.120736,,,9854.2571729478,22.96588,16.8217888,42.086943604,44.681103792,20,5,0,9854.9133409478,34.776904,16.8217888,42.086943604,-15.211192,7.158208,-0.223694,154.5, -18.2, 1.6,0,0,1684,1024,1238,1024,100,0,32,0,0,0,0,99,,,,,,,0,32,9854.2571729478,34.120736,6,P-GPS,
12200,2023-10-10 00:45:10,38.4980253211191,-112.064353176776,34.120736,,,9854.2571729478,22.96588,16.8217888,44.852691724,47.446851912,20,5,0,9854.9133409478,34.776904,16.8217888,44.852691724,-15.882274,7.381902,-0.223694,154.4, -17.9, 1.7,0,0,1684,1024,1267,1024,100,0,37,0,0,0,0,99,,,,,,,0,32,9854.2571729478,34.120736,6,P-GPS,
12300,2023-10-10 00:45:10,38.4980187683874,-112.064349295601,34.44882,,,9854.5852569478,22.96588,18.007367,47.487534328,50.0820226,20,5,0,9854.9133409478,34.776904,18.007367,47.487534328,-16.329662,7.605596,-0.447388,154.4, -17.5, 2,0,0,1684,1024,1269,1024,100,0,37,0,0,0,0,99,,,,,,,0,32,9854.5852569478,34.44882,6,P-GPS,
12400,2023-10-10 00:45:10,38.4980127207619,-112.0643455536,34.44882,,,9854.5852569478,22.96588,18.5218632,49.938321808,52.533466248,20,5,0,9854.9133409478,34.776904,18.5218632,49.938321808,-16.77705,7.82929,-0.894776,154.4, -16.8, 2.3,0,0,1684,1024,1277,1024,100,0,38,0,0,0,0,99,,,,,,,0,32,9854.5852569478,34.44882,6,P-GPS,
12500,2023-10-10 00:45:10,38.4980058474825,-112.0643415068,34.44882,,,9854.5852569478,22.96588,18.5218632,52.699476752,55.294621192,20,5,0,9854.9133409478,34.776904,18.5218632,52.699476752,-17.224438,8.052984,-1.342164,154.5, -16.3, 2.3,0,0,1684,1024,1289,1024,100,0,40,0,0,0,0,99,,,,,,,0,32,9854.5852569478,34.44882,6,P-GPS,
12600,2023-10-10 00:45:10,38.4979981739984,-112.064337225368,34.776904,,,9854.9133409478,22.96588,19.4166392,55.753938792,58.3497394,20,5,0,9854.9133409478,34.776904,19.4166392,55.753938792,-17.671826,8.052984,-1.565858,154.5, -16, 2,0,0,1684,1024,1283,1024,100,0,39,0,0,0,0,99,,,,,,,0,32,9854.9133409478,34.776904,6,P-GPS,
12700,2023-10-10 00:45:10,38.497990909184,-112.064333006592,35.104988,,,9855.2414249478,22.96588,19.9311354,58.665684292,61.261156816,20,5,0,9855.2414249478,35.104988,19.9311354,58.665684292,-18.119214,8.276678,-2.013246,154.6, -16, 1.7,0,0,1684,1024,1268,1024,100,0,37,0,0,0,0,99,,,,,,,0,32,9855.2414249478,35.104988,6,P-GPS,
12800,2023-10-10 00:45:10,38.4979828555365,-112.064328428601,35.433072,,,9855.5695089478,22.96588,19.9311354,61.88156366,64.477036184,20,5,0,9855.5695089478,35.433072,19.9311354,61.88156366,-18.342908,8.500372,-2.23694,154.7, -16.4, 1.4,0,0,1684,1024,1264,1024,100,0,36,0,0,0,0,99,,,,,,,0,32,9855.5695089478,35.433072,6,P-GPS,
12900,2023-10-10 00:45:10,38.4979752281557,-112.064324017093,35.761156,,,9855.8975929478,22.96588,20.7140644,64.9360257,67.531826308,20,5,0,9855.8975929478,35.761156,20.7140644,64.9360257,-18.790296,8.724066,-2.460634,154.7, -17.8, 1.1,0,0,1684,1024,1270,1024,100,0,37,0,0,0,0,99,,,,,,,0,32,9855.8975929478,35.761156,6,P-GPS,
13000,2023-10-10 00:45:10,38.4979687061567,-112.064320211512,36.08924,,,9856.2256769478,22.96588,21.2061912,67.552167516,70.14764004,20,5,0,9856.2256769478,36.08924,21.2061912,67.552167516,-19.237684,8.94776,-2.460634,154.7, -19.7, 0.7,0,0,1684,1024,1274,1024,100,0,38,0,0,0,0,99,,,,,,,0,32,9856.2256769478,36.08924,6,P-GPS,
13100,2023-10-10 00:45:10,38.4979608552813,-112.064315650042,36.417324,,,9856.5537609478,22.96588,21.7206874,70.69882116,73.294293684,20,5,0,9856.5537609478,36.417324,21.7206874,70.69882116,-19.685072,9.171454,-2.684328,154.7, -21.2, 0.7,0,0,1684,1024,1282,1024,100,0,39,0,0,0,0,99,,,,,,,0,32,9856.5537609478,36.417324,6,P-GPS,
13200,2023-10-10 00:45:11,38.4979522203083,-112.064310563519,36.745408,,,9856.8818449478,22.96588,22.2128142,74.167653292,76.7634539,20,5,0,9856.8818449478,36.745408,22.2128142,74.167653292,-20.13246,9.395148,-2.684328,154.6, -21.7, 0.7,0,0,1684,1024,1267,1024,100,0,37,0,0,0,0,99,,,,,,,0,32,9856.8818449478,36.745408,6,P-GPS,
13300,2023-10-10 00:45:11,38.4979439234714,-112.064305703853,37.401576,,,9857.5380129478,22.96588,22.7273104,77.497705892,80.0935065,20,5,0,9857.5380129478,37.401576,22.7273104,77.497705892,-20.579848,9.618842,-2.684328,154.6, -21.3, 1,0,0,1684,1024,1253,1024,100,0,35,0,0,0,0,99,,,,,,,0,32,9857.5380129478,37.401576,6,P-GPS,
13400,2023-10-10 00:45:11,38.4979354649991,-112.064300849702,37.72966,,,9857.8660969478,22.96588,23.2194372,80.8809081,83.476708708,20,5,0,9857.8660969478,37.72966,23.2194372,80.8809081,-21.027236,9.842536,-2.684328,154.6, -20.4, 1.3,0,0,1684,1024,1242,1024,100,0,33,0,0,0,0,99,,,,,,,0,32,9857.8660969478,37.72966,6,P-GPS,
13500,2023-10-10 00:45:11,38.497926829204,-112.064295789745,38.057744,,,9858.1941809478,22.96588,23.6220864,84.34711556,86.942916168,20,5,0,9858.1941809478,38.057744,23.6220864,84.34711556,-21.474624,9.842536,-2.684328,154.6, -19.8, 1.5,0,0,1684,1024,1195,1024,100,0,26,0,0,0,0,99,,,,,,,0,32,9858.1941809478,38.057744,6,P-GPS,
13600,2023-10-10 00:45:11,38.4979180668649,-112.064290658241,38.385828,,,9858.5222649478,22.96588,24.1142132,87.863847956,90.459648564,20,5,0,9858.5222649478,38.385828,24.1142132,87.863847956,-21.922012,10.06623,-2.684328,154.7, -19.7, 1.6,0,0,1684,1024,1140,1024,100,0,18,0,0,0,0,99,,,,,,,0,32,9858.5222649478,38.385828,6,P-GPS,
13700,2023-10-10 00:45:11,38.4979091513848,-112.064285441877,39.041996,,,9859.1784329478,22.96588,24.4273848,91.441275892,94.0370765,21,5,0,9859.1784329478,39.041996,24.4273848,91.441275892,-22.145706,10.289924,-2.460634,154.8, -20.3, 1.4,0,0,1684,1024,1160,1024,100,0,21,0,0,0,0,99,,,,,,,0,32,9859.1784329478,39.041996,6,P-GPS,
13800,2023-10-10 00:45:11,38.4979001630678,-112.064280445379,39.37008,,,9859.5065169478,22.96588,24.6287094,95.017063408,97.613520184,21,5,0,9859.5065169478,39.37008,24.6287094,95.017063408,-22.3694,10.289924,-2.23694,154.9, -21.5, 1,0,0,1684,1024,1125,1024,100,0,15,0,0,0,0,99,,,,,,,0,32,9859.5065169478,39.37008,6,P-GPS,
13900,2023-10-10 00:45:11,38.4978909995858,-112.064275098113,39.698164,,,9859.8346009478,22.96588,25.1208362,98.69258846,101.289045236,21,5,0,9859.8346009478,39.698164,25.1208362,98.69258846,-22.816788,10.513618,-1.789552,155.1, -22.7, 0.8,0,0,1684,1024,1103,1024,100,0,12,0,0,0,0,99,,,,,,,0,32,9859.8346009478,39.698164,6,P-GPS,
14000,2023-10-10 00:45:11,38.4978825038303,-112.064270285003,39.698164,,,9859.8346009478,22.96588,25.612963,102.083008516,104.679465292,21,5,0,9859.8346009478,39.698164,25.612963,102.083008516,-23.264176,10.737312,-1.565858,155, -23.1, 0.8,0,0,1684,1024,1163,1024,100,0,21,0,0,0,0,99,,,,,,,0,32,9859.8346009478,39.698164,6,P-GPS,
14100,2023-10-10 00:45:11,38.4978731308457,-112.064264803048,40.026248,,,9860.1626849478,22.96588,25.9261346,105.844163492,108.440620268,21,5,0,9860.1626849478,40.026248,25.9261346,105.844163492,-23.48787,10.961006,-1.11847,155, -22.9, 0.9,0,0,1684,1024,1149,1024,100,0,19,0,0,0,0,99,,,,,,,0,32,9860.1626849478,40.026248,6,P-GPS,
14200,2023-10-10 00:45:12,38.4978628139607,-112.064258959099,40.026248,,,9860.1626849478,22.96588,26.3287838,109.961289608,112.558074468,21,5,0,9860.1626849478,40.026248,26.3287838,109.961289608,-23.935258,10.961006,-0.894776,154.9, -22.2, 1.3,0,0,1684,1024,1128,1024,100,0,16,0,0,0,0,99,,,,,,,0,32,9860.1626849478,40.026248,6,P-GPS,
14300,2023-10-10 00:45:12,38.4978530940886,-112.064253282531,40.354332,,,9860.4907689478,22.96588,26.619586,113.860567948,116.457024724,21,5,0,9860.4907689478,40.354332,26.619586,113.860567948,-24.158952,11.1847,-0.671082,154.7, -21.1, 1.6,0,0,1684,1024,1024,1024,100,0,0,0,0,0,0,99,,,,,,,0,32,9860.4907689478,40.354332,6,P-GPS,
14400,2023-10-10 00:45:12,38.4978439241502,-112.064247857001,40.354332,,,9860.4907689478,22.96588,27.1117128,117.547247856,120.144032716,21,5,0,9860.4907689478,40.354332,27.1117128,117.547247856,-24.60634,11.408394,-0.671082,154.6, -20.2, 1.7,0,0,1684,1024,1024,1024,100,0,0,0,0,0,0,99,,,,,,,0,32,9860.4907689478,40.354332,6,P-GPS,
14500,2023-10-10 00:45:12,38.4978340309286,-112.064242075242,40.354332,,,9860.4907689478,22.96588,27.3354068,121.516408088,124.113192948,21,5,0,9860.4907689478,40.354332,27.3354068,121.516408088,-24.830034,11.408394,-0.447388,154.6, -20, 1.6,0,0,1684,1024,1024,1024,100,0,0,0,0,0,0,99,,,,,,,0,32,9860.4907689478,40.354332,6,P-GPS,
14600,2023-10-10 00:45:12,38.4978231267239,-112.064235836847,40.682416,,,9860.8188529478,22.96588,27.626209,125.875332112,128.472116972,21,5,0,9860.8188529478,40.682416,27.626209,125.875332112,-25.053728,11.632088,-0.447388,154.6, -20.4, 1.4,0,0,1684,1024,1024,1024,100,0,0,0,0,0,0,99,,,,,,,0,32,9860.8188529478,40.682416,6,P-GPS,
14700,2023-10-10 00:45:12,38.4978129524986,-112.064229897303,40.682416,,,9860.8188529478,22.96588,27.9170112,129.956697072,132.553481932,21,5,0,9860.8188529478,40.682416,27.9170112,129.956697072,-25.277422,11.855782,-0.223694,154.6, -21, 1.3,0,0,1684,1024,1024,1024,100,0,0,0,0,0,0,99,,,,,,,0,32,9860.8188529478,40.682416,6,P-GPS,
14800,2023-10-10 00:45:12,38.497802605643,-112.064224209837,40.682416,,,9860.8188529478,22.96588,28.3196604,134.065293004,136.663062116,21,5,0,9860.8188529478,40.682416,28.3196604,134.065293004,-25.72481,11.855782,0,154.7, -21.3, 1.4,0,0,1684,1024,1024,1069,100,0,0,7,0,0,0,99,,,,,,,0,32,9860.8188529478,40.682416,6,P-GPS,
14900,2023-10-10 00:45:12,38.4977921883309,-112.064218153845,40.682416,,,9860.8188529478,22.96588,28.632832,138.240818072,140.838587184,21,5,0,9860.8188529478,40.682416,28.632832,138.240818072,-25.948504,12.079476,0,154.8, -21.2, 1.6,0,0,1684,1024,1024,1257,100,0,0,35,0,0,0,99,,,,,,,0,32,9860.8188529478,40.682416,6,P-GPS,
15000,2023-10-10 00:45:12,38.4977823661823,-112.064212541787,40.682416,,,9860.8188529478,22.96588,28.9236342,142.166671216,144.764112244,21,5,0,9860.8188529478,40.682416,28.9236342,142.166671216,-26.172198,12.30317,0,154.7, -20.8, 4,0,0,1684,1024,1024,1257,100,0,0,35,0,0,0,99,,,,,,,0,32,9860.8188529478,40.682416,6,P-GPS,
15100,2023-10-10 00:45:12,38.4977717843235,-112.06420639671,40.682416,,,9860.8188529478,22.96588,29.3262834,146.407485,149.004926028,21,5,0,9860.8188529478,40.682416,29.3262834,146.407485,-26.619586,12.30317,0,155, -16.6, 14.1,0,0,1684,1024,1024,1229,100,0,0,31,0,0,0,99,,,,,,,0,32,9860.8188529478,40.682416,6,P-GPS,
15200,2023-10-10 00:45:13,38.4977601781575,-112.064200006503,40.682416,,,9860.8188529478,22.96588,29.5499774,151.017393284,153.615818564,21,5,0,9860.8188529478,40.682416,29.5499774,151.017393284,-27.066974,11.855782,0,157.8, -11.3, 21.6,0,0,1684,1024,1024,1264,100,0,0,36,0,0,0,99,,,,,,,0,32,9860.8188529478,40.682416,6,P-GPS,
15300,2023-10-10 00:45:13,38.4977492370291,-112.064194434359,40.682416,,,9860.8188529478,22.96588,29.415761,155.310372424,157.913062796,21,5,0,9860.8188529478,40.682416,29.5499774,155.310372424,-27.290668,10.961006,0,161.7, -6.4, 25.8,0,0,1684,1024,1024,1221,100,0,0,30,0,0,0,99,,,,,,,0,32,9860.8188529478,40.682416,6,P-GPS,
15400,2023-10-10 00:45:13,38.497737452136,-112.06418899303,40.682416,,,9860.8188529478,22.96588,28.9460036,159.869427688,162.484913336,21,5,0,9860.8188529478,40.682416,29.5499774,159.869427688,-27.290668,9.618842,0,165.4, -2.7, 27.7,0,0,1684,1024,1024,1189,100,0,0,25,0,0,0,99,,,,,,,0,32,9860.8188529478,40.682416,6,P-GPS,
15500,2023-10-10 00:45:13,38.4977264525052,-112.064184561456,40.682416,,,9860.8188529478,22.96588,28.3643992,164.049874016,166.69291872,21,5,0,9860.8188529478,40.682416,29.5499774,164.049874016,-27.066974,8.500372,0,168.3, -0.8, 27.8,0,0,1684,1024,1024,1024,100,0,0,0,0,0,0,99,,,,,,,0,32,9860.8188529478,40.682416,6,P-GPS,
15600,2023-10-10 00:45:13,38.4977168002125,-112.064181963674,40.682416,,,9860.8188529478,22.96588,27.7827948,167.571199588,170.2920002,21,5,0,9860.8188529478,40.682416,29.5499774,167.571199588,-26.84328,7.158208,0,169.3, -2, 26.7,0,0,1684,1024,1024,1024,100,0,0,0,0,0,0,99,,,,,,,0,32,9860.8188529478,40.682416,6,P-GPS,
15700,2023-10-10 00:45:13,38.4977060781944,-112.064178930316,40.682416,,,9860.8188529478,22.96588,27.2459292,171.502958244,174.298562008,21,5,0,9860.8188529478,40.682416,29.5499774,171.502958244,-26.619586,5.816044,0,168.5, -7.7, 21.6,0,0,1684,1024,1024,1024,100,0,0,0,0,0,0,99,,,,,,,0,32,9860.8188529478,40.682416,6,P-GPS,
15800,2023-10-10 00:45:13,38.4976961281145,-112.06417720189,40.682416,,,9860.8188529478,22.96588,27.2459292,175.032814,177.962276036,21,5,0,9860.8188529478,40.682416,29.5499774,175.032814,-26.619586,4.921268,0,167.3, -16.3, 11.1,0,0,1684,1024,1024,1024,100,0,0,0,0,0,0,99,,,,,,,0,32,9860.8188529478,40.682416,6,P-GPS,
15900,2023-10-10 00:45:13,38.4976854249692,-112.064174945281,40.682416,,,9860.8188529478,22.96588,27.2459292,178.879926984,181.919953328,21,5,0,9860.8188529478,40.682416,29.5499774,178.879926984,-26.84328,4.697574,0,167.3, -22, -0.3,0,0,1684,1024,1024,1024,100,0,0,0,0,0,0,99,,,,,,,0,32,9860.8188529478,40.682416,6,P-GPS,
16000,2023-10-10 00:45:13,38.497674534431,-112.064172242286,40.354332,,,9860.4907689478,22.96588,27.738056,182.843509788,185.96785372,21,5,0,9860.8188529478,40.682416,29.5499774,182.843509788,-27.290668,4.921268,0,167.9, -25, -10.1,0,0,1684,1024,1024,1024,100,0,0,0,0,0,0,99,,,,,,,0,32,9860.4907689478,40.354332,6,P-GPS,
16100,2023-10-10 00:45:13,38.4976635044528,-112.064169578987,40.354332,,,9860.4907689478,22.96588,28.297291,186.85368052,190.063326292,21,5,0,9860.8188529478,40.682416,29.5499774,186.85368052,-27.738056,5.59235,0,168, -26.2, -14.2,0,0,1684,1024,1024,1024,100,0,0,0,0,0,0,99,,,,,,,0,32,9860.4907689478,40.354332,6,P-GPS,
16200,2023-10-10 00:45:13,38.4976511872145,-112.064165790961,40.682416,,,9860.8188529478,22.96588,28.297291,191.423234472,194.685373684,21,5,0,9860.8188529478,40.682416,29.5499774,191.423234472,-27.96175,6.487126,0,166.6, -24.7, -10.8,0,0,1684,1024,1024,1024,100,0,0,0,0,0,0,99,,,,,,,0,32,9860.8188529478,40.682416,6,P-GPS,
16300,2023-10-10 00:45:14,38.4976397782032,-112.064162302815,40.682416,,,9860.8188529478,22.96588,29.08022,195.65617424,198.965557548,21,5,0,9860.8188529478,40.682416,29.5499774,195.65617424,-28.185444,7.158208,0,165.1, -21.9, -3.5,0,0,1684,1024,1024,1024,100,0,0,0,0,0,0,99,,,,,,,0,32,9860.8188529478,40.682416,6,P-GPS,
16400,2023-10-10 00:45:14,38.4976299500263,-112.064158610592,40.682416,,,9860.8188529478,22.96588,29.08022,199.3766468,202.703090476,21,5,0,9860.8188529478,40.682416,29.5499774,199.3766468,-28.409138,7.381902,0,164.7, -19.3, 3.2,0,0,1684,1024,1024,1024,100,0,0,0,0,0,0,99,,,,,,,0,32,9860.8188529478,40.682416,6,P-GPS,
16500,2023-10-10 00:45:14,38.4976184755594,-112.06415496627,40.682416,,,9860.8188529478,22.96588,29.5052386,203.651253236,207.017066992,21,5,0,9860.8188529478,40.682416,29.5499774,203.651253236,-28.632832,7.158208,0,165.1, -18, 7.1,0,0,1684,1024,1024,1024,100,0,0,0,0,0,0,99,,,,,,,0,32,9860.8188529478,40.682416,6,P-GPS,
16600,2023-10-10 00:45:14,38.4976051662793,-112.06415113857,40.682416,,,9860.8188529478,22.96588,29.6841938,208.56956048,211.994429356,21,5,0,9860.8188529478,40.682416,29.6841938,208.56956048,-28.856526,6.934514,0,165.8, -18.7, 7.5,0,0,1684,1024,1024,1024,100,0,0,0,0,0,0,99,,,,,,,0,32,9860.8188529478,40.682416,6,P-GPS,
16700,2023-10-10 00:45:14,38.4975933703913,-112.064147700667,40.682416,,,9860.8188529478,22.96588,30.0644736,212.935374268,216.408471492,21,5,0,9860.8188529478,40.682416,30.0644736,212.935374268,-29.303914,6.71082,0,166.6, -19.8, 5.4,0,0,1684,1024,1024,1024,100,0,0,0,0,0,0,99,,,,,,,0,32,9860.8188529478,40.682416,6,P-GPS,
16800,2023-10-10 00:45:14,38.4975822043982,-112.064144919114,40.682416,,,9860.8188529478,22.96588,30.2210594,217.021660488,220.55939026,21,5,0,9860.8188529478,40.682416,30.2210594,217.021660488,-29.527608,6.487126,0,167, -20.9, 2.4,0,0,1684,1024,1024,1024,100,0,0,0,0,0,0,99,,,,,,,0,32,9860.8188529478,40.682416,6,P-GPS,
16900,2023-10-10 00:45:14,38.4975702573559,-112.064141583644,40.682416,,,9860.8188529478,22.96588,30.4447534,221.432749868,225.021004576,21,5,0,9860.8188529478,40.682416,30.4447534,221.432749868,-29.751302,6.487126,0,167.2, -21.4, 0.1,0,0,1684,1024,1024,1024,100,0,0,0,0,0,0,99,,,,,,,0,32,9860.8188529478,40.682416,6,P-GPS,
17000,2023-10-10 00:45:14,38.4975582483175,-112.064138300189,40.682416,,,9860.8188529478,22.96588,30.9368802,225.861883868,229.501647764,21,5,0,9860.8188529478,40.682416,30.9368802,225.861883868,-30.19869,6.71082,0,167.1, -21.4, -1,0,0,1684,1024,1024,1024,100,0,0,0,0,0,0,99,,,,,,,0,32,9860.8188529478,40.682416,6,P-GPS,
17100,2023-10-10 00:45:14,38.4975460973386,-112.064134814539,40.682416,,,9860.8188529478,22.96588,31.205313,230.361884012,234.04528308,21,5,0,9860.8188529478,40.682416,31.205313,230.361884012,-30.422384,6.934514,0,166.8, -20.9, -1.1,0,0,1684,1024,1024,1024,100,0,0,0,0,0,0,99,,,,,,,0,32,9860.8188529478,40.682416,6,P-GPS,
17200,2023-10-10 00:45:15,38.4975325997751,-112.064130914889,40.682416,,,9860.8188529478,22.96588,31.429007,235.365165012,239.094167756,21,5,0,9860.8188529478,40.682416,31.429007,235.365165012,-30.646078,6.934514,0,166.5, -20.3, -0.4,0,0,1684,1024,1024,1024,100,0,0,0,0,0,0,99,,,,,,,0,32,9860.8188529478,40.682416,6,P-GPS,
17300,2023-10-10 00:45:15,38.497520168272,-112.064127246321,40.682416,,,9860.8188529478,22.96588,31.4737458,239.982291144,243.749023548,21,5,0,9860.8188529478,40.682416,31.4737458,239.982291144,-30.646078,7.158208,0,166.2, -19.9, 0.7,0,0,1684,1024,1024,1024,100,0,0,0,0,0,0,99,,,,,,,0,32,9860.8188529478,40.682416,6,P-GPS,
17400,2023-10-10 00:45:15,38.4975086989772,-112.06412379275,40.682416,,,9860.8188529478,22.96588,31.6974398,244.2503359,248.048236284,21,5,0,9860.8188529478,40.682416,31.6974398,244.2503359,-30.869772,7.158208,0,166.1, -19.6, 1.5,0,0,1684,1024,1024,1024,100,0,0,0,0,0,0,99,,,,,,,0,32,9860.8188529478,40.682416,6,P-GPS,
17500,2023-10-10 00:45:15,38.4974962019157,-112.064120083283,40.682416,,,9860.8188529478,22.96588,31.8987644,248.896661508,252.729338796,21,5,0,9860.8188529478,40.682416,31.8987644,248.896661508,-31.093466,7.158208,0,166.3, -19.5, 1.9,0,0,1684,1024,1024,1024,100,0,0,0,0,0,0,99,,,,,,,0,32,9860.8188529478,40.682416,6,P-GPS,
17600,2023-10-10 00:45:15,38.4974824264997,-112.064116135601,40.682416,,,9860.8188529478,22.96588,32.1224584,254.006241724,257.880257596,21,5,0,9860.8188529478,40.682416,32.1224584,254.006241724,-31.31716,7.158208,0,166.3, -19.5, 1.9,0,0,1684,1024,1024,1064,100,0,0,6,0,0,0,99,,,,,,,0,32,9860.8188529478,40.682416,6,P-GPS,
17700,2023-10-10 00:45:15,38.4974696763157,-112.064112366985,40.682416,,,9860.8188529478,22.96588,32.1224584,258.748039776,262.654864048,21,5,0,9860.8188529478,40.682416,32.1224584,258.748039776,-31.31716,7.158208,0,166.5, -19.5, 1.6,0,0,1684,1024,1024,1095,100,0,0,11,0,0,0,99,,,,,,,0,32,9860.8188529478,40.682416,6,P-GPS,
17800,2023-10-10 00:45:15,38.4974570490964,-112.064108785903,40.682416,,,9860.8188529478,22.96588,32.3461524,263.430782708,267.374024304,21,5,0,9860.8188529478,40.682416,32.3461524,263.430782708,-31.540854,7.158208,0,166.5, -19.8, 1.4,0,0,1684,1024,1024,1101,100,0,0,12,0,0,0,99,,,,,,,0,32,9860.8188529478,40.682416,6,P-GPS,
17900,2023-10-10 00:45:15,38.4974441788933,-112.064104975251,40.682416,,,9860.8188529478,22.96588,32.3908912,268.22015294,272.194234432,21,5,0,9860.8188529478,40.682416,32.3908912,268.22015294,-31.540854,7.381902,0,166.4, -20.1, 3.9,0,0,1684,1024,1024,1117,100,0,0,14,0,0,0,99,,,,,,,0,32,9860.8188529478,40.682416,6,P-GPS,
18000,2023-10-10 00:45:15,38.4974312542979,-112.064101244754,40.682416,,,9860.8188529478,22.96588,32.6145852,273.021990364,277.028552172,21,5,0,9860.8188529478,40.682416,32.6145852,273.021990364,-31.764548,7.381902,0,166.3, -19.9, 7.4,0,0,1684,1024,1024,1131,100,0,0,16,0,0,0,99,,,,,,,0,32,9860.8188529478,40.682416,6,P-GPS,
18100,2023-10-10 00:45:15,38.4974182237952,-112.064097509684,40.682416,,,9860.8188529478,22.96588,32.771171,277.861557448,281.900927656,21,5,0,9860.8188529478,40.682416,32.771171,277.861557448,-31.988242,7.158208,0,166.6, -19, 11.8,0,0,1684,1024,1024,1156,100,0,0,20,0,0,0,99,,,,,,,0,32,9860.8188529478,40.682416,6,P-GPS,
18200,2023-10-10 00:45:16,38.497406336557,-112.064094265093,40.682416,,,9860.8188529478,22.96588,32.9053874,282.262476224,286.335639084,21,5,0,9860.8188529478,40.682416,32.9053874,282.262476224,-32.211936,6.71082,0,167.3, -17.6, 16.3,0,0,1684,1024,1024,1070,100,0,0,7,0,0,0,99,,,,,,,0,32,9860.8188529478,40.682416,6,P-GPS,
18300,2023-10-10 00:45:16,38.497393260499,-112.06409101164,40.682416,,,9860.8188529478,22.96588,32.771171,287.075468504,291.196203544,21,5,0,9860.8188529478,40.682416,32.9053874,287.075468504,-32.211936,6.039738,0,168.6, -15.5, 19.8,0,0,1684,1024,1024,1024,100,0,0,0,0,0,0,99,,,,,,,0,32,9860.8188529478,40.682416,6,P-GPS,
18400,2023-10-10 00:45:16,38.4973788734787,-112.064088065572,40.682416,,,9860.8188529478,22.96588,32.883018,292.314313816,296.512148596,21,5,0,9860.8188529478,40.682416,32.9053874,292.314313816,-32.43563,5.368656,0,170, -14.1, 20.8,0,0,1684,1024,1024,1024,100,0,0,0,0,0,0,99,,,,,,,0,32,9860.8188529478,40.682416,6,P-GPS,
18500,2023-10-10 00:45:16,38.4973656177346,-112.064085610925,40.682416,,,9860.8188529478,22.96588,32.7488016,297.120088248,301.398959776,21,5,0,9860.8188529478,40.682416,32.9053874,297.120088248,-32.43563,4.47388,0,170.9, -15.1, 15.3,0,0,1684,1024,1024,1024,100,0,0,0,0,0,0,99,,,,,,,0,32,9860.8188529478,40.682416,6,P-GPS,
18600,2023-10-10 00:45:16,38.4973523358904,-112.064083587563,40.682416,,,9860.8188529478,22.96588,32.6816934,301.898303624,306.279209276,21,5,0,9860.8188529478,40.682416,32.9053874,301.898303624,-32.43563,4.026492,0,171.1, -17.9, 8.7,0,0,1684,1024,1024,1024,100,0,0,0,0,0,0,99,,,,,,,0,32,9860.8188529478,40.682416,6,P-GPS,
18700,2023-10-10 00:45:16,38.4973390289053,-112.064081604181,40.682416,,,9860.8188529478,22.96588,32.883018,306.685049184,311.167332792,21,5,0,9860.8188529478,40.682416,32.9053874,306.685049184,-32.659324,3.802798,0,171.2, -20.9, 1,0,0,1684,1024,1024,1024,100,0,0,0,0,0,0,99,,,,,,,0,32,9860.8188529478,40.682416,6,P-GPS,
18800,2023-10-10 00:45:16,38.497325468181,-112.064079937026,40.354332,,,9860.4907689478,22.96588,33.1290814,311.535114956,316.137805392,21,5,0,9860.8188529478,40.682416,33.1290814,311.535114956,-32.883018,4.026492,0,171.7, -22.7, -6.4,0,0,1684,1024,1024,1024,100,0,0,0,0,0,0,99,,,,,,,0,32,9860.4907689478,40.354332,6,P-GPS,
18900,2023-10-10 00:45:16,38.497311995142,-112.064077754774,40.354332,,,9860.4907689478,22.96588,33.3975142,316.403225348,321.09252996,21,5,0,9860.8188529478,40.682416,33.3975142,316.403225348,-33.106712,4.47388,0,171.6, -23, -8.9,0,0,1684,1024,1024,1024,100,0,0,0,0,0,0,99,,,,,,,0,32,9860.4907689478,40.354332,6,P-GPS,
19000,2023-10-10 00:45:16,38.4972994269733,-112.064075370195,40.354332,,,9860.4907689478,22.96588,33.7330552,320.977372476,325.72835688,21,5,0,9860.8188529478,40.682416,33.7330552,320.977372476,-33.330406,5.144962,0,170.8, -22.1, -6.4,0,0,1684,1024,1024,1024,100,0,0,0,0,0,0,99,,,,,,,0,32,9860.4907689478,40.354332,6,P-GPS,
