time(millisecond),datetime(utc),latitude,longitude,height_above_takeoff(feet),height_above_ground_at_drone_location(feet),ground_elevation_at_drone_location(feet),altitude_above_seaLevel(feet),height_sonar(feet),speed(mph),distance(feet),mileage(feet),satellites,gpslevel,voltage(v),max_altitude(feet),max_ascent(feet),max_speed(mph),max_distance(feet), xSpeed(mph), ySpeed(mph), zSpeed(mph), compass_heading(degrees), pitch(degrees), roll(degrees),isPhoto,isVideo,rc_elevator,rc_aileron,rc_throttle,rc_rudder,rc_elevator(percent),rc_aileron(percent),rc_throttle(percent),rc_rudder(percent),gimbal_heading(degrees),gimbal_pitch(degrees),gimbal_roll(degrees),battery_percent,voltageCell1,voltageCell2,voltageCell3,voltageCell4,voltageCell5,voltageCell6,current(A),battery_temperature(f),altitude(feet),ascent(feet),flycStateRaw,flycState,message
0,2023-10-09 18:18:36,0,0,0,Available with any HD 360 subscription,Available with any HD 360 subscription,9819.9385934375,0.656168,0,0,0,15,2,0,9819.9385934375,0,0,0,0,0,0,318.4, 9.1, 0.2,0,0,364,364,364,1637,-100,-100,-100,93,0,0,0,99,,,,,,,0,32,9819.9385934375,0,6,P-GPS,
100,2023-10-09 18:18:36,0,0,0,,,9819.9385934375,0.656168,0,0,0,15,2,0,9819.9385934375,0,0,0,0,0,0,318.4, 9.1, 0.2,0,0,364,364,364,1639,-100,-100,-100,93,0,0,0,99,,,,,,,0,32,9819.9385934375,0,41,Motors_Started,
200,2023-10-09 18:18:36,0,0,0,,,9819.9385934375,0.656168,0,0,0,15,2,0,9819.9385934375,0,0,0,0,0,0,318.4, 9.1, 0.2,0,0,364,364,364,1641,-100,-100,-100,93,0,0,0,99,,,,,,,0,32,9819.9385934375,0,41,Motors_Started,
300,2023-10-09 18:18:36,0,0,0,,,9819.9385934375,0.656168,0,0,0,15,2,0,9819.9385934375,0,0,0,0,0,0,318.4, 9.1, 0.2,0,0,364,364,364,1642,-100,-100,-100,94,0,0,0,99,,,,,,,0,32,9819.9385934375,0,41,Motors_Started,
400,2023-10-09 18:18:36,0,0,0,,,9819.9385934375,0.656168,0,0,0,15,2,0,9819.9385934375,0,0,0,0,0,0,318.4, 9.1, 0.2,0,0,364,364,364,1646,-100,-100,-100,94,0,0,0,99,,,,,,,0,32,9819.9385934375,0,41,Motors_Started,
500,2023-10-09 18:18:36,0,0,0,,,9819.9385934375,0.656168,0,0,0,15,2,0,9819.9385934375,0,0,0,0,0,0,318.4, 9.1, 0.2,0,0,364,364,364,1649,-100,-100,-100,95,0,0,0,99,,,,,,,0,32,9819.9385934375,0,41,Motors_Started,
600,2023-10-09 18:18:36,0,0,0,,,9819.9385934375,0.656168,0,0,0,15,2,0,9819.9385934375,0,0,0,0,0,0,318.4, 9, 0.2,0,0,364,364,367,1623,-100,-100,-100,91,0,0,0,99,,,,,,,0,32,9819.9385934375,0,41,Motors_Started,
700,2023-10-09 18:18:36,0,0,0,,,9819.9385934375,0.656168,0,0,0,15,2,0,9819.9385934375,0,0,0,0,0,0,318.3, 9.1, 0.2,0,0,924,933,1024,1024,-15,-14,0,0,0,0,0,99,,,,,,,0,32,9819.9385934375,0,41,Motors_Started,"Setting new Return-To-Home altitude to 90m (295 ft). Data Recorder File Index is 17. Setting new Maximum Flight Altitude to 120m (394 ft)"
800,2023-10-09 18:18:37,0,0,0,,,9819.9385934375,0.656168,0,0,0,15,2,0,9819.9385934375,0,0,0,0,0,0,318.3, 9, 0.2,0,0,1024,1024,1024,1024,0,0,0,0,0,0,0,99,,,,,,,0,32,9819.9385934375,0,41,Motors_Started,
900,2023-10-09 18:18:37,38.4981183773817,-112.064416847189,0,,,9819.9385934375,0.656168,0,0,0,15,2,0,9819.9385934375,0,0,0,0,0,0,318.4, 9.1, 0.2,0,0,1024,1024,1024,1024,0,0,0,0,0,0,0,99,,,,,,,0,32,9819.9385934375,0,41,Motors_Started,
1000,2023-10-09 18:18:37,38.4981183772664,-112.064416844939,0,,,9819.9385934375,0.656168,0,0.00064378939068,0.00064378939068,15,2,0,9819.9385934375,0,0,0.00064378939068,0,0,0,318.4, 9.2, 0.1,0,0,1024,1024,1024,1024,0,0,0,0,0,0,0,99,,,,,,,0,32,9819.9385934375,0,41,Motors_Started,
1100,2023-10-09 18:18:37,38.4981182138392,-112.064416842854,0,,,9819.9385934375,0.656168,0,0.059681104272,0.060272967808,15,2,0,9819.9385934375,0,0,0.059681104272,0,0,0,318.2, 9.1, 0.1,0,0,1024,1024,1024,1024,0,0,0,0,0,0,0,99,,,,,,,0,32,9819.9385934375,0,41,Motors_Started,
1200,2023-10-09 18:18:37,38.4981181958321,-112.064416840683,0,,,9819.9385934375,0.656168,0,0.066264437816,0.066872049384,15,2,0,9819.9385934375,0,0,0.066264437816,0,0,0,318.2, 9, 0.1,0,0,1024,1024,1024,1024,0,0,0,0,0,0,0,99,,,,,,,0,32,9819.9385934375,0,41,Motors_Started,
1300,2023-10-09 18:18:37,38.4981182329393,-112.064416691634,0,,,9819.9385934375,0.656168,0,0.068921590132,0.111533468136,15,2,0,9819.9385934375,0,0,0.068921590132,0,0,0,318.2, 9, 0.1,0,0,1024,1024,1024,1024,0,0,0,0,0,0,0,99,,,,,,,0,32,9819.9385934375,0,41,Motors_Started,
1400,2023-10-09 18:18:37,38.4981182178861,-112.06441667267,0,,,9819.9385934375,0.656168,0,0.076612863344,0.119246066808,15,2,0,9819.9385934375,0,0,0.076612863344,0,0,0,318.6, 9.1, 0,0,0,1024,1024,1024,1024,0,0,0,0,0,0,0,99,,,,,,,0,32,9819.9385934375,0,41,Motors_Started,
1500,2023-10-09 18:18:37,38.4981182160665,-112.064416705288,0,,,9819.9385934375,0.656168,0,0.071454398612,0.128583665532,15,2,0,9819.9385934375,0,0,0.076612863344,0,0,0,318.6, 9.1, 0,0,0,1024,1024,1024,1024,0,0,0,0,0,0,0,99,,,,,,,0,32,9819.9385934375,0,41,Motors_Started,
1600,2023-10-09 18:18:37,38.4981182013427,-112.064416692258,0,,,9819.9385934375,0.656168,0,0.077989175724,0.13511811456,15,2,0,9819.9385934375,0,0,0.077989175724,0,0,0,318.5, 9.1, 0,0,0,1024,1024,1024,1024,0,0,0,0,0,0,0,99,,,,,,,0,32,9819.9385934375,0,41,Motors_Started,
1700,2023-10-09 18:18:37,38.4981183403705,-112.064416710501,0,,,9819.9385934375,0.656168,0,0.041299870088,0.186109257924,15,2,0,9819.9385934375,0,0,0.077989175724,0,0,0,318.5, 9.1, 0,0,0,1024,1024,1024,1024,0,0,0,0,0,0,0,99,,,,,,,0,32,9819.9385934375,0,41,Motors_Started,
1800,2023-10-09 18:18:38,38.4981183395039,-112.064416700451,0,,,9819.9385934375,0.656168,0,0.044120080152,0.188996397124,15,2,0,9819.9385934375,0,0,0.077989175724,0,0,0,318.5, 9.1, 0,0,0,1024,1024,1024,1024,0,0,0,0,0,0,0,99,,,,,,,0,32,9819.9385934375,0,41,Motors_Started,
1900,2023-10-09 18:18:38,38.4981182637088,-112.064416573617,0,,,9819.9385934375,0.656168,0,0.0884432443,0.2345636558,15,5,0,9819.9385934375,0,0,0.0884432443,0,0,0,318.4, 9.1, 0,0,0,1024,1024,1024,1024,0,0,0,0,0,0,0,99,,,,,,,0,32,9819.9385934375,0,41,Motors_Started,
2000,2023-10-09 18:18:38,38.4981182574541,-112.0644165512,0,,,9819.9385934375,0.656168,0,0.095171919056,0.241358931608,15,5,0,9819.9385934375,0,0,0.095171919056,0,0,0,318.5, 9.1, 0,0,0,1024,1024,1024,1024,0,0,0,0,0,0,0,99,,,,,,,0,32,9819.9385934375,0,41,Motors_Started,
2100,2023-10-09 18:18:38,38.4981182691891,-112.064416431867,0,,,9819.9385934375,0.656168,0,0.124988849144,0.275701452392,15,5,0,9819.9385934375,0,0,0.124988849144,0,0,0,318.5, 9.1, 0,0,0,1024,1024,1024,1024,0,0,0,0,0,0,0,99,,,,,,,0,32,9819.9385934375,0,10,Assisted_Takeoff,
2200,2023-10-09 18:18:38,38.4981182650119,-112.064416399141,0,,,9819.9385934375,0.656168,0,0.134344820572,0.285169628548,15,5,0,9819.9385934375,0,0,0.134344820572,0,0,0,318.4, 9.1, 0,0,0,1024,1024,1024,1024,0,0,0,0,0,0,0,99,,,,,,,0,32,9819.9385934375,0,10,Assisted_Takeoff,
2300,2023-10-09 18:18:38,38.4981182821556,-112.064416451357,0,,,9819.9385934375,0.656168,0,0.118245738692,0.301338264236,15,5,0,9819.9385934375,0,0,0.134344820572,0,0,0,318.3, 9.1, 0,0,0,1024,1024,1024,1024,0,0,0,0,0,0,0,99,,,,,,,0,32,9819.9385934375,0,10,Assisted_Takeoff,
2400,2023-10-09 18:18:38,38.4981182789909,-112.064416423327,0,,,9819.9385934375,0.656168,0,0.12624180194,0.309424878668,15,5,0,9819.9385934375,0,0,0.134344820572,0,0,0,318.3, 9.1, 0,0,0,1024,1024,1024,1024,0,0,0,0,0,0,0,99,,,,,,,0,32,9819.9385934375,0,10,Assisted_Takeoff,
2500,2023-10-09 18:18:38,38.4981182723975,-112.06441631265,0,,,9819.9385934375,0.656168,0,0.157365818684,0.34111877732,15,5,0,9819.9385934375,0,0,0.157365818684,0,0,0,318.3, 9.1, 0,0,0,1024,1024,1024,1024,0,0,0,0,0,0,0,99,,,,,,,0,32,9819.9385934375,0,10,Assisted_Takeoff,
2600,2023-10-09 18:18:38,38.4981182666448,-112.064416274263,0,,,9819.9385934375,0.656168,0,0.168509519828,0.352280195,15,5,0,9819.9385934375,0,0,0.168509519828,0,0,0,318.3, 9.1, 0,0,0,1024,1024,1024,1024,0,0,0,0,0,0,0,99,,,,,,,0,32,9819.9385934375,0,10,Assisted_Takeoff,
2700,2023-10-09 18:18:38,38.4981181100445,-112.0644163383,0,,,9819.9385934375,0.656168,0,0.175009520036,0.4122703544,15,5,0,9819.9385934375,0,0,0.175009520036,0,0,0,318.3, 9.1, 0,0,0,1024,1024,1024,1024,0,0,0,0,0,0,0,99,,,,,,,0,32,9819.9385934375,0,10,Assisted_Takeoff,
2800,2023-10-09 18:18:38,38.4981180907521,-112.064416306982,0,,,9819.9385934375,0.656168,0,0.186359257932,0.42365158836,15,5,0,9819.9385934375,0,0,0.186359257932,0,0,0,318.3, 9.1, 0,0,0,1024,1024,1024,1024,0,0,0,0,0,0,0,99,,,,,,,0,32,9819.9385934375,0,10,Assisted_Takeoff,"Home Point recorded. Return-to-Home Altitude:295.3 ft"
2900,2023-10-09 18:18:39,38.4981181134549,-112.06441620635,0,,,9819.9385934375,0.656168,0,0.206775925252,0.45355316412,15,5,0,9819.9385934375,0,0,0.206775925252,0,0,0,318.3, 9.1, 0,0,0,1024,1024,1024,1024,0,0,0,0,0,0,0,99,,,,,,,0,32,9819.9385934375,0,10,Assisted_Takeoff,
3000,2023-10-09 18:18:39,38.4981180948304,-112.064416166604,0,,,9819.9385934375,0.656168,0,0.21998524326,0.466781511,15,5,0,9819.9385934375,0,0,0.21998524326,0,0,0,318.3, 9.1, 0,0,0,1024,1024,1024,1024,0,0,0,0,0,0,0,99,,,,,,,0,32,9819.9385934375,0,10,Assisted_Takeoff,
3100,2023-10-09 18:18:39,38.4981181234288,-112.064416239028,0,,,9819.9385934375,0.656168,0,0.19682743412,0.48994752224,15,5,0,9819.9385934375,0,0,0.21998524326,0,0,0,318.3, 9, 0,0,0,1024,1024,1024,1024,0,0,0,0,0,0,0,99,,,,,,,0,32,9819.9385934375,0,10,Assisted_Takeoff,
3200,2023-10-09 18:18:39,38.4981181087216,-112.064416208154,0,,,9819.9385934375,0.656168,0,0.207132224476,0.50026576404,15,5,0,9819.9385934375,0,0,0.21998524326,0,0,0,318.2, 9, 0,0,0,1024,1024,1024,1024,0,0,0,0,0,0,0,99,,,,,,,0,32,9819.9385934375,0,10,Assisted_Takeoff,
3300,2023-10-09 18:18:39,38.4981181355665,-112.064416111669,0,,,9819.9385934375,0.656168,0,0.22780020414,0.52950461012,15,5,0,9819.9385934375,0,0,0.22780020414,0,0,0,318.2, 9, 0,0,0,1024,1024,1024,1024,0,0,0,0,0,0,0,99,,,,,,,0,32,9819.9385934375,0,10,Assisted_Takeoff,
3400,2023-10-09 18:18:39,38.4981181215044,-112.064416073605,0,,,9819.9385934375,0.656168,0,0.239808406624,0.54152560788,15,5,0,9819.9385934375,0,0,0.239808406624,0,0,0,318.2, 9, 0,0,0,1024,1024,1024,1024,0,0,0,0,0,0,0,99,,,,,,,0,32,9819.9385934375,0,10,Assisted_Takeoff,
3500,2023-10-09 18:18:39,38.4981181374263,-112.06441613874,0,,,9819.9385934375,0.656168,0,0.2204232354,0.56101051664,15,5,0,9819.9385934375,0,0,0.239808406624,0,0,0,318.2, 9, 0,0,0,1024,1024,1024,1024,0,0,0,0,0,0,0,99,,,,,,,0,32,9819.9385934375,0,10,Assisted_Takeoff,
3600,2023-10-09 18:18:39,38.4981181262569,-112.064416105628,0,,,9819.9385934375,0.656168,0,0.230719167488,0.57130579256,15,5,0,9819.9385934375,0,0,0.239808406624,0,0,0,318.2, 9, 0,0,0,1024,1024,1024,1024,0,0,0,0,0,0,0,99,,,,,,,0,32,9819.9385934375,0,10,Assisted_Takeoff,
3700,2023-10-09 18:18:39,38.4981179824799,-112.064416011119,0,,,9819.9385934375,0.656168,0,0.278840888188,0.6302985766,15,5,0,9819.9385934375,0,0,0.278840888188,0,0,0,318.2, 9, 0,0,0,1024,1024,1024,1024,0,0,0,0,0,0,0,99,,,,,,,0,32,9819.9385934375,0,10,Assisted_Takeoff,
3800,2023-10-09 18:18:40,38.4981179574707,-112.064415971801,0,,,9819.9385934375,0.656168,0,0.293174878148,0.64476380016,15,5,0,9819.9385934375,0,0,0.293174878148,0,0,0,318.2, 9, 0,0,0,1024,1024,1024,1024,0,0,0,0,0,0,0,99,,,,,,,0,32,9819.9385934375,0,10,Assisted_Takeoff,
3900,2023-10-09 18:18:40,38.4981179948572,-112.064415886858,0,,,9819.9385934375,0.656168,0,0.307687345804,0.67259188504,15,5,0,9819.9385934375,0,0,0.307687345804,0,0,0,318.2, 9, 0,0,0,1024,1024,1024,1024,0,0,0,0,0,0,0,99,,,,,,,0,32,9819.9385934375,0,10,Assisted_Takeoff,
4000,2023-10-09 18:18:40,38.4981179739257,-112.0644158399,0,,,9819.9385934375,0.656168,0,0.32310204446,0.68802167556,15,5,0,9819.9385934375,0,0,0.32310204446,0,0,0,318.3, 9, 0,0,0,1024,1024,1024,1024,0,0,0,0,0,0,0,99,,,,,,,0,32,9819.9385934375,0,10,Assisted_Takeoff,
4100,2023-10-09 18:18:40,38.4981180161313,-112.064415919507,0,,,9819.9385934375,0.656168,0,0.295870416292,0.71547902552,15,5,0,9819.9385934375,0,0,0.32310204446,0,0,0,318.3, 9, 0,0,0,1024,1024,1024,1024,0,0,0,0,0,0,0,99,,,,,,,0,32,9819.9385934375,0,10,Assisted_Takeoff,
4200,2023-10-09 18:18:40,38.4981180003238,-112.064415880103,0,,,9819.9385934375,0.656168,0,0.308513133232,0.72812338288,15,5,0,9819.9385934375,0,0,0.32310204446,0,0,0,318.2, 9, 0,0,0,1024,1024,1024,1024,0,0,0,0,0,0,0,99,,,,,,,0,32,9819.9385934375,0,10,Assisted_Takeoff,
4300,2023-10-09 18:18:40,38.4981180330022,-112.064415786665,0,,,9819.9385934375,0.656168,0,0.327855325452,0.75734582476,15,5,0,9819.9385934375,0,0,0.327855325452,0,0,0,318.2, 9, 0,0,0,1024,1024,1024,1024,0,0,0,0,0,0,0,99,,,,,,,0,32,9819.9385934375,0,10,Assisted_Takeoff,
4400,2023-10-09 18:18:40,38.4981180208005,-112.064415742833,0,,,9819.9385934375,0.656168,0,0.34112205816,0.77062994592,15,5,0,9819.9385934375,0,0,0.34112205816,0,0,0,318.2, 9, 0,0,0,1024,1024,1024,1024,0,0,0,0,0,0,0,99,,,,,,,0,32,9819.9385934375,0,10,Assisted_Takeoff,
4500,2023-10-09 18:18:40,38.4981178924383,-112.064415824517,0,,,9819.9385934375,0.656168,0,0.34143373796,0.8229495014,15,5,0,9819.9385934375,0,0,0.34143373796,0,0,0,318.2, 9, 0,0,0,1024,1024,1024,1024,0,0,0,0,0,0,0,99,,,,,,,0,32,9819.9385934375,0,10,Assisted_Takeoff,
4600,2023-10-09 18:18:40,38.4981178693288,-112.064415787716,0,,,9819.9385934375,0.656168,0,0.35479659928,0.83642063044,15,5,0,9819.9385934375,0,0,0.35479659928,0,0,0,318.2, 9, 0,0,0,1024,1024,1024,1024,0,0,0,0,0,0,0,99,,,,,,,0,32,9819.9385934375,0,10,Assisted_Takeoff,
4700,2023-10-09 18:18:40,38.4981178992625,-112.064415708544,0,,,9819.9385934375,0.656168,0,0.36896982808,0.86152889896,15,5,0,9819.9385934375,0,0,0.36896982808,0,0,0,318.2, 9, 0,0,0,1024,1024,1024,1024,0,0,0,0,0,0,0,99,,,,,,,0,32,9819.9385934375,0,10,Assisted_Takeoff,
4800,2023-10-09 18:18:40,38.4981178765947,-112.064415669062,0,,,9819.9385934375,0.656168,0,0.38282153456,0.8755085582,15,5,0,9819.9385934375,0,0,0.38282153456,0,0,0,318.3, 9, 0,0,0,1024,1024,1024,1024,0,0,0,0,0,0,0,99,,,,,,,0,32,9819.9385934375,0,10,Assisted_Takeoff,
4900,2023-10-09 18:18:41,38.4981179129033,-112.064415591893,0,,,9819.9385934375,0.656168,0,0.39647967148,0.90122050128,15,5,0,9819.9385934375,0,0,0.39647967148,0,0,0,318.3, 9, 0,0,0,1024,1024,1024,1024,0,0,0,0,0,0,0,99,,,,,,,0,32,9819.9385934375,0,10,Assisted_Takeoff,
5000,2023-10-09 18:18:41,38.4981178941315,-112.064415549315,0,,,9819.9385934375,0.656168,0,0.4104002756,0.9151739138,15,5,0,9819.9385934375,0,0,0.4104002756,0,0,0,318.3, 9, 0,0,0,1024,1024,1024,1024,0,0,0,0,0,0,0,99,,,,,,,0,32,9819.9385934375,0,10,Assisted_Takeoff,
5100,2023-10-09 18:18:41,38.4981179245273,-112.064415639345,0,,,9819.9385934375,0.656168,0,0.38242455292,0.94317260236,15,5,0,9819.9385934375,0,0,0.4104002756,0,0,0,318.3, 9, 0,0,0,1024,1024,1024,1024,0,0,0,0,0,0,0,99,,,,,,,0,32,9819.9385934375,0,10,Assisted_Takeoff,
5200,2023-10-09 18:18:41,38.4981179091652,-112.064415606489,0,,,9819.9385934375,0.656168,0,0.3933070992,0.9541010804,15,5,0,9819.9385934375,0,0,0.4104002756,0,0,0,318.3, 9, 0,0,0,1024,1024,1024,1024,0,0,0,0,0,0,0,99,,,,,,,0,32,9819.9385934375,0,10,Assisted_Takeoff,
5300,2023-10-09 18:18:41,38.4981179427555,-112.064415517098,0,,,9819.9385934375,0.656168,0,0.41157153548,0.9824147296,15,5,0,9819.9385934375,0,0,0.41157153548,0,0,0,318.3, 9, 0,0,0,1024,1024,1024,1024,0,0,0,0,0,0,0,99,,,,,,,0,32,9819.9385934375,0,10,Assisted_Takeoff,
5400,2023-10-09 18:18:41,38.4981179305322,-112.064415480656,0,,,9819.9385934375,0.656168,0,0.42289043348,0.99373690844,15,5,0,9819.9385934375,0,0,0.42289043348,0,0,0,318.3, 9, 0,0,0,1024,1024,1024,1024,0,0,0,0,0,0,0,99,,,,,,,0,32,9819.9385934375,0,10,Assisted_Takeoff,
5500,2023-10-09 18:18:41,38.4981179532003,-112.064415398991,0,,,9819.9385934375,0.656168,0,0.44153216636,1.01847772288,15,5,0,9819.9385934375,0,0,0.44153216636,0,0,0,318.3, 9, 0,0,0,1024,1024,1024,1024,0,0,0,0,0,0,0,99,,,,,,,0,32,9819.9385934375,0,10,Assisted_Takeoff,
5600,2023-10-09 18:18:41,38.4981179445936,-112.064415356108,0,,,9819.9385934375,0.656168,0,0.45410434524,1.0311187994,15,5,0,9819.9385934375,0,0,0.45410434524,0,0,0,318.2, 9, 0,0,0,1024,1024,1024,1024,0,0,0,0,0,0,0,99,,,,,,,0,32,9819.9385934375,0,10,Assisted_Takeoff,
5700,2023-10-09 18:18:41,38.498117958383,-112.064415287639,0,,,9819.9385934375,0.656168,0,0.47082350588,1.05130580792,15,5,0,9819.9385934375,0,0,0.47082350588,0,0,0,318.3, 9, 0,0,0,1024,1024,1024,1024,0,0,0,0,0,0,0,99,,,,,,,0,32,9819.9385934375,0,10,Assisted_Takeoff,
5800,2023-10-09 18:18:41,38.4981179516088,-112.064415241718,0,,,9819.9385934375,0.656168,0,0.48403216772,1.0646489842,15,5,0,9819.9385934375,0,0,0.48403216772,0,0,0,318.2, 9, 0,0,0,1024,1024,1024,1024,0,0,0,0,0,0,0,99,,,,,,,0,32,9819.9385934375,0,10,Assisted_Takeoff,
5900,2023-10-09 18:18:42,38.4981179627814,-112.064415172374,0,,,9819.9385934375,0.656168,0,0.50158138088,1.08486552028,15,5,0,9819.9385934375,0,0,0.50158138088,0,0,0,318.2, 9, 0,0,0,1024,1024,1024,1024,0,0,0,0,0,0,0,99,,,,,,,0,32,9819.9385934375,0,10,Assisted_Takeoff,
6000,2023-10-09 18:18:42,38.4981179565288,-112.064415123415,0,,,9819.9385934375,0.656168,0,0.51560369104,1.0990321874,15,5,0,9819.9385934375,0,0,0.51560369104,0,0,0,318.2, 9, 0,0,0,1024,1024,1024,1024,0,0,0,0,0,0,0,99,,,,,,,0,32,9819.9385934375,0,10,Assisted_Takeoff,
6100,2023-10-09 18:18:42,38.4981179679841,-112.064415062403,0,,,9819.9385934375,0.656168,0,0.5310695708,1.1169455738,15,5,0,9819.9385934375,0,0,0.5310695708,0,0,0,318.2, 9, 0,0,0,1024,1024,1024,1024,0,0,0,0,0,0,0,99,,,,,,,0,32,9819.9385934375,0,10,Assisted_Takeoff,
6200,2023-10-09 18:18:42,38.498117964754,-112.064415008603,0,,,9819.9385934375,0.656168,0,0.54615159228,1.13235239844,15,5,0,9819.9385934375,0,0,0.54615159228,0,0,0,318.1, 9, 0,0,0,1024,1024,1077,1024,0,0,8,0,0,0,0,99,,,,,,,0,32,9819.9385934375,0,10,Assisted_Takeoff,
6300,2023-10-09 18:18:42,38.4981179683661,-112.064414953504,0,,,9819.9385934375,0.656168,0,0.56093833816,1.14814308136,15,5,0,9819.9385934375,0,0,0.56093833816,0,0,0,318.1, 9, 0,0,0,1024,1024,1401,1024,0,0,57,0,0,0,0,99,,,,,,,0,32,9819.9385934375,0,10,Assisted_Takeoff,
6400,2023-10-09 18:18:42,38.498117965896,-112.064414898654,0,,,9819.9385934375,0.656168,0,0.57628610768,1.1638287774,15,5,0,9819.9385934375,0,0,0.57628610768,0,0,0,318.2, 9, 0,0,0,1024,1024,1432,1024,0,0,62,0,0,0,0,99,,,,,,,0,32,9819.9385934375,0,10,Assisted_Takeoff,
6500,2023-10-09 18:18:42,38.4981179733831,-112.064414845824,0,,,9819.9385934375,0.656168,0,0.59017718424,1.17916014272,15,5,0,9819.9385934375,0,0,0.59017718424,0,0,0,318.2, 9, 0,0,0,1024,1024,1470,1024,0,0,68,0,0,0,0,99,,,,,,,0,32,9819.9385934375,0,10,Assisted_Takeoff,
6600,2023-10-09 18:18:42,38.4981179749305,-112.064414791018,0,,,9819.9385934375,0.656168,0,0.60520343144,1.19481959204,15,5,0,9819.9385934375,0,0,0.60520343144,0,0,0,318.2, 8.9, 0,0,0,1024,1024,1550,1024,0,0,80,0,0,0,0,99,,,,,,,0,32,9819.9385934375,0,10,Assisted_Takeoff,
6700,2023-10-09 18:18:42,38.4981179756706,-112.064414905936,0,,,9819.9385934375,0.656168,0,0.57335631756,1.22763455372,15,5,0,9819.9385934375,0,0,0.60520343144,0,0,0,318.2, 8.8, 0,0,0,1024,1024,1684,1024,0,0,100,0,0,0,0,99,,,,,,,0,32,9819.9385934375,0,10,Assisted_Takeoff,
6800,2023-10-09 18:18:42,38.4981179680321,-112.064414862518,0,,,9819.9385934375,0.656168,0,0.5860564492,1.24034124704,15,5,0,9819.9385934375,0,0,0.60520343144,0,0,0,318.2, 9, 0,0,0,1024,1024,1684,1024,0,0,100,0,0,0,0,99,,,,,,,0,32,9819.9385934375,0,10,Assisted_Takeoff,
6900,2023-10-09 18:18:43,38.4981179630492,-112.064414792578,0,,,9819.9385934375,0.656168,0,0.6058399144,1.26039374112,15,5,0,9819.9385934375,0,0,0.6058399144,0,0,0,318.2, 9.3, 0,0,0,1024,1024,1684,1024,0,0,100,0,0,0,0,99,,,,,,,0,32,9819.9385934375,0,10,Assisted_Takeoff,
7000,2023-10-09 18:18:43,38.4981179427613,-112.06441474417,0,,,9819.9385934375,0.656168,0,0.62108269704,1.27607287548,15,5,0,9819.9385934375,0,0,0.62108269704,0,0,0,318.1, 9.6, -0.1,0,0,1024,1024,1684,1024,0,0,100,0,0,0,0,99,,,,,,,0,32,9819.9385934375,0,10,Assisted_Takeoff,
7100,2023-10-09 18:18:43,38.4981179132789,-112.064414657674,0,,,9819.9385934375,0.656168,0,0.64772311784,1.30301513356,15,5,0,9819.9385934375,0,0,0.64772311784,0,0,0,318, 10.2, -0.2,0,0,1024,1024,1684,1024,0,0,100,0,0,0,0,99,,,,,,,0,32,9819.9385934375,0,10,Assisted_Takeoff,
7200,2023-10-09 18:18:43,38.4981178653356,-112.064414563052,0,,,9819.9385934375,0.656168,0,0.6784449036,1.33520017396,15,5,0,9819.9385934375,0,0,0.6784449036,0,0,0,317.9, 11.4, -0.2,0,0,1024,1024,1684,1024,0,0,100,0,0,0,0,99,,,,,,,0,32,9819.9385934375,0,10,Assisted_Takeoff,
7300,2023-10-09 18:18:43,38.4981178032049,-112.064414416908,0,,,9819.9385934375,0.656168,0,0.72487535128,1.38269033296,15,5,0,9819.9385934375,0,0,0.72487535128,-0.223694,0.223694,0,317.3, 13.1, -0.1,0,0,1024,1024,1684,1024,0,0,100,0,0,0,0,99,,,,,,,0,32,9819.9385934375,0,10,Assisted_Takeoff,
7400,2023-10-09 18:18:43,38.4981176064761,-112.064414163509,0,,,9819.9385934375,0.656168,0.6263432,0.8162893962,1.48460634672,15,5,0,9819.9385934375,0,0.6263432,0.8162893962,-0.447388,0.447388,-0.223694,316.1, 14.3, 0,0,0,1024,1024,1684,1024,0,0,100,0,0,0,0,99,,,,,,,0,32,9819.9385934375,0,10,Assisted_Takeoff,
7500,2023-10-09 18:18:43,38.4981171312764,-112.064413905262,0,,,9819.9385934375,0.656168,1.11847,0.95518047676,1.6730151454,15,5,0,9819.9385934375,0,1.11847,0.95518047676,-0.894776,0.671082,-0.447388,315.1, 13.2, 0.9,0,0,1024,1024,1684,1024,0,0,100,0,0,0,0,99,,,,,,,0,32,9819.9385934375,0,6,P-GPS,
7600,2023-10-09 18:18:43,38.4981165888934,-112.064413292179,0,,,9819.9385934375,0.656168,1.7448132,1.2067421646,1.9372211906,15,5,0,9819.9385934375,0,1.7448132,1.2067421646,-1.342164,1.11847,-0.671082,314.7, 7.5, 1.8,0,0,1024,1024,1684,1024,0,0,100,0,0,0,0,99,,,,,,,0,32,9819.9385934375,0,6,P-GPS,
7700,2023-10-09 18:18:43,38.4981159205718,-112.06441235866,0.328084,,,9820.2666774375,0.984252,1.7448132,1.5640092364,2.29848432552,15,5,0,9820.2666774375,0.328084,1.7448132,1.5640092364,-1.565858,1.342164,-1.11847,314.5, -0.3, 1.9,0,0,1024,1024,1684,1024,0,0,100,0,0,0,0,99,,,,,,,0,32,9820.2666774375,0.328084,6,P-GPS,
7800,2023-10-09 18:18:43,38.4981152899624,-112.064411571095,0.328084,,,9820.2666774375,1.312336,1.901399,1.8811024224,2.6202100576,15,5,0,9820.2666774375,0.328084,1.901399,1.8811024224,-1.342164,1.342164,-1.565858,314.5, -7.4, 1.9,0,0,1024,1024,1684,1024,0,0,100,0,0,0,0,99,,,,,,,0,32,9820.2666774375,0.328084,6,P-GPS,
7900,2023-10-09 18:18:44,38.498114694961,-112.064410891604,0.656168,,,9820.5947614375,1.64042,1.5882274,2.1672572872,2.91136492256,15,5,0,9820.5947614375,0.656168,1.901399,2.1672572872,-1.11847,1.11847,-2.013246,314.5, -11.3, 1,0,0,1024,1024,1684,1024,0,0,100,0,0,0,0,99,,,,,,,0,32,9820.5947614375,0.656168,6,P-GPS,
8000,2023-10-09 18:18:44,38.4981143088091,-112.064410405907,0.984252,,,9820.9228454375,1.968504,0.9395148,2.36354666356,3.10905849844,15,5,0,9820.9228454375,0.984252,1.901399,2.36354666356,-0.671082,0.671082,-2.460634,314.6, -10.3, 0.3,0,0,1024,1024,1684,1024,0,0,100,0,0,0,0,99,,,,,,,0,32,9820.9228454375,0.984252,6,P-GPS,
8100,2023-10-09 18:18:44,38.498113787921,-112.064409976076,1.312336,,,9821.2509294375,2.624672,0.9395148,2.57938328464,3.335301944,15,5,0,9821.2509294375,1.312336,1.901399,2.57938328464,-0.447388,0.223694,-2.908022,314.5, -6.2, 0.3,0,0,1024,1024,1684,1024,0,0,100,0,0,0,0,99,,,,,,,0,32,9821.2509294375,1.312336,6,P-GPS,
8200,2023-10-09 18:18:44,38.4981135530821,-112.06440978226,1.968504,,,9821.9070974375,2.952756,0.4921268,2.67726058436,3.4373032596,15,5,0,9821.9070974375,1.968504,1.901399,2.67726058436,-0.447388,0.223694,-3.579104,314.5, -1.2, 0.8,0,0,1024,1024,1684,1024,0,0,100,0,0,0,0,99,,,,,,,0,32,9821.9070974375,1.968504,6,P-GPS,
8300,2023-10-09 18:18:44,38.4981137736585,-112.064409868757,2.296588,,,9822.2351814375,3.608924,0.4921268,2.6061188498,3.521489614,15,5,0,9822.2351814375,2.296588,1.901399,2.67726058436,-0.447388,0.223694,-4.026492,314.7, 2, 1.5,0,0,1024,1024,1684,1024,0,0,100,0,0,0,0,99,,,,,,,0,32,9822.2351814375,2.296588,6,P-GPS,
8400,2023-10-09 18:18:44,38.4981135406866,-112.064409656703,2.952756,,,9822.8913494375,4.265092,0.4921268,2.70732292128,3.625820326,15,5,0,9822.8913494375,2.952756,1.901399,2.70732292128,-0.447388,0.223694,-4.697574,314.8, 2.1, 2.1,0,0,1024,1024,1684,1024,0,0,100,0,0,0,0,99,,,,,,,0,32,9822.8913494375,2.952756,6,P-GPS,
8500,2023-10-09 18:18:44,38.498112969574,-112.064409269151,3.937008,,,9823.8756014375,4.92126,0.8052984,2.92832686536,3.8617783388,15,5,0,9823.8756014375,3.937008,1.901399,2.92832686536,-0.671082,0.447388,-5.368656,314.9, 0.1, 2,0,0,1024,1024,1684,1024,0,0,100,0,0,0,0,99,,,,,,,0,32,9823.8756014375,3.937008,6,P-GPS,
8600,2023-10-09 18:18:44,38.4981126856126,-112.064408953599,4.593176,,,9824.5317694375,5.577428,0.6263432,3.06475403508,3.9990814928,15,5,0,9824.5317694375,4.593176,1.901399,3.06475403508,-0.447388,0.447388,-6.039738,314.9, -2.4, 1.5,0,0,1024,1024,1684,1024,0,0,100,0,0,0,0,99,,,,,,,0,32,9824.5317694375,4.593176,6,P-GPS,
8700,2023-10-09 18:18:44,38.4981126552359,-112.064408707741,5.577428,,,9825.5160214375,6.56168,0.4921268,3.12414051992,4.0701444872,15,5,0,9825.5160214375,5.577428,1.901399,3.12414051992,-0.447388,0.223694,-6.71082,314.9, -4.5, 0.8,0,0,1024,1024,1684,1024,0,0,100,0,0,0,0,99,,,,,,,0,32,9825.5160214375,5.577428,6,P-GPS,
8800,2023-10-09 18:18:44,38.4981124765271,-112.064408518428,6.56168,,,9826.5002734375,7.545932,0.223694,3.20794957772,4.1548229676,15,5,0,9826.5002734375,6.56168,1.901399,3.20794957772,-0.223694,0,-7.381902,314.9, -5.2, 0.3,0,0,1024,1024,1684,1024,0,0,100,0,0,0,0,99,,,,,,,0,32,9826.5002734375,6.56168,6,P-GPS,
8900,2023-10-09 18:18:45,38.4981124196521,-112.064408619635,7.874016,,,9827.8126094375,8.858268,0,3.20064314704,4.1904200816,15,5,0,9827.8126094375,7.874016,1.901399,3.20794957772,0,0,-8.276678,314.8, -4.1, 0.2,0,0,1024,1024,1586,1024,0,0,85,0,0,0,0,99,,,,,,,0,32,9827.8126094375,7.874016,6,P-GPS,
9000,2023-10-09 18:18:45,38.4981123422774,-112.064408639575,9.186352,,,9829.1249454375,9.84252,0,3.21572844936,4.2192258568,15,5,0,9829.1249454375,9.186352,1.901399,3.21572844936,0,0,-8.94776,314.9, -2.1, 0.8,0,0,1024,1024,1427,1024,0,0,61,0,0,0,0,99,,,,,,,0,32,9829.1249454375,9.186352,6,P-GPS,
9100,2023-10-09 18:18:45,38.4981123992492,-112.064409089823,10.498688,,,9830.4372814375,11.154856,0,3.10865495512,4.3494423964,15,5,0,9830.4372814375,10.498688,1.901399,3.21572844936,0,0,-9.395148,314.9, -0.3, 1.5,0,0,1024,1024,1385,1024,0,0,55,0,0,0,0,99,,,,,,,0,32,9830.4372814375,10.498688,6,P-GPS,
9200,2023-10-09 18:18:45,38.4981123422126,-112.064409168032,11.811024,,,9831.7496174375,12.139108,0,3.10749025692,4.3799870168,15,5,0,9831.7496174375,11.811024,1.901399,3.21572844936,0,0,-9.842536,315.1, 0.5, 1.8,0,0,1024,1024,1298,1024,0,0,42,0,0,0,0,99,,,,,,,0,32,9831.7496174375,11.811024,6,P-GPS,
9300,2023-10-09 18:18:45,38.4981125237152,-112.06440931835,13.451444,,,9833.3900374375,13.451444,0,3.03032490012,4.4588912188,15,5,0,9833.3900374375,13.451444,1.901399,3.21572844936,0,0,-9.842536,315.4, 0.4, 1.6,0,0,1024,1024,1298,1024,0,0,42,0,0,0,0,99,,,,,,,0,32,9833.3900374375,13.451444,6,P-GPS,
9400,2023-10-09 18:18:45,38.4981124656264,-112.06440934866,14.76378,,,9834.7023734375,14.76378,0,3.03919629148,4.481791482,15,5,0,9834.7023734375,14.76378,1.901399,3.21572844936,0,0,-9.842536,315.5, -0.4, 1.2,0,0,1024,1024,1169,1024,0,0,22,0,0,0,0,99,,,,,,,0,32,9834.7023734375,14.76378,6,P-GPS,
9500,2023-10-09 18:18:45,38.4981123781754,-112.064409569248,16.4042,,,9836.3427934375,16.076116,0,3.01821203884,4.5523951588,15,5,0,9836.3427934375,16.4042,1.901399,3.21572844936,0,0,-9.618842,315.5, -1.3, 0.8,0,0,1024,1024,1171,927,0,0,22,-15,0,0,0,99,,,,,,,0,32,9836.3427934375,16.4042,6,P-GPS,
9600,2023-10-09 18:18:45,38.4981123125715,-112.064409631424,17.716536,,,9837.6551294375,17.060368,0,3.02348762956,4.582185186,15,5,0,9837.6551294375,17.716536,1.901399,3.21572844936,0,0,-9.395148,315.6, -1.8, 0.6,0,0,1024,1024,1175,805,0,0,23,-33,0,0,0,99,,,,,,,0,32,9837.6551294375,17.716536,6,P-GPS,
9700,2023-10-09 18:18:45,38.4981124360242,-112.064409931685,19.028872,,,9838.9674654375,18.372704,0.223694,2.93227371588,4.6790355828,15,5,0,9838.9674654375,19.028872,1.901399,3.21572844936,0,-0.223694,-8.94776,315.5, -1.8, 0.5,0,0,1024,1024,1112,623,0,0,13,-61,0,0,0,99,,,,,,,0,32,9838.9674654375,19.028872,6,P-GPS,
9800,2023-10-09 18:18:45,38.4981123915535,-112.064410063415,20.341208,,,9840.2798014375,19.356956,0.223694,2.9191930068,4.7200132744,15,5,0,9840.2798014375,20.341208,1.901399,3.21572844936,0,-0.223694,-8.276678,314.6, -1.2, 0.8,0,0,1024,1024,1065,473,0,0,6,-83,0,0,0,99,,,,,,,0,32,9840.2798014375,20.341208,6,P-GPS,
9900,2023-10-09 18:18:46,38.4981125175917,-112.064410328983,21.32546,,,9841.2640534375,20.013124,0.223694,2.83459326656,4.8086943796,15,5,0,9841.2640534375,21.32546,1.901399,3.21572844936,0,-0.223694,-7.605596,312.1, -0.5, 1.3,0,0,1024,1024,1024,364,0,0,0,-100,0,0,0,99,,,,,,,0,32,9841.2640534375,21.32546,6,P-GPS,
10000,2023-10-09 18:18:46,38.4981124774855,-112.064410489074,22.637796,,,9842.5763894375,21.32546,0.223694,2.8159613762,4.8566930688,15,5,0,9842.5763894375,22.637796,1.901399,3.21572844936,0,-0.223694,-6.934514,307.2, 0.2, 2,0,0,1024,1024,1024,364,0,0,0,-100,0,0,0,99,,,,,,,0,32,9842.5763894375,22.637796,6,P-GPS,
10100,2023-10-09 18:18:46,38.4981125297688,-112.064410624438,23.622048,,,9843.5606414375,21.981628,0.223694,2.77651255604,4.8998033064,15,5,0,9843.5606414375,23.622048,1.901399,3.21572844936,0,-0.223694,-6.263432,300.1, 0.8, 2.4,0,0,1024,1024,1024,364,0,0,0,-100,0,0,0,99,,,,,,,0,32,9843.5606414375,23.622048,6,P-GPS,
10200,2023-10-09 18:18:46,38.4981124924365,-112.064410736583,24.6063,,,9844.5448934375,22.96588,0.223694,2.76668644024,4.9345802104,15,5,0,9844.5448934375,24.6063,1.901399,3.21572844936,0,-0.223694,-5.59235,292, 1, 2,0,0,1024,1024,1024,364,0,0,0,-100,0,0,0,99,,,,,,,0,32,9844.5448934375,24.6063,6,P-GPS,
10300,2023-10-09 18:18:46,38.4981124740214,-112.064410945605,25.262468,,,9845.2010614375,23.622048,0,2.7347277778,4.9946523908,15,5,0,9845.2010614375,25.262468,1.901399,3.21572844936,0,0,-4.697574,283.5, 0.8, 1.1,0,0,1024,1024,1024,364,0,0,0,-100,0,0,0,99,,,,,,,0,32,9845.2010614375,25.262468,6,P-GPS,
10400,2023-10-09 18:18:46,38.4981124298555,-112.064411014741,25.918636,,,9845.8572294375,23.950132,0,2.73537410328,5.0201445176,15,5,0,9845.8572294375,25.918636,1.901399,3.21572844936,0,0,-3.802798,274.7, 0.2, 0.3,0,0,1024,1024,1039,364,0,0,2,-100,0,0,0,99,,,,,,,0,32,9845.8572294375,25.918636,6,P-GPS,
10500,2023-10-09 18:18:46,38.4981125615203,-112.064411032092,26.24672,,,9846.1853134375,24.278216,0,2.69436688412,5.0684384824,15,5,0,9846.1853134375,26.24672,1.901399,3.21572844936,0,0,-2.908022,265.9, -0.5, 0.3,0,0,1024,1024,1039,364,0,0,2,-100,0,0,0,99,,,,,,,0,32,9846.1853134375,26.24672,6,P-GPS,
10600,2023-10-09 18:18:46,38.498112511587,-112.064411085572,26.902888,,,9846.8414814375,24.278216,0.223694,2.69940297352,5.092191764,15,5,0,9846.8414814375,26.902888,1.901399,3.21572844936,-0.223694,0,-2.013246,256.8, -0.7, 0.8,0,0,1024,1024,1038,364,0,0,2,-100,0,0,0,99,,,,,,,0,32,9846.8414814375,26.902888,6,P-GPS,
10700,2023-10-09 18:18:46,38.4981125570675,-112.064411223201,26.902888,,,9846.8414814375,24.278216,0.223694,2.66238197496,5.134842684,15,5,0,9846.8414814375,26.902888,1.901399,3.21572844936,-0.223694,0,-1.342164,247.8, -0.1, 1.4,0,0,1024,1024,1042,364,0,0,3,-100,0,0,0,99,,,,,,,0,32,9846.8414814375,26.902888,6,P-GPS,
10800,2023-10-09 18:18:47,38.4981125164714,-112.064411279376,27.230972,,,9847.1695654375,24.278216,0.223694,2.66460966532,5.1566930784,15,5,0,9847.1695654375,27.230972,1.901399,3.21572844936,-0.223694,0,-0.671082,238.6, 0.6, 1.5,0,0,1024,1024,1046,364,0,0,3,-100,0,0,0,99,,,,,,,0,32,9847.1695654375,27.230972,6,P-GPS,
10900,2023-10-09 18:18:47,38.4981123440177,-112.064411606587,27.230972,,,9847.1695654375,24.278216,0.223694,2.66173564948,5.2693243156,15,5,0,9847.1695654375,27.230972,1.901399,3.21572844936,-0.223694,0,-0.223694,229.5, 1.4, 1.4,0,0,1024,1024,1036,364,0,0,2,-100,0,0,0,99,,,,,,,0,32,9847.1695654375,27.230972,6,P-GPS,
11000,2023-10-09 18:18:47,38.4981123173975,-112.064411651944,27.230972,,,9847.1695654375,24.278216,0.223694,2.6625328936,5.2855316652,15,5,0,9847.1695654375,27.230972,1.901399,3.21572844936,-0.223694,0,0,220.2, 2, 1.1,0,0,1024,1024,1043,364,0,0,3,-100,0,0,0,99,,,,,,,0,32,9847.1695654375,27.230972,6,P-GPS,
11100,2023-10-09 18:18:47,38.4981124046342,-112.064411832511,27.230972,,,9847.1695654375,24.278216,0.223694,2.6074968026,5.3460959716,15,5,0,9847.1695654375,27.230972,1.901399,3.21572844936,-0.223694,0,0,211, 2.2, 1,0,0,1024,1024,1053,368,0,0,4,-99,0,0,0,99,,,,,,,0,32,9847.1695654375,27.230972,6,P-GPS,
11200,2023-10-09 18:18:47,38.4981124366973,-112.06441184667,27.230972,,,9847.1695654375,24.278216,0,2.59550205156,5.3584975468,15,5,0,9847.1695654375,27.230972,1.901399,3.21572844936,0,0,0.223694,201.7, 2.3, 1,0,0,1024,1024,1024,682,0,0,0,-52,0,0,0,99,,,,,,,0,32,9847.1695654375,27.230972,6,P-GPS,
11300,2023-10-09 18:18:47,38.4981123659995,-112.064411825563,27.230972,,,9847.1695654375,24.278216,0,2.6203740996,5.3849739256,15,5,0,9847.1695654375,27.230972,1.901399,3.21572844936,0,0.223694,0.447388,192.4, 2.2, 1.1,0,0,1024,1024,1024,473,0,0,0,-83,0,0,0,99,,,,,,,0,32,9847.1695654375,27.230972,6,P-GPS,
11400,2023-10-09 18:18:47,38.4981124565983,-112.064411829922,27.230972,,,9847.1695654375,24.278216,0,2.59208341628,5.4180447928,15,5,0,9847.1695654375,27.230972,1.901399,3.21572844936,0,0,0.447388,184.7, 1.9, 1,0,0,1024,1024,1024,366,0,0,0,-100,0,0,0,99,,,,,,,0,32,9847.1695654375,27.230972,6,P-GPS,
11500,2023-10-09 18:18:47,38.4981127050969,-112.064411577321,26.902888,,,9846.8414814375,24.278216,0,2.55876320524,5.5339240616,15,5,0,9847.1695654375,27.230972,1.901399,3.21572844936,0,0,0.223694,177.8, 1.6, 0.6,0,0,1024,1024,1024,364,0,0,0,-100,0,0,0,99,,,,,,,0,32,9846.8414814375,26.902888,6,P-GPS,
11600,2023-10-09 18:18:47,38.4981128548184,-112.064411565994,26.902888,,,9846.8414814375,24.278216,0.223694,2.51672580232,5.5886156644,15,5,0,9847.1695654375,27.230972,1.901399,3.21572844936,0,0.223694,0.223694,169.9, 1.4, 0.8,0,0,1024,1024,1024,517,0,0,0,-77,0,0,0,99,,,,,,,0,32,9846.8414814375,26.902888,6,P-GPS,
11700,2023-10-09 18:18:47,38.4981124929923,-112.06441155132,26.902888,,,9846.8414814375,24.278216,0.223694,2.6260171444,5.7207022828,15,5,0,9847.1695654375,27.230972,1.901399,3.21572844936,0,0,0.223694,161.4, 1.3, 1.1,0,0,1024,1024,1024,484,0,0,0,-82,0,0,0,99,,,,,,,0,32,9846.8414814375,26.902888,6,P-GPS,
11800,2023-10-09 18:18:47,38.4981126292597,-112.064411568962,26.902888,,,9846.8414814375,24.278216,0,2.58258538448,5.770669476,15,5,0,9847.1695654375,27.230972,1.901399,3.21572844936,0,0,0.223694,153.4, 1.2, 1,0,0,1033,1024,1024,616,1,0,0,-62,0,0,0,99,,,,,,,0,32,9846.8414814375,26.902888,6,P-GPS,
11900,2023-10-09 18:18:48,38.4981128043968,-112.064411695913,26.902888,,,9846.8414814375,24.278216,0,2.50955388608,5.844160292,15,5,0,9847.1695654375,27.230972,1.901399,3.21572844936,0,0,0,145.9, 1, 0.6,0,0,1136,1024,1024,843,17,0,0,-27,0,0,0,99,,,,,,,0,32,9846.8414814375,26.902888,6,P-GPS,
12000,2023-10-09 18:18:48,38.4981129515928,-112.0644117665,26.902888,,,9846.8414814375,24.278216,0.223694,2.45427501292,5.9015093752,15,5,0,9847.1695654375,27.230972,1.901399,3.21572844936,0.223694,0,0,139.4, 0.6, 0,0,0,1263,1024,1024,916,36,0,0,-16,0,0,0,99,,,,,,,0,32,9846.8414814375,26.902888,6,P-GPS,
12100,2023-10-09 18:18:48,38.4981130312277,-112.064411943968,26.902888,,,9846.8414814375,24.278216,0.223694,2.40100401384,5.9599083272,15,5,0,9847.1695654375,27.230972,1.901399,3.21572844936,0.223694,0,0,135.2, 0, -0.4,0,0,1508,1024,1024,1024,73,0,0,0,0,0,0,99,,,,,,,0,32,9846.8414814375,26.902888,6,P-GPS,
12200,2023-10-09 18:18:48,38.4981131684328,-112.064412018393,26.902888,,,9846.8414814375,24.278216,0.223694,2.34797251608,6.0143046544,15,5,0,9847.1695654375,27.230972,1.901399,3.21572844936,0.223694,0,0,132.7, -1.9, -0.6,0,0,1548,1024,1024,1024,79,0,0,0,0,0,0,99,,,,,,,0,32,9846.8414814375,26.902888,6,P-GPS,
12300,2023-10-09 18:18:48,38.4981135491744,-112.064411896671,26.902888,,,9846.8414814375,24.278216,0.223694,2.258612277,6.1575133204,15,5,0,9847.1695654375,27.230972,1.901399,3.21572844936,0.223694,0,0,131.1, -6.2, -0.2,0,0,1549,1024,1024,1024,80,0,0,0,0,0,0,99,,,,,,,0,32,9846.8414814375,26.902888,6,P-GPS,
12400,2023-10-09 18:18:48,38.498113638714,-112.064411832288,26.902888,,,9846.8414814375,24.278216,0.223694,2.24490820832,6.1949805132,15,5,0,9847.1695654375,27.230972,1.901399,3.21572844936,0,0.223694,0,130.3, -12.4, 0.3,0,0,1543,1024,1024,1024,79,0,0,0,0,0,0,99,,,,,,,0,32,9846.8414814375,26.902888,6,P-GPS,
12500,2023-10-09 18:18:48,38.4981137071444,-112.064411564224,26.902888,,,9846.8414814375,24.278216,0.671082,2.2757382618,6.2754923268,15,5,0,9847.1695654375,27.230972,1.901399,3.21572844936,0,0.671082,0,129.5, -18.3, 0.9,0,0,1543,1024,1024,1024,79,0,0,0,0,0,0,99,,,,,,,0,32,9846.8414814375,26.902888,6,P-GPS,
12600,2023-10-09 18:18:48,38.4981134846837,-112.064411041139,26.902888,,,9846.8414814375,24.278216,1.2974252,2.43620742704,6.4454726472,15,5,0,9847.1695654375,27.230972,1.901399,3.21572844936,-0.671082,1.11847,0,128.9, -22.2, 1.1,0,0,1522,1024,1024,1024,75,0,0,0,0,0,0,99,,,,,,,0,32,9846.8414814375,26.902888,6,P-GPS,
12700,2023-10-09 18:18:48,38.4981130094488,-112.06440995553,26.902888,,,9846.8414814375,24.278216,2.1027236,2.77635179488,6.8006563856,15,5,0,9847.1695654375,27.230972,2.1027236,3.21572844936,-1.11847,1.789552,0,128.3, -22.8, 1,0,0,1507,1024,1024,1024,73,0,0,0,0,0,0,99,,,,,,,0,32,9846.8414814375,26.902888,6,P-GPS,
12800,2023-10-09 18:18:48,38.4981123187622,-112.064408714709,26.902888,,,9846.8414814375,24.278216,3.0422384,3.206036848,7.2354661108,15,5,0,9847.1695654375,27.230972,3.0422384,3.21572844936,-1.789552,2.460634,0,127.8, -20.9, 0.5,0,0,1504,1024,1024,1024,73,0,0,0,0,0,0,99,,,,,,,0,32,9846.8414814375,26.902888,6,P-GPS,
12900,2023-10-09 18:18:49,38.4981114815936,-112.064406981332,26.902888,,,9846.8414814375,24.278216,3.8475368,3.7770342416,7.8170606176,15,5,0,9847.1695654375,27.230972,3.8475368,3.7770342416,-2.23694,3.131716,0,127.3, -18.1, -0.2,0,0,1493,1024,1024,1024,71,0,0,0,0,0,0,99,,,,,,,0,32,9846.8414814375,26.902888,6,P-GPS,
13000,2023-10-09 18:18:49,38.4981104295412,-112.064405108053,26.902888,,,9846.8414814375,24.278216,4.3396636,4.4322179896,8.4754267804,15,5,0,9847.1695654375,27.230972,4.3396636,4.4322179896,-2.460634,3.579104,0,126.9, -15.8, -0.8,0,0,1494,1024,1024,1024,71,0,0,0,0,0,0,99,,,,,,,0,32,9846.8414814375,26.902888,6,P-GPS,
13100,2023-10-09 18:18:49,38.498109148204,-112.064402663157,26.902888,,,9846.8414814375,24.278216,4.9660068,5.267060536,9.315617096,15,5,0,9847.1695654375,27.230972,4.9660068,5.267060536,-2.908022,4.026492,0,126.5, -14.9, -1,0,0,1495,1024,1024,1024,71,0,0,0,0,0,0,99,,,,,,,0,32,9846.8414814375,26.902888,6,P-GPS,
13200,2023-10-09 18:18:49,38.4981078486908,-112.064400262655,26.902888,,,9846.8414814375,24.278216,5.4581336,6.0977036072,10.1490816896,15,5,0,9847.1695654375,27.230972,5.4581336,6.0977036072,-3.131716,4.47388,0,126.3, -15.5, -0.5,0,0,1484,1024,1024,1024,70,0,0,0,0,0,0,99,,,,,,,0,32,9846.8414814375,26.902888,6,P-GPS,
13300,2023-10-09 18:18:49,38.4981063960661,-112.064397668531,26.902888,,,9846.8414814375,24.278216,5.9502604,7.00705403,11.059875682,15,5,0,9847.1695654375,27.230972,5.9502604,7.00705403,-3.35541,4.921268,0,126.1, -16.7, 0,0,0,1482,1024,1024,1024,69,0,0,0,0,0,0,99,,,,,,,0,32,9846.8414814375,26.902888,6,P-GPS,
13400,2023-10-09 18:18:49,38.4981048326372,-112.064394778168,26.902888,,,9846.8414814375,24.278216,6.7555588,8.0082351644,12.0631237456,15,5,0,9847.1695654375,27.230972,6.7555588,8.0082351644,-3.802798,5.59235,0,126.1, -17.6, 0.5,0,0,1479,1024,1024,1024,69,0,0,0,0,0,0,99,,,,,,,0,32,9846.8414814375,26.902888,6,P-GPS,
13500,2023-10-09 18:18:49,38.4981033204707,-112.064391635711,26.902888,,,9846.8414814375,24.278216,7.381902,9.0555449092,13.116470236,15,5,0,9847.1695654375,27.230972,7.381902,9.0555449092,-4.250186,6.039738,0,126.1, -17.7, 0.7,0,0,1476,1024,1024,1024,68,0,0,0,0,0,0,99,,,,,,,0,32,9846.8414814375,26.902888,6,P-GPS,
13600,2023-10-09 18:18:49,38.498101473086,-112.064388230802,26.902888,,,9846.8414814375,24.278216,8.0082452,10.2375003276,14.2995083316,15,5,0,9847.1695654375,27.230972,8.0082452,10.2375003276,-4.697574,6.487126,0,126.2, -16.9, 0.6,0,0,1463,1024,1024,1024,67,0,0,0,0,0,0,99,,,,,,,0,32,9846.8414814375,26.902888,6,P-GPS,
13700,2023-10-09 18:18:49,38.4980993979006,-112.064384266616,26.902888,,,9846.8414814375,24.278216,8.500372,11.5973428908,15.6613193988,15,5,0,9847.1695654375,27.230972,8.500372,11.5973428908,-4.921268,6.934514,0,126.3, -15.9, 0.3,0,0,1459,1024,1024,1024,66,0,0,0,0,0,0,99,,,,,,,0,32,9846.8414814375,26.902888,6,P-GPS,
13800,2023-10-09 18:18:49,38.4980972791798,-112.064380365756,26.902888,,,9846.8414814375,24.278216,9.1267152,12.9524938528,17.0171265288,15,5,0,9847.1695654375,27.230972,9.1267152,12.9524938528,-5.368656,7.381902,0,126.4, -14.9, 0.2,0,0,1459,1024,1024,1024,66,0,0,0,0,0,0,99,,,,,,,0,32,9846.8414814375,26.902888,6,P-GPS,
13900,2023-10-09 18:18:50,38.4980948539986,-112.064376310401,26.902888,,,9846.8414814375,24.278216,9.618842,14.4096789388,18.4744756568,15,5,0,9847.1695654375,27.230972,9.618842,14.4096789388,-5.59235,7.82929,0,126.5, -14.3, 0.2,0,0,1455,1024,1024,1024,65,0,0,0,0,0,0,99,,,,,,,0,32,9846.8414814375,26.902888,6,P-GPS,
14000,2023-10-09 18:18:50,38.4980924958871,-112.064372007197,26.902888,,,9846.8414814375,24.278216,10.1109688,15.9091540524,19.9744757048,15,5,0,9847.1695654375,27.230972,10.1109688,15.9091540524,-5.816044,8.276678,0,126.7, -13.9, 0.3,0,0,1441,1024,1024,1024,63,0,0,0,0,0,0,99,,,,,,,0,32,9846.8414814375,26.902888,6,P-GPS,
14100,2023-10-09 18:18:50,38.4980901574984,-112.064367400292,26.902888,,,9846.8414814375,24.278216,10.4241404,17.4745084332,21.5423891408,15,5,0,9847.1695654375,27.230972,10.4241404,17.4745084332,-6.039738,8.500372,0,126.7, -13.8, 0.6,0,0,1435,1024,1024,1024,62,0,0,0,0,0,0,99,,,,,,,0,32,9846.8414814375,26.902888,6,P-GPS,
14200,2023-10-09 18:18:50,38.4980875932625,-112.064362725091,26.902888,,,9846.8414814375,24.278216,11.0504836,19.1043969368,23.1725401116,15,5,0,9847.1695654375,27.230972,11.0504836,19.1043969368,-6.487126,8.94776,0,126.8, -13.9, 0.7,0,0,1430,1024,1024,1024,62,0,0,0,0,0,0,99,,,,,,,0,32,9846.8414814375,26.902888,6,P-GPS,
14300,2023-10-09 18:18:50,38.4980848668303,-112.064357794325,26.902888,,,9846.8414814375,24.278216,11.3636552,20.8281502728,24.8964246812,15,5,0,9847.1695654375,27.230972,11.3636552,20.8281502728,-6.71082,9.171454,0,126.8, -13.7, 0.7,0,0,1421,1024,1024,1024,60,0,0,0,0,0,0,99,,,,,,,0,32,9846.8414814375,26.902888,6,P-GPS,
14400,2023-10-09 18:18:50,38.4980820849526,-112.064352772691,26.902888,,,9846.8414814375,24.278216,11.3636552,22.5847776256,26.6531832676,15,5,0,9847.1695654375,27.230972,11.3636552,22.5847776256,-6.934514,9.618842,0,126.9, -13.2, 0.4,0,0,1422,1024,1024,1024,60,0,0,0,0,0,0,99,,,,,,,0,32,9846.8414814375,26.902888,6,P-GPS,
14500,2023-10-09 18:18:50,38.498079221857,-112.064347668745,26.902888,,,9846.8414814375,24.278216,12.1689536,24.3778551108,28.4462607528,15,5,0,9847.1695654375,27.230972,12.1689536,24.3778551108,-7.158208,9.842536,0,127, -12.5, 0,0,0,1420,1024,1024,1024,60,0,0,0,0,0,0,99,,,,,,,0,32,9846.8414814375,26.902888,6,P-GPS,
14600,2023-10-09 18:18:50,38.4980762662531,-112.064342351192,26.902888,,,9846.8414814375,24.278216,12.6610804,26.2401255116,30.3086295788,15,5,0,9847.1695654375,27.230972,12.6610804,26.2401255116,-7.381902,10.289924,0,127.1, -11.7, -0.1,0,0,1423,1024,1024,1024,60,0,0,0,0,0,0,99,,,,,,,0,32,9846.8414814375,26.902888,6,P-GPS,
14700,2023-10-09 18:18:50,38.498073175923,-112.064336675785,26.902888,,,9846.8414814375,24.278216,12.974252,28.214075706,32.282809432,15,5,0,9847.1695654375,27.230972,12.974252,28.214075706,-7.605596,10.513618,0,127.1, -11.1, 0,0,0,1410,1024,1024,1024,58,0,0,0,0,0,0,99,,,,,,,0,32,9846.8414814375,26.902888,6,P-GPS,
14800,2023-10-09 18:18:51,38.4980700715882,-112.064331091525,26.902888,,,9846.8414814375,24.278216,13.2874236,30.1698828552,34.238518156,15,5,0,9847.1695654375,27.230972,13.2874236,30.1698828552,-7.82929,10.737312,0,127.2, -10.7, 0.4,0,0,1398,1024,1024,1024,57,0,0,0,0,0,0,99,,,,,,,0,32,9846.8414814375,26.902888,6,P-GPS,
14900,2023-10-09 18:18:51,38.4980669964489,-112.064325480498,26.902888,,,9846.8414814375,24.278216,13.2874236,32.1256900044,36.194554964,15,5,0,9847.1695654375,27.230972,13.2874236,32.1256900044,-7.82929,10.737312,0,127.3, -10.5, 0.7,0,0,1376,1024,1024,1024,53,0,0,0,0,0,0,99,,,,,,,0,32,9846.8414814375,26.902888,6,P-GPS,
15000,2023-10-09 18:18:51,38.4980637625557,-112.064319721423,26.902888,,,9846.8414814375,24.278216,13.6005952,34.149607392,38.21850516,15,5,0,9847.1695654375,27.230972,13.6005952,34.149607392,-8.052984,10.961006,0,127.3, -10.6, 0.6,0,0,1349,1024,1024,1024,49,0,0,0,0,0,0,99,,,,,,,0,32,9846.8414814375,26.902888,6,P-GPS,
15100,2023-10-09 18:18:51,38.4980602712371,-112.064314041349,26.902888,,,9846.8414814375,24.278216,13.6005952,36.210302996,40.280841184,15,5,0,9847.1695654375,27.230972,13.6005952,36.210302996,-8.276678,11.1847,0,127.3, -10.6, 0.1,0,0,1303,1024,1024,1024,42,0,0,0,0,0,0,99,,,,,,,0,32,9846.8414814375,26.902888,6,P-GPS,
15200,2023-10-09 18:18:51,38.4980568995052,-112.064308121601,26.902888,,,9846.8414814375,24.278216,14.092722,38.300854244,42.371392432,15,5,0,9847.1695654375,27.230972,14.092722,38.300854244,-8.276678,11.408394,0,127.2, -10.3, -0.4,0,0,1303,1024,1024,1024,42,0,0,0,0,0,0,99,,,,,,,0,32,9846.8414814375,26.902888,6,P-GPS,
15300,2023-10-09 18:18:51,38.498053461654,-112.064302004897,26.902888,,,9846.8414814375,24.278216,14.4058936,40.45111678,44.521654968,15,5,0,9847.1695654375,27.230972,14.4058936,40.45111678,-8.500372,11.632088,0,127, -9.4, -0.8,0,0,1302,1024,1024,1024,42,0,0,0,0,0,0,99,,,,,,,0,32,9846.8414814375,26.902888,6,P-GPS,
15400,2023-10-09 18:18:51,38.4980500133217,-112.064295892701,26.902888,,,9846.8414814375,24.278216,14.4058936,42.602363568,46.67322984,15,5,0,9847.1695654375,27.230972,14.4058936,42.602363568,-8.500372,11.632088,0,126.8, -8.1, -0.8,0,0,1302,1024,1024,1024,42,0,0,0,0,0,0,99,,,,,,,0,32,9846.8414814375,26.902888,6,P-GPS,
15500,2023-10-09 18:18:51,38.4980465260492,-112.06428974128,26.902888,,,9846.8414814375,24.278216,14.5848488,44.771326892,48.842193164,15,5,0,9847.1695654375,27.230972,14.5848488,44.771326892,-8.500372,11.855782,0,126.7, -6.7, -0.5,0,0,1302,1024,1024,1024,42,0,0,0,0,0,0,99,,,,,,,0,32,9846.8414814375,26.902888,6,P-GPS,
15600,2023-10-09 18:18:51,38.4980430498314,-112.06428353547,26.902888,,,9846.8414814375,24.278216,14.5848488,46.95046082,51.021327092,15,5,0,9847.1695654375,27.230972,14.5848488,46.95046082,-8.500372,11.855782,0,126.7, -5.9, 0,0,0,1288,1024,1024,1024,40,0,0,0,0,0,0,99,,,,,,,0,32,9846.8414814375,26.902888,6,P-GPS,
15700,2023-10-09 18:18:51,38.4980397608054,-112.064277421173,26.902888,,,9846.8414814375,24.278216,14.5848488,49.068571124,53.13976548,15,5,0,9847.1695654375,27.230972,14.5848488,49.068571124,-8.500372,11.855782,0,126.6, -5.5, 0.4,0,0,1275,1024,1024,1024,38,0,0,0,0,0,0,99,,,,,,,0,32,9846.8414814375,26.902888,6,P-GPS,
15800,2023-10-09 18:18:51,38.4980362872122,-112.064271203656,26.902888,,,9846.8414814375,24.278216,14.7190652,51.249673556,55.321195996,15,5,0,9847.1695654375,27.230972,14.7190652,51.249673556,-8.724066,11.855782,0,126.7, -5.5, 0.6,0,0,1264,1024,1024,1024,36,0,0,0,0,0,0,99,,,,,,,0,32,9846.8414814375,26.902888,6,P-GPS,
15900,2023-10-09 18:18:52,38.498032647,-112.064265075759,26.902888,,,9846.8414814375,24.278216,14.7190652,53.445867852,57.517718376,15,5,0,9847.1695654375,27.230972,14.7190652,53.445867852,-8.724066,11.855782,0,126.8, -5.5, 0.6,0,0,1262,1024,1024,1024,36,0,0,0,0,0,0,99,,,,,,,0,32,9846.8414814375,26.902888,6,P-GPS,
16000,2023-10-09 18:18:52,38.4980291398313,-112.064258859456,26.902888,,,9846.8414814375,24.278216,14.7190652,55.633860048,59.706038656,15,5,0,9847.1695654375,27.230972,14.7190652,55.633860048,-8.724066,11.855782,0,126.8, -5.2, 0.4,0,0,1260,1024,1024,1024,36,0,0,0,0,0,0,99,,,,,,,0,32,9846.8414814375,26.902888,6,P-GPS,
16100,2023-10-09 18:18:52,38.4980255444807,-112.064252783356,26.902888,,,9846.8414814375,24.278216,14.7190652,57.8084008,61.880907492,15,5,0,9847.1695654375,27.230972,14.7190652,57.8084008,-8.724066,11.855782,0,126.8, -4.7, 0.1,0,0,1253,1024,1024,1024,35,0,0,0,0,0,0,99,,,,,,,0,32,9846.8414814375,26.902888,6,P-GPS,
16200,2023-10-09 18:18:52,38.4980220248529,-112.064246582272,26.902888,,,9846.8414814375,24.278216,14.7190652,59.995736828,64.06824352,15,5,0,9847.1695654375,27.230972,14.7190652,59.995736828,-8.724066,11.855782,0,126.8, -4.1, 0,0,0,1257,1024,1024,1024,35,0,0,0,0,0,0,99,,,,,,,0,32,9846.8414814375,26.902888,6,P-GPS,
16300,2023-10-09 18:18:52,38.4980186435176,-112.06424039364,26.902888,,,9846.8414814375,24.278216,14.7190652,62.15059254,66.223427316,15,5,0,9847.1695654375,27.230972,14.7190652,62.15059254,-8.724066,11.855782,0,126.8, -3.7, 0.1,0,0,1256,1024,1024,1024,35,0,0,0,0,0,0,99,,,,,,,0,32,9846.8414814375,26.902888,6,P-GPS,
16400,2023-10-09 18:18:52,38.498015149476,-112.064234227514,26.902888,,,9846.8414814375,24.278216,14.5848488,64.324477124,68.3973119,15,5,0,9847.1695654375,27.230972,14.7190652,64.324477124,-8.500372,11.855782,0,126.8, -3.3, 0.3,0,0,1257,1024,1024,1024,35,0,0,0,0,0,0,99,,,,,,,0,32,9846.8414814375,26.902888,6,P-GPS,
16500,2023-10-09 18:18:52,38.4980116821167,-112.064228248693,26.902888,,,9846.8414814375,24.278216,14.5848488,66.449149108,70.521983884,15,5,0,9847.1695654375,27.230972,14.7190652,66.449149108,-8.500372,11.855782,0,126.8, -2.9, 0.5,0,0,1254,1024,1024,1024,35,0,0,0,0,0,0,99,,,,,,,0,32,9846.8414814375,26.902888,6,P-GPS,
16600,2023-10-09 18:18:52,38.4980082079584,-112.064222155109,26.902888,,,9846.8414814375,24.278216,14.4058936,68.601708232,72.674871092,15,5,0,9847.1695654375,27.230972,14.7190652,68.601708232,-8.500372,11.632088,0,126.8, -2.8, 0.5,0,0,1263,1024,1024,1024,36,0,0,0,0,0,0,99,,,,,,,0,32,9846.8414814375,26.902888,6,P-GPS,
16700,2023-10-09 18:18:52,38.4980049090934,-112.064216186715,26.902888,,,9846.8414814375,24.278216,14.4058936,70.687994388,74.761157248,15,5,0,9847.1695654375,27.230972,14.7190652,70.687994388,-8.500372,11.632088,0,126.8, -2.9, 0.3,0,0,1263,1024,1024,1024,36,0,0,0,0,0,0,99,,,,,,,0,32,9846.8414814375,26.902888,6,P-GPS,
16800,2023-10-09 18:18:52,38.4980014758835,-112.064210177619,26.902888,,,9846.8414814375,24.278216,14.4058936,72.812338288,76.885501148,15,5,0,9847.1695654375,27.230972,14.7190652,72.812338288,-8.500372,11.632088,0,126.8, -3.3, 0,0,0,1301,1024,1024,1024,42,0,0,0,0,0,0,99,,,,,,,0,32,9846.8414814375,26.902888,6,P-GPS,
16900,2023-10-09 18:18:53,38.4979978191789,-112.064204279928,26.902888,,,9846.8414814375,24.278216,14.2269384,74.9589919,79.034123264,15,5,0,9847.1695654375,27.230972,14.7190652,74.9589919,-8.500372,11.408394,0,126.8, -3.5, -0.3,0,0,1331,1024,1024,1024,47,0,0,0,0,0,0,99,,,,,,,0,32,9846.8414814375,26.902888,6,P-GPS,
17000,2023-10-09 18:18:53,38.4979943944206,-112.06419831044,26.902888,,,9846.8414814375,24.278216,14.2269384,77.072509028,81.147640392,15,5,0,9847.1695654375,27.230972,14.7190652,77.072509028,-8.500372,11.408394,0,126.8, -3.7, -0.4,0,0,1340,1024,1024,1024,48,0,0,0,0,0,0,99,,,,,,,0,32,9846.8414814375,26.902888,6,P-GPS,
17100,2023-10-09 18:18:53,38.4979910554979,-112.064192365023,26.902888,,,9846.8414814375,24.278216,14.092722,79.16174794,83.237207388,15,5,0,9847.1695654375,27.230972,14.7190652,79.16174794,-8.276678,11.408394,0,126.7, -4.2, -0.3,0,0,1337,1024,1024,1024,47,0,0,0,0,0,0,99,,,,,,,0,32,9846.8414814375,26.902888,6,P-GPS,
17200,2023-10-09 18:18:53,38.4979876569424,-112.064186410372,26.902888,,,9846.8414814375,24.278216,14.092722,81.2664068,85.341538164,15,5,0,9847.1695654375,27.230972,14.7190652,81.2664068,-8.276678,11.408394,0,126.8, -5, 0,0,0,1332,1024,1024,1024,47,0,0,0,0,0,0,99,,,,,,,0,32,9846.8414814375,26.902888,6,P-GPS,
17300,2023-10-09 18:18:53,38.4979844925424,-112.064181035283,26.902888,,,9846.8414814375,24.278216,14.092722,83.186682452,87.2621419,15,5,0,9847.1695654375,27.230972,14.7190652,83.186682452,-8.276678,11.408394,0,126.9, -6, 0.2,0,0,1329,1024,1024,1024,46,0,0,0,0,0,0,99,,,,,,,0,32,9846.8414814375,26.902888,6,P-GPS,
17400,2023-10-09 18:18:53,38.497981094886,-112.064175116519,26.902888,,,9846.8414814375,24.278216,14.2269384,85.282483044,89.357942492,15,5,0,9847.1695654375,27.230972,14.7190652,85.282483044,-8.500372,11.408394,0,126.9, -6.7, 0.5,0,0,1327,1024,1024,1024,46,0,0,0,0,0,0,99,,,,,,,0,32,9846.8414814375,26.902888,6,P-GPS,
17500,2023-10-09 18:18:53,38.4979769676099,-112.064168305751,26.902888,,,9846.8414814375,24.278216,14.4058936,87.740816456,91.81758824,15,5,0,9847.1695654375,27.230972,14.7190652,87.740816456,-8.500372,11.632088,0,126.9, -7.1, 0.4,0,0,1322,1024,1024,1024,45,0,0,0,0,0,0,99,,,,,,,0,32,9846.8414814375,26.902888,6,P-GPS,
17600,2023-10-09 18:18:53,38.497973449686,-112.064162251161,26.902888,,,9846.8414814375,24.278216,14.4058936,89.894031748,93.970803532,15,5,0,9847.1695654375,27.230972,14.7190652,89.894031748,-8.500372,11.632088,0,126.8, -6.9, 0.2,0,0,1318,1024,1024,1051,45,0,0,4,0,0,0,99,,,,,,,0,32,9846.8414814375,26.902888,6,P-GPS,
17700,2023-10-09 18:18:53,38.497970419023,-112.064156549539,26.902888,,,9846.8414814375,24.278216,14.4058936,91.860895328,95.938979448,15,5,0,9847.1695654375,27.230972,14.7190652,91.860895328,-8.500372,11.632088,0,126.8, -6.3, -0.2,0,0,1317,1024,1024,1069,44,0,0,7,0,0,0,99,,,,,,,0,32,9846.8414814375,26.902888,6,P-GPS,
17800,2023-10-09 18:18:54,38.4979669074701,-112.06415047055,26.902888,,,9846.8414814375,24.278216,14.4058936,94.018375712,98.096131748,15,5,0,9847.1695654375,27.230972,14.7190652,94.018375712,-8.500372,11.632088,0,126.7, -5.7, -0.3,0,0,1314,1024,1024,1117,44,0,0,14,0,0,0,99,,,,,,,0,32,9846.8414814375,26.902888,6,P-GPS,
17900,2023-10-09 18:18:54,38.4979635021155,-112.064144467472,26.902888,,,9846.8414814375,24.278216,14.5848488,96.135501764,100.2132578,15,5,0,9847.1695654375,27.230972,14.7190652,96.135501764,-8.500372,11.855782,0,126.7, -5.4, 0.6,0,0,1314,1024,1024,1118,44,0,0,14,0,0,0,99,,,,,,,0,32,9846.8414814375,26.902888,6,P-GPS,
18000,2023-10-09 18:18:54,38.497959995649,-112.064138377739,26.902888,,,9846.8414814375,24.278216,14.5848488,98.294294484,102.37205052,15,5,0,9847.1695654375,27.230972,14.7190652,98.294294484,-8.500372,11.855782,0,126.9, -5.5, 2.3,0,0,1317,1024,1024,1109,44,0,0,13,0,0,0,99,,,,,,,0,32,9846.8414814375,26.902888,6,P-GPS,
18100,2023-10-09 18:18:54,38.4979562624682,-112.064132412912,26.902888,,,9846.8414814375,24.278216,14.54011,100.472772244,104.552824868,15,5,0,9847.1695654375,27.230972,14.7190652,100.472772244,-8.724066,11.632088,0,127.3, -5.7, 3.8,0,0,1316,1024,1024,1113,44,0,0,13,0,0,0,99,,,,,,,0,32,9846.8414814375,26.902888,6,P-GPS,
18200,2023-10-09 18:18:54,38.4979526577839,-112.064126387623,27.230972,,,9847.1695654375,24.278216,14.54011,102.63779856,106.718507352,15,5,0,9847.1695654375,27.230972,14.7190652,102.63779856,-8.94776,11.632088,0,127.8, -5.9, 4.4,0,0,1316,1024,1024,1115,44,0,0,14,0,0,0,99,,,,,,,0,32,9847.1695654375,27.230972,6,P-GPS,
18300,2023-10-09 18:18:54,38.4979493218068,-112.064120775414,27.230972,,,9847.1695654375,24.278216,14.6743264,104.649609648,108.730974608,15,5,0,9847.1695654375,27.230972,14.7190652,104.649609648,-8.94776,11.632088,0,128.4, -5.9, 4.6,0,0,1313,1024,1024,1122,44,0,0,15,0,0,0,99,,,,,,,0,32,9847.1695654375,27.230972,6,P-GPS,
18400,2023-10-09 18:18:54,38.4979456243166,-112.064114870327,27.230972,,,9847.1695654375,24.278216,14.6295876,106.807090032,110.890095412,15,5,0,9847.1695654375,27.230972,14.7190652,106.807090032,-9.171454,11.408394,0,129.1, -5.7, 4.8,0,0,1316,1024,1024,1095,44,0,0,11,0,0,0,99,,,,,,,0,32,9847.1695654375,27.230972,6,P-GPS,
18500,2023-10-09 18:18:54,38.4979414048083,-112.064108645687,27.230972,,,9847.1695654375,24.278216,14.6295876,109.150594044,113.241801524,15,5,0,9847.1695654375,27.230972,14.7190652,109.150594044,-9.171454,11.408394,0,129.7, -5.5, 5.1,0,0,1315,1024,1024,1030,44,0,0,1,0,0,0,99,,,,,,,0,32,9847.1695654375,27.230972,6,P-GPS,
18600,2023-10-09 18:18:54,38.4979375450491,-112.064102827211,27.230972,,,9847.1695654375,24.278216,14.6072182,111.323166292,115.419623116,15,5,0,9847.1695654375,27.230972,14.7190652,111.323166292,-9.395148,11.1847,0,130.3, -5.5, 4.8,0,0,1315,1024,1024,1024,44,0,0,0,0,0,0,99,,,,,,,0,32,9847.1695654375,27.230972,6,P-GPS,
18700,2023-10-09 18:18:54,38.497933626188,-112.064097205592,27.230972,,,9847.1695654375,24.278216,14.6072182,113.463914392,117.569229484,15,5,0,9847.1695654375,27.230972,14.7190652,113.463914392,-9.618842,10.961006,0,130.7, -5.7, 2.4,0,0,1314,1024,1024,1024,44,0,0,0,0,0,0,99,,,,,,,0,32,9847.1695654375,27.230972,6,P-GPS,
18800,2023-10-09 18:18:54,38.4979296740853,-112.064091508478,27.230972,,,9847.1695654375,24.278216,14.5848488,115.629268792,119.743114068,15,5,0,9847.1695654375,27.230972,14.7190652,115.629268792,-9.618842,10.961006,0,130.9, -6.1, 0,0,0,1315,1024,1024,1024,44,0,0,0,0,0,0,99,,,,,,,0,32,9847.1695654375,27.230972,6,P-GPS,
18900,2023-10-09 18:18:55,38.4979258147714,-112.064085603369,27.230972,,,9847.1695654375,24.278216,14.5848488,117.822182248,121.939964532,15,5,0,9847.1695654375,27.230972,14.7190652,117.822182248,-9.618842,10.961006,0,130.9, -6.8, -1.4,0,0,1314,1024,1024,1024,44,0,0,0,0,0,0,99,,,,,,,0,32,9847.1695654375,27.230972,6,P-GPS,
19000,2023-10-09 18:18:55,38.4979218823466,-112.064079837893,27.230972,,,9847.1695654375,24.278216,14.7414346,119.999675756,124.123691636,15,5,0,9847.1695654375,27.230972,14.7414346,119.999675756,-9.618842,11.1847,0,130.7, -7.2, -1.6,0,0,1315,1024,1024,1024,44,0,0,0,0,0,0,99,,,,,,,0,32,9847.1695654375,27.230972,6,P-GPS,
19100,2023-10-09 18:18:55,38.4979179845163,-112.064074263519,27.230972,,,9847.1695654375,24.278216,14.7414346,122.125660076,126.25820614,15,5,0,9847.1695654375,27.230972,14.7414346,122.125660076,-9.618842,11.1847,0,130.5, -7.2, -1.1,0,0,1316,1024,1024,1024,44,0,0,0,0,0,0,99,,,,,,,0,32,9847.1695654375,27.230972,6,P-GPS,
19200,2023-10-09 18:18:55,38.4979140552597,-112.064068432811,27.230972,,,9847.1695654375,24.278216,14.7414346,124.31758928,128.455056604,15,5,0,9847.1695654375,27.230972,14.7414346,124.31758928,-9.618842,11.1847,0,130.4, -7, -0.2,0,0,1318,1024,1024,1024,45,0,0,0,0,0,0,99,,,,,,,0,32,9847.1695654375,27.230972,6,P-GPS,
19300,2023-10-09 18:18:55,38.4979104139601,-112.064062894521,27.230972,,,9847.1695654375,24.278216,14.7414346,126.379925304,130.520673468,15,5,0,9847.1695654375,27.230972,14.7414346,126.379925304,-9.618842,11.1847,0,130.4, -6.8, 0.4,0,0,1319,1024,1024,1024,45,0,0,0,0,0,0,99,,,,,,,0,32,9847.1695654375,27.230972,6,P-GPS,
19400,2023-10-09 18:18:55,38.4979064866559,-112.064057054535,27.230972,,,9847.1695654375,24.278216,14.7414346,128.573823012,132.719164352,15,5,0,9847.1695654375,27.230972,14.7414346,128.573823012,-9.618842,11.1847,0,130.4, -6.6, 0.7,0,0,1320,1024,1024,1024,45,0,0,0,0,0,0,99,,,,,,,0,32,9847.1695654375,27.230972,6,P-GPS,
19500,2023-10-09 18:18:55,38.4979019878222,-112.064050751489,27.230972,,,9847.1695654375,24.278216,14.7414346,130.99901994,135.154859968,15,5,0,9847.1695654375,27.230972,14.7414346,130.99901994,-9.618842,11.408394,0,130.4, -6.6, 0.6,0,0,1320,1024,1024,1024,45,0,0,0,0,0,0,99,,,,,,,0,32,9847.1695654375,27.230972,6,P-GPS,
19600,2023-10-09 18:18:55,38.4978979787927,-112.064044842397,27.230972,,,9847.1695654375,24.278216,14.9203898,133.227038384,137.388127756,15,5,0,9847.1695654375,27.230972,14.9203898,133.227038384,-9.618842,11.408394,0,130.5, -6.7, 0.4,0,0,1320,1024,1024,1024,45,0,0,0,0,0,0,99,,,,,,,0,32,9847.1695654375,27.230972,6,P-GPS,
19700,2023-10-09 18:18:55,38.4978942731848,-112.064038915449,27.230972,,,9847.1695654375,24.278216,14.9203898,135.392392784,139.554138324,15,5,0,9847.1695654375,27.230972,14.9203898,135.392392784,-9.618842,11.408394,0,130.4, -6.8, 0.3,0,0,1320,1024,1024,1024,45,0,0,0,0,0,0,99,,,,,,,0,32,9847.1695654375,27.230972,6,P-GPS,
19800,2023-10-09 18:18:55,38.4978902643265,-112.064032959156,27.230972,,,9847.1695654375,24.278216,15.2335614,137.631566084,141.797248632,15,5,0,9847.1695654375,27.230972,15.2335614,137.631566084,-9.842536,11.632088,0,130.3, -6.8, 0.2,0,0,1319,1024,1024,1024,45,0,0,0,0,0,0,99,,,,,,,0,32,9847.1695654375,27.230972,6,P-GPS,
