time(millisecond),datetime(utc),latitude,longitude,height_above_takeoff(feet),height_above_ground_at_drone_location(feet),ground_elevation_at_drone_location(feet),altitude_above_seaLevel(feet),height_sonar(feet),speed(mph),distance(feet),mileage(feet),satellites,gpslevel,voltage(v),max_altitude(feet),max_ascent(feet),max_speed(mph),max_distance(feet), xSpeed(mph), ySpeed(mph), zSpeed(mph), compass_heading(degrees), pitch(degrees), roll(degrees),isPhoto,isVideo,rc_elevator,rc_aileron,rc_throttle,rc_rudder,rc_elevator(percent),rc_aileron(percent),rc_throttle(percent),rc_rudder(percent),gimbal_heading(degrees),gimbal_pitch(degrees),gimbal_roll(degrees),battery_percent,voltageCell1,voltageCell2,voltageCell3,voltageCell4,voltageCell5,voltageCell6,current(A),battery_temperature(f),altitude(feet),ascent(feet),flycStateRaw,flycState,message
17100,2023-10-08 20:48:36,38.498282846215,-112.064353505952,0,Available with any HD 360 subscription,Available with any HD 360 subscription,9821.7568323408,0.656168,0,0,0,19,5,0,9821.7568323408,0,0,0,0,0,0,152.7, -7.3, -2.8,0,0,364,364,364,1684,-100,-100,-100,100,0,0,0,99,,,,,,,0,32,9821.7568323408,0,41,Motors_Started,
17200,2023-10-08 20:48:37,38.4982828296939,-112.064353508673,0,,,9821.7568323408,0.656168,0,0.0060775592496,0.0060775592496,19,5,0,9821.7568323408,0,0,0.0060775592496,0,0,0,152.7, -7.3, -2.8,0,0,364,364,364,1683,-100,-100,-100,100,0,0,0,99,,,,,,,0,32,9821.7568323408,0,41,Motors_Started,
17300,2023-10-08 20:48:37,38.4982828567149,-112.064353507341,0,,,9821.7568323408,0.656168,0,0.003851378076,0.0159435044472,19,5,0,9821.7568323408,0,0,0.0060775592496,0,0,0,152.7, -7.3, -2.8,0,0,364,364,364,1682,-100,-100,-100,100,0,0,0,99,,,,,,,0,32,9821.7568323408,0,41,Motors_Started,
17400,2023-10-08 20:48:37,38.4982828428253,-112.064353510668,0,,,9821.7568323408,0.656168,0,0.00182812669892,0.0210993773156,19,5,0,9821.7568323408,0,0,0.0060775592496,0,0,0,152.7, -7.3, -2.8,0,0,364,364,364,1684,-100,-100,-100,100,0,0,0,99,,,,,,,0,32,9821.7568323408,0,41,Motors_Started,"Manned aircraft detected nearby. Fly with caution"
17500,2023-10-08 20:48:37,38.4982827024723,-112.06435350799,0,,,9821.7568323408,0.656168,0,0.05244750824,0.072312666356,19,5,0,9821.7568323408,0,0,0.05244750824,0,0,0,152.7, -7.3, -2.9,0,0,364,364,364,1679,-100,-100,-100,99,0,0,0,99,,,,,,,0,32,9821.7568323408,0,41,Motors_Started,"Setting new Return-To-Home altitude to 90m (295 ft). Data Recorder File Index is 14. Setting new Maximum Flight Altitude to 120m (394 ft)"
17600,2023-10-08 20:48:37,38.4982826768896,-112.06435350817,0,,,9821.7568323408,0.656168,0,0.06178149804,0.081646656156,19,5,0,9821.7568323408,0,0,0.06178149804,0,0,0,152.7, -7.3, -2.9,0,0,763,715,564,1244,-40,-47,-70,33,0,0,0,99,,,,,,,0,32,9821.7568323408,0,41,Motors_Started,
17700,2023-10-08 20:48:37,38.4982827223027,-112.06435350204,0,,,9821.7568323408,0.656168,0,0.04522309856,0.098308074012,19,5,0,9821.7568323408,0,0,0.06178149804,0,0,0,152.7, -7.3, -2.8,0,0,1024,1024,1024,1024,0,0,0,0,0,0,0,99,,,,,,,0,32,9821.7568323408,0,41,Motors_Started,
17800,2023-10-08 20:48:37,38.4982827027385,-112.064353502116,0,,,9821.7568323408,0.656168,0,0.052358597476,0.105445869516,19,5,0,9821.7568323408,0,0,0.06178149804,0,0,0,152.7, -7.3, -2.9,0,0,1024,1024,1024,1024,0,0,0,0,0,0,0,99,,,,,,,0,32,9821.7568323408,0,41,Motors_Started,
17900,2023-10-08 20:48:37,38.4982827437768,-112.064353496497,0,,,9821.7568323408,0.656168,0,0.037471785976,0.120504268948,19,5,0,9821.7568323408,0,0,0.06178149804,0,0,0,152.7, -7.3, -2.9,0,0,1024,1024,1024,1024,0,0,0,0,0,0,0,99,,,,,,,0,32,9821.7568323408,0,41,Motors_Started,
18000,2023-10-08 20:48:37,38.4982827255862,-112.064353496411,0,,,9821.7568323408,0.656168,0,0.044095473852,0.127141408268,19,5,0,9821.7568323408,0,0,0.06178149804,0,0,0,152.5, -7.4, -2.9,0,0,1024,1024,1024,1024,0,0,0,0,0,0,0,99,,,,,,,0,32,9821.7568323408,0,41,Motors_Started,
18100,2023-10-08 20:48:38,38.4982827586264,-112.064353498099,0,,,9821.7568323408,0.656168,0,0.0320352372456,0.139205713116,19,5,0,9821.7568323408,0,0,0.06178149804,0,0,0,152.5, -7.4, -2.9,0,0,1024,1024,1024,1024,0,0,0,0,0,0,0,99,,,,,,,0,32,9821.7568323408,0,41,Motors_Started,
18200,2023-10-08 20:48:38,38.4982827468827,-112.064353499303,0,,,9821.7568323408,0.656168,0,0.03629101166,0.1435039416,19,5,0,9821.7568323408,0,0,0.06178149804,0,0,0,152.7, -7.3, -2.9,0,0,1024,1024,1024,1024,0,0,0,0,0,0,0,99,,,,,,,0,32,9821.7568323408,0,41,Motors_Started,
18300,2023-10-08 20:48:38,38.4982826254828,-112.06435349681,0,,,9821.7568323408,0.656168,0,0.080576446148,0.187802499448,19,5,0,9821.7568323408,0,0,0.080576446148,0,0,0,152.8, -7.3, -2.9,0,0,1024,1024,1024,1024,0,0,0,0,0,0,0,99,,,,,,,0,32,9821.7568323408,0,41,Motors_Started,
18400,2023-10-08 20:48:38,38.4982826057189,-112.064353496404,0,,,9821.7568323408,0.656168,0,0.0877870763,0.195014113852,19,5,0,9821.7568323408,0,0,0.0877870763,0,0,0,152.8, -7.3, -2.9,0,0,1024,1024,1024,1024,0,0,0,0,0,0,0,99,,,,,,,0,32,9821.7568323408,0,41,Motors_Started,
18500,2023-10-08 20:48:38,38.4982826334143,-112.064353338723,0,,,9821.7568323408,0.656168,0,0.091148953048,0.241158472284,19,5,0,9821.7568323408,0,0,0.091148953048,0,0,0,152.9, -7.3, -2.9,0,0,1024,1024,1024,1024,0,0,0,0,0,0,0,99,,,,,,,0,32,9821.7568323408,0,41,Motors_Started,
18600,2023-10-08 20:48:38,38.4982826165023,-112.06435332731,0,,,9821.7568323408,0.656168,0,0.098113192116,0.24813649088,19,5,0,9821.7568323408,0,0,0.098113192116,0,0,0,152.8, -7.3, -2.9,0,0,1024,1024,1024,1024,0,0,0,0,0,0,0,99,,,,,,,0,32,9821.7568323408,0,41,Motors_Started,
18700,2023-10-08 20:48:38,38.498282501269,-112.064353514558,0,,,9821.7568323408,0.656168,0,0.125877300616,0.316153553424,19,5,0,9821.7568323408,0,0,0.125877300616,0,0,0,152.8, -7.3, -2.9,0,0,1024,1024,1024,1024,0,0,0,0,0,0,0,99,,,,,,,0,32,9821.7568323408,0,41,Motors_Started,
18800,2023-10-08 20:48:38,38.498282475814,-112.064353521962,0,,,9821.7568323408,0.656168,0,0.135217852096,0.325678488112,19,5,0,9821.7568323408,0,0,0.135217852096,0,0,0,152.8, -7.3, -2.9,0,0,1024,1024,1024,1024,0,0,0,0,0,0,0,99,,,,,,,0,32,9821.7568323408,0,41,Motors_Started,
18900,2023-10-08 20:48:38,38.498282520943,-112.064353529902,0,,,9821.7568323408,0.656168,0,0.118872051048,0.34229987972,19,5,0,9821.7568323408,0,0,0.135217852096,0,0,0,152.8, -7.3, -2.8,0,0,1024,1024,1024,1024,0,0,0,0,0,0,0,99,,,,,,,0,32,9821.7568323408,0,41,Motors_Started,
19000,2023-10-08 20:48:38,38.498282501924,-112.064353539275,0,,,9821.7568323408,0.656168,0,0.125974085396,0.349737544,19,5,0,9821.7568323408,0,0,0.135217852096,0,0,0,152.8, -7.3, -2.9,0,0,1024,1024,1024,1024,0,0,0,0,0,0,0,99,,,,,,,0,32,9821.7568323408,0,41,Motors_Started,
19100,2023-10-08 20:48:38,38.4982825442098,-112.064353371121,0,,,9821.7568323408,0.656168,0,0.116718835756,0.40017061648,19,5,0,9821.7568323408,0,0,0.135217852096,0,0,0,152.8, -7.3, -2.9,0,0,1024,1024,1024,1024,0,0,0,0,0,0,0,99,,,,,,,0,32,9821.7568323408,0,10,Assisted_Takeoff,
19200,2023-10-08 20:48:39,38.4982825293758,-112.064353365631,0,,,9821.7568323408,0.656168,0,0.122345476356,0.40580381876,19,5,0,9821.7568323408,0,0,0.135217852096,0,0,0,152.8, -7.3, -2.9,0,0,1024,1024,1024,1024,0,0,0,0,0,0,0,99,,,,,,,0,32,9821.7568323408,0,10,Assisted_Takeoff,
19300,2023-10-08 20:48:39,38.4982823894199,-112.064353385464,0,,,9821.7568323408,0.656168,0,0.17017553038,0.45717849232,19,5,0,9821.7568323408,0,0,0.17017553038,0,0,0,152.7, -7.3, -2.8,0,0,1024,1024,1024,1024,0,0,0,0,0,0,0,99,,,,,,,0,32,9821.7568323408,0,10,Assisted_Takeoff,
19400,2023-10-08 20:48:39,38.4982823641066,-112.064353380429,0,,,9821.7568323408,0.656168,0,0.179511488684,0.46652560548,19,5,0,9821.7568323408,0,0,0.179511488684,0,0,0,152.7, -7.3, -2.8,0,0,1024,1024,1024,1024,0,0,0,0,0,0,0,99,,,,,,,0,32,9821.7568323408,0,10,Assisted_Takeoff,
19500,2023-10-08 20:48:39,38.4982824241151,-112.064353381025,0,,,9821.7568323408,0.656168,0,0.158080385636,0.48842193164,19,5,0,9821.7568323408,0,0,0.179511488684,0,0,0,152.7, -7.3, -2.8,0,0,1024,1024,1024,1024,0,0,0,0,0,0,0,99,,,,,,,0,32,9821.7568323408,0,10,Assisted_Takeoff,
19600,2023-10-08 20:48:39,38.4982824062274,-112.064353376127,0,,,9821.7568323408,0.656168,0,0.16475394228,0.4950951602,19,5,0,9821.7568323408,0,0,0.179511488684,0,0,0,152.8, -7.3, -2.9,0,0,1024,1024,1024,1024,0,0,0,0,0,0,0,99,,,,,,,0,32,9821.7568323408,0,10,Assisted_Takeoff,
19700,2023-10-08 20:48:39,38.4982822866286,-112.064353383407,0,,,9821.7568323408,0.656168,0,0.207141738912,0.5387795448,19,5,0,9821.7568323408,0,0,0.207141738912,0,0,0,152.8, -7.3, -2.9,0,0,1024,1024,1024,1024,0,0,0,0,0,0,0,99,,,,,,,0,32,9821.7568323408,0,10,Assisted_Takeoff,
19800,2023-10-08 20:48:39,38.4982822600592,-112.064353379076,0,,,9821.7568323408,0.656168,0,0.216905518752,0.54855316716,19,5,0,9821.7568323408,0,0,0.216905518752,0,0,0,152.8, -7.3, -2.9,0,0,1024,1024,1024,1024,0,0,0,0,0,0,0,99,,,,,,,0,32,9821.7568323408,0,10,Assisted_Takeoff,
19900,2023-10-08 20:48:39,38.4982823126019,-112.064353387806,0,,,9821.7568323408,0.656168,0,0.197589573252,0.56788387644,19,5,0,9821.7568323408,0,0,0.216905518752,0,0,0,152.8, -7.3, -2.9,0,0,1024,1024,1024,1024,0,0,0,0,0,0,0,99,,,,,,,0,32,9821.7568323408,0,10,Assisted_Takeoff,
20000,2023-10-08 20:48:39,38.4982822919551,-112.064353384898,0,,,9821.7568323408,0.656168,0,0.20515420604,0.57546261684,19,5,0,9821.7568323408,0,0,0.216905518752,0,0,0,152.8, -7.3, -2.9,0,0,1024,1024,1024,1024,0,0,0,0,0,0,0,99,,,,,,,0,32,9821.7568323408,0,10,Assisted_Takeoff,
20100,2023-10-08 20:48:39,38.4982823419603,-112.064353389855,0,,,9821.7568323408,0.656168,0,0.186939966612,0.59376314236,19,5,0,9821.7568323408,0,0,0.216905518752,0,0,0,152.7, -7.3, -2.9,0,0,1024,1024,1024,1024,0,0,0,0,0,0,0,99,,,,,,,0,32,9821.7568323408,0,10,Assisted_Takeoff,
20200,2023-10-08 20:48:40,38.4982823268076,-112.06435338784,0,,,9821.7568323408,0.656168,0,0.192483273876,0.59932088532,19,5,0,9821.7568323408,0,0,0.216905518752,0,0,0,152.7, -7.3, -2.9,0,0,1024,1024,1024,1024,0,0,0,0,0,0,0,99,,,,,,,0,32,9821.7568323408,0,10,Assisted_Takeoff,
20300,2023-10-08 20:48:40,38.4982822037645,-112.064353553183,0,,,9821.7568323408,0.656168,0,0.234785440584,0.6644685252,19,5,0,9821.7568323408,0,0,0.234785440584,0,0,0,152.8, -7.3, -2.8,0,0,1024,1024,1024,1024,0,0,0,0,0,0,0,99,,,,,,,0,32,9821.7568323408,0,10,Assisted_Takeoff,
20400,2023-10-08 20:48:40,38.4982821802853,-112.064353568094,0,,,9821.7568323408,0.656168,0,0.243611228268,0.67403545464,20,5,0,9821.7568323408,0,0,0.243611228268,0,0,0,152.8, -7.3, -2.8,0,0,1024,1024,1024,1024,0,0,0,0,0,0,0,99,,,,,,,0,32,9821.7568323408,0,10,Assisted_Takeoff,
20500,2023-10-08 20:48:40,38.4982822263873,-112.064353551569,0,,,9821.7568323408,0.656168,0,0.226518708036,0.69150592764,20,5,0,9821.7568323408,0,0,0.243611228268,0,0,0,152.8, -7.3, -2.8,0,0,1024,1024,1024,1024,0,0,0,0,0,0,0,99,,,,,,,0,32,9821.7568323408,0,10,Assisted_Takeoff,
20600,2023-10-08 20:48:40,38.498282207687,-112.064353568239,0,,,9821.7568323408,0.656168,0,0.233644364432,0.69982285704,20,5,0,9821.7568323408,0,0,0.243611228268,0,0,0,152.8, -7.3, -2.8,0,0,1024,1024,1024,1024,0,0,0,0,0,0,0,99,,,,,,,0,32,9821.7568323408,0,10,Assisted_Takeoff,
20700,2023-10-08 20:48:40,38.4982820828674,-112.06435355679,0,,,9821.7568323408,0.656168,0,0.278884851444,0.74548230732,20,5,0,9821.7568323408,0,0,0.278884851444,0,0,0,152.8, -7.3, -2.8,0,0,1024,1024,1024,1024,0,0,0,0,0,0,0,99,,,,,,,0,32,9821.7568323408,0,10,Assisted_Takeoff,
20800,2023-10-08 20:48:40,38.4982820552406,-112.064353571735,0,,,9821.7568323408,0.656168,0,0.289197187732,0.75642718956,20,5,0,9821.7568323408,0,0,0.289197187732,0,0,0,152.8, -7.3, -2.9,0,0,1024,1024,1024,1024,0,0,0,0,0,0,0,99,,,,,,,0,32,9821.7568323408,0,10,Assisted_Takeoff,
20900,2023-10-08 20:48:40,38.4982821073792,-112.064353554803,0,,,9821.7568323408,0.656168,0,0.26992454932,0.77605317444,20,5,0,9821.7568323408,0,0,0.289197187732,0,0,0,152.8, -7.3, -2.9,0,0,1024,1024,1024,1024,0,0,0,0,0,0,0,99,,,,,,,0,32,9821.7568323408,0,10,Assisted_Takeoff,
21000,2023-10-08 20:48:40,38.4982820859853,-112.06435356685,0,,,9821.7568323408,0.656168,0,0.277913722804,0.78458335844,20,5,0,9821.7568323408,0,0,0.289197187732,0,0,0,152.8, -7.3, -2.9,0,0,1024,1024,1024,1024,0,0,0,0,0,0,0,99,,,,,,,0,32,9821.7568323408,0,10,Assisted_Takeoff,
21100,2023-10-08 20:48:40,38.4982821306306,-112.06435370373,0,,,9821.7568323408,0.656168,0,0.267118446868,0.82692587948,20,5,0,9821.7568323408,0,0,0.289197187732,0,0,0,152.8, -7.3, -2.8,0,0,1024,1024,1024,1024,0,0,0,0,0,0,0,99,,,,,,,0,32,9821.7568323408,0,10,Assisted_Takeoff,
21200,2023-10-08 20:48:41,38.4982821158799,-112.064353728146,0,,,9821.7568323408,0.656168,0,0.273911426088,0.83573493488,20,5,0,9821.7568323408,0,0,0.289197187732,0,0,0,152.8, -7.3, -2.8,0,0,1024,1024,1024,1024,0,0,0,0,0,0,0,99,,,,,,,0,32,9821.7568323408,0,10,Assisted_Takeoff,
21300,2023-10-08 20:48:41,38.4982821645278,-112.064353675414,0,,,9821.7568323408,0.656168,0,0.253376320444,0.85900921384,20,5,0,9821.7568323408,0,0,0.289197187732,0,0,0,152.8, -7.3, -2.8,0,0,1024,1024,1024,1024,0,0,0,0,0,0,0,99,,,,,,,0,32,9821.7568323408,0,10,Assisted_Takeoff,
21400,2023-10-08 20:48:41,38.4982821574986,-112.064353694353,0,,,9821.7568323408,0.656168,0,0.256971793,0.86499674684,20,5,0,9821.7568323408,0,0,0.289197187732,0,0,0,152.8, -7.3, -2.8,0,0,1024,1024,1024,1024,0,0,0,0,0,0,0,99,,,,,,,0,32,9821.7568323408,0,10,Assisted_Takeoff,
21500,2023-10-08 20:48:41,38.4982821812836,-112.064353661677,0,,,9821.7568323408,0.656168,0,0.246641084008,0.87773624856,20,5,0,9821.7568323408,0,0,0.289197187732,0,0,0,152.8, -7.3, -2.8,0,0,1024,1024,1024,1024,0,0,0,0,0,0,0,99,,,,,,,0,32,9821.7568323408,0,10,Assisted_Takeoff,
21600,2023-10-08 20:48:41,38.498282178003,-112.064353676808,0,,,9821.7568323408,0.656168,0,0.2486302573,0.88222115684,20,5,0,9821.7568323408,0,0,0.289197187732,0,0,0,152.8, -7.3, -2.8,0,0,1024,1024,1024,1024,0,0,0,0,0,0,0,99,,,,,,,0,32,9821.7568323408,0,10,Assisted_Takeoff,
21700,2023-10-08 20:48:41,38.4982821916691,-112.064353810927,0,,,9821.7568323408,0.656168,0,0.254192593436,0.92083992448,20,5,0,9821.7568323408,0,0,0.289197187732,0,0,0,152.9, -7.3, -2.8,0,0,1024,1024,1024,1024,0,0,0,0,0,0,0,99,,,,,,,0,32,9821.7568323408,0,10,Assisted_Takeoff,
21800,2023-10-08 20:48:41,38.4982821924567,-112.064353836342,0,,,9821.7568323408,0.656168,0,0.256502304796,0.92810370424,20,5,0,9821.7568323408,0,0,0.289197187732,0,0,0,152.9, -7.3, -2.9,0,0,1024,1024,1024,1024,0,0,0,0,0,0,0,99,,,,,,,0,32,9821.7568323408,0,10,Assisted_Takeoff,
21900,2023-10-08 20:48:41,38.4982822031344,-112.064353787077,0,,,9821.7568323408,0.656168,0,0.247979338644,0.9427001614,20,5,0,9821.7568323408,0,0,0.289197187732,0,0,0,152.9, -7.3, -2.9,0,0,1024,1024,1024,1024,0,0,0,0,0,0,0,99,,,,,,,0,32,9821.7568323408,0,10,Assisted_Takeoff,
22000,2023-10-08 20:48:41,38.4982822051815,-112.064353808157,0,,,9821.7568323408,0.656168,0,0.249292002728,0.94876643456,20,5,0,9821.7568323408,0,0,0.289197187732,0,0,0,152.9, -7.3, -2.9,0,0,1024,1024,1024,1024,0,0,0,0,0,0,0,99,,,,,,,0,32,9821.7568323408,0,10,Assisted_Takeoff,
22100,2023-10-08 20:48:42,38.4982822045718,-112.064353770757,0,,,9821.7568323408,0.656168,0,0.246011162728,0.95944556876,20,5,0,9821.7568323408,0,0,0.289197187732,0,0,0,152.9, -7.3, -2.8,0,0,1024,1024,1024,1024,0,0,0,0,0,0,0,99,,,,,,,0,32,9821.7568323408,0,10,Assisted_Takeoff,
22200,2023-10-08 20:48:42,38.4982822070537,-112.064353788309,0,,,9821.7568323408,0.656168,0,0.246741477712,0.96454071328,20,5,0,9821.7568323408,0,0,0.289197187732,0,0,0,152.9, -7.3, -2.8,0,0,1024,1024,1024,1024,0,0,0,0,0,0,0,99,,,,,,,0,32,9821.7568323408,0,10,Assisted_Takeoff,
22300,2023-10-08 20:48:42,38.4982822099305,-112.064353755461,0,,,9821.7568323408,0.656168,0,0.242834325356,0.97397968996,20,5,0,9821.7568323408,0,0,0.289197187732,0,0,0,152.9, -7.3, -2.8,0,0,1024,1024,1024,1024,0,0,0,0,0,0,0,99,,,,,,,0,32,9821.7568323408,0,10,Assisted_Takeoff,
22400,2023-10-08 20:48:42,38.4982822146516,-112.064353772013,0,,,9821.7568323408,0.656168,0,0.2426263201,0.97900921768,20,5,0,9821.7568323408,0,0,0.289197187732,0,0,0,152.9, -7.3, -2.8,0,0,1024,1024,1024,1024,0,0,0,0,0,0,0,99,,,,,,,0,32,9821.7568323408,0,10,Assisted_Takeoff,
22500,2023-10-08 20:48:42,38.4982822084913,-112.064353910187,0,,,9821.7568323408,0.656168,0,0.259730323272,1.01852693548,20,5,0,9821.7568323408,0,0,0.289197187732,0,0,0,152.9, -7.3, -2.8,0,0,1024,1024,1024,1024,0,0,0,0,0,0,0,99,,,,,,,0,32,9821.7568323408,0,10,Assisted_Takeoff,
22600,2023-10-08 20:48:42,38.498282212867,-112.064353938847,0,,,9821.7568323408,0.656168,0,0.26206037584,1.02686354992,20,5,0,9821.7568323408,0,0,0.289197187732,0,0,0,153, -7.3, -2.8,0,0,1024,1024,1024,1024,0,0,0,0,0,0,0,99,,,,,,,0,32,9821.7568323408,0,10,Assisted_Takeoff,
22700,2023-10-08 20:48:42,38.498282202712,-112.064353899828,0,,,9821.7568323408,0.656168,0,0.260329404656,1.03860567628,20,5,0,9821.7568323408,0,0,0.289197187732,0,0,0,152.9, -7.3, -2.8,0,0,1024,1024,1024,1024,0,0,0,0,0,0,0,99,,,,,,,0,32,9821.7568323408,0,10,Assisted_Takeoff,
22800,2023-10-08 20:48:42,38.4982822069149,-112.064353922642,0,,,9821.7568323408,0.656168,0,0.261842528064,1.04529858988,20,5,0,9821.7568323408,0,0,0.289197187732,0,0,0,152.9, -7.3, -2.9,0,0,1024,1024,1024,1024,0,0,0,0,0,0,0,99,,,,,,,0,32,9821.7568323408,0,10,Assisted_Takeoff,
22900,2023-10-08 20:48:42,38.4982822013593,-112.064353878013,0,,,9821.7568323408,0.656168,0,0.258149286476,1.0582021336,20,5,0,9821.7568323408,0,0,0.289197187732,0,0,0,153, -7.3, -2.9,0,0,1024,1024,1024,1024,0,0,0,0,0,0,0,99,,,,,,,0,32,9821.7568323408,0,10,Assisted_Takeoff,
23000,2023-10-08 20:48:42,38.498282205011,-112.06435389568,0,,,9821.7568323408,0.656168,0,0.259062344248,1.0634186692,20,5,0,9821.7568323408,0,0,0.289197187732,0,0,0,153, -7.3, -2.9,0,0,1024,1024,1024,1024,0,0,0,0,0,0,0,99,,,,,,,0,32,9821.7568323408,0,10,Assisted_Takeoff,
23100,2023-10-08 20:48:43,38.4982822021182,-112.064353854682,0,,,9821.7568323408,0.656168,0,0.2552247457,1.07517391892,20,5,0,9821.7568323408,0,0,0.289197187732,0,0,0,152.9, -7.3, -2.8,0,0,1024,1024,1024,1024,0,0,0,0,0,0,0,99,,,,,,,0,32,9821.7568323408,0,10,Assisted_Takeoff,
23200,2023-10-08 20:48:43,38.4982822059183,-112.064353866578,0,,,9821.7568323408,0.656168,0,0.255299876936,1.07884189804,20,5,0,9821.7568323408,0,0,0.289197187732,0,0,0,152.9, -7.3, -2.8,0,0,1024,1024,1024,1024,0,0,0,0,0,0,0,99,,,,,,,0,32,9821.7568323408,0,10,Assisted_Takeoff,
23300,2023-10-08 20:48:43,38.4982822024022,-112.064353834736,0,,,9821.7568323408,0.656168,0,0.2529609661,1.0880249692,20,5,0,9821.7568323408,0,0,0.289197187732,0,0,0,152.9, -7.3, -2.8,0,0,1024,1024,1024,1024,0,0,0,0,0,0,0,99,,,,,,,0,32,9821.7568323408,0,10,Assisted_Takeoff,
23400,2023-10-08 20:48:43,38.4982822063633,-112.064353843966,0,,,9821.7568323408,0.656168,0,0.252614509396,1.09103021864,20,5,0,9821.7568323408,0,0,0.289197187732,0,0,0,152.9, -7.3, -2.8,0,0,1024,1024,1024,1024,0,0,0,0,0,0,0,99,,,,,,,0,32,9821.7568323408,0,10,Assisted_Takeoff,
23500,2023-10-08 20:48:43,38.4982822067646,-112.064353820823,0,,,9821.7568323408,0.656168,0,0.250027567056,1.09764111124,20,5,0,9821.7568323408,0,0,0.289197187732,0,0,0,152.9, -7.3, -2.8,0,0,1024,1024,1024,1024,0,0,0,0,0,0,0,99,,,,,,,0,32,9821.7568323408,0,10,Assisted_Takeoff,
23600,2023-10-08 20:48:43,38.4982822111677,-112.064353826326,0,,,9821.7568323408,0.656168,0,0.249102042092,1.09988848664,20,5,0,9821.7568323408,0,0,0.289197187732,0,0,0,152.9, -7.3, -2.9,0,0,1024,1024,1024,1024,0,0,0,0,0,0,0,99,,,,,,,0,32,9821.7568323408,0,10,Assisted_Takeoff,
23700,2023-10-08 20:48:43,38.4982821988842,-112.064353977719,0,,,9821.7568323408,0.656168,0,0.271894365656,1.14334977412,20,5,0,9821.7568323408,0,0,0.289197187732,0,0,0,152.9, -7.3, -2.9,0,0,1024,1024,1024,1024,0,0,0,0,0,0,0,99,,,,,,,0,32,9821.7568323408,0,10,Assisted_Takeoff,
23800,2023-10-08 20:48:43,38.4982822017264,-112.064353996299,0,,,9821.7568323408,0.656168,0,0.273669956264,1.1487533176,20,5,0,9821.7568323408,0,0,0.289197187732,0,0,0,152.9, -7.3, -2.9,0,0,1024,1024,1024,1024,0,0,0,0,0,0,0,99,,,,,,,0,32,9821.7568323408,0,10,Assisted_Takeoff,
23900,2023-10-08 20:48:43,38.4982821993464,-112.06435396242,0,,,9821.7568323408,0.656168,0,0.269609260596,1.15846788484,20,5,0,9821.7568323408,0,0,0.289197187732,0,0,0,152.9, -7.3, -2.9,0,0,1024,1024,1024,1024,0,0,0,0,0,0,0,99,,,,,,,0,32,9821.7568323408,0,10,Assisted_Takeoff,
24000,2023-10-08 20:48:43,38.4982822018939,-112.064353977546,0,,,9821.7568323408,0.656168,0,0.270916675336,1.16288389548,20,5,0,9821.7568323408,0,0,0.289197187732,0,0,0,152.9, -7.3, -2.9,0,0,1024,1024,1024,1024,0,0,0,0,0,0,0,99,,,,,,,0,32,9821.7568323408,0,10,Assisted_Takeoff,
24100,2023-10-08 20:48:43,38.4982820396075,-112.064353946135,0,,,9821.7568323408,0.656168,0,0.320007556172,1.222769068,20,5,0,9821.7568323408,0,0,0.320007556172,0,0,0,152.9, -7.3, -2.9,0,0,1024,1024,1024,1024,0,0,0,0,0,0,0,99,,,,,,,0,32,9821.7568323408,0,10,Assisted_Takeoff,
24200,2023-10-08 20:48:44,38.4982820284113,-112.06435395719,0,,,9821.7568323408,0.656168,0,0.32500657208,1.22793311016,20,5,0,9821.7568323408,0,0,0.32500657208,0,0,0,152.9, -7.3, -2.8,0,0,1024,1024,1024,1024,0,0,0,0,0,0,0,99,,,,,,,0,32,9821.7568323408,0,10,Assisted_Takeoff,
24300,2023-10-08 20:48:44,38.4982820504896,-112.06435393168,0,,,9821.7568323408,0.656168,0,0.314742792224,1.23879269056,20,5,0,9821.7568323408,0,0,0.32500657208,0,0,0,152.9, -7.3, -2.8,0,0,1024,1024,1024,1024,0,0,0,0,0,0,0,99,,,,,,,0,32,9821.7568323408,0,10,Assisted_Takeoff,
24400,2023-10-08 20:48:44,38.4982820408681,-112.064353940016,0,,,9821.7568323408,0.656168,0,0.318901585008,1.24303481668,20,5,0,9821.7568323408,0,0,0.32500657208,0,0,0,152.9, -7.3, -2.8,0,0,1024,1024,1024,1024,0,0,0,0,0,0,0,99,,,,,,,0,32,9821.7568323408,0,10,Assisted_Takeoff,
24500,2023-10-08 20:48:44,38.4982820563373,-112.06435392106,0,,,9821.7568323408,0.656168,0,0.311609918108,1.2508530584,20,5,0,9821.7568323408,0,0,0.32500657208,0,0,0,152.9, -7.3, -2.8,0,0,1024,1024,1024,1024,0,0,0,0,0,0,0,99,,,,,,,0,32,9821.7568323408,0,10,Assisted_Takeoff,
24600,2023-10-08 20:48:44,38.4982820490408,-112.0643539251,0,,,9821.7568323408,0.656168,0,0.314510836836,1.2537566018,20,5,0,9821.7568323408,0,0,0.32500657208,0,0,0,153, -7.2, -2.9,0,0,1024,1024,1024,1024,0,0,0,0,0,0,0,99,,,,,,,0,32,9821.7568323408,0,10,Assisted_Takeoff,
24700,2023-10-08 20:48:44,38.4982820574657,-112.064354072304,0,,,9821.7568323408,0.656168,0,0.3301017166,1.29590227244,20,5,0,9821.7568323408,0,0,0.3301017166,0,0,0,153, -7.3, -2.9,0,0,1024,1024,1024,1024,0,0,0,0,0,0,0,99,,,,,,,0,32,9821.7568323408,0,10,Assisted_Takeoff,
24800,2023-10-08 20:48:44,38.4982820510488,-112.064354086759,0,,,9821.7568323408,0.656168,0,0.33417323904,1.30064636708,20,5,0,9821.7568323408,0,0,0.33417323904,0,0,0,152.9, -7.3, -2.9,0,0,1024,1024,1024,1024,0,0,0,0,0,0,0,99,,,,,,,0,32,9821.7568323408,0,10,Assisted_Takeoff,
24900,2023-10-08 20:48:44,38.4982820637753,-112.0643540519,0,,,9821.7568323408,0.656168,0,0.325263461852,1.3116306194,20,5,0,9821.7568323408,0,0,0.33417323904,0,0,0,152.9, -7.3, -2.9,0,0,1024,1024,1024,1024,0,0,0,0,0,0,0,99,,,,,,,0,32,9821.7568323408,0,10,Assisted_Takeoff,
25000,2023-10-08 20:48:44,38.4982820587166,-112.064354062158,0,,,9821.7568323408,0.656168,0,0.32829069292,1.3150919056,20,5,0,9821.7568323408,0,0,0.33417323904,0,0,0,152.9, -7.3, -2.9,0,0,1024,1024,1024,1024,0,0,0,0,0,0,0,99,,,,,,,0,32,9821.7568323408,0,10,Assisted_Takeoff,
25100,2023-10-08 20:48:44,38.4982820750632,-112.06435403052,0,,,9821.7568323408,0.656168,0,0.318741151932,1.32591539676,20,5,0,9821.7568323408,0,0,0.33417323904,0,0,0,152.9, -7.3, -2.9,0,0,1024,1024,1024,1024,0,0,0,0,0,0,0,99,,,,,,,0,32,9821.7568323408,0,10,Assisted_Takeoff,
25200,2023-10-08 20:48:45,38.4982820718634,-112.064354038077,0,,,9821.7568323408,0.656168,0,0.320788396092,1.32836946508,20,5,0,9821.7568323408,0,0,0.33417323904,0,0,0,152.9, -7.3, -2.9,0,0,1024,1024,1024,1024,0,0,0,0,0,0,0,99,,,,,,,0,32,9821.7568323408,0,10,Assisted_Takeoff,
25300,2023-10-08 20:48:45,38.4982820810414,-112.064354019023,0,,,9821.7568323408,0.656168,0,0.31527888148,1.33475726056,20,5,0,9821.7568323408,0,0,0.33417323904,0,0,0,152.9, -7.3, -2.8,0,0,1024,1024,1024,1024,0,0,0,0,0,0,0,99,,,,,,,0,32,9821.7568323408,0,10,Assisted_Takeoff,
25400,2023-10-08 20:48:45,38.4982820791818,-112.064354023535,0,,,9821.7568323408,0.656168,0,0.316479340836,1.33621395352,20,5,0,9821.7568323408,0,0,0.33417323904,0,0,0,152.9, -7.3, -2.8,0,0,1024,1024,1024,1024,0,0,0,0,0,0,0,99,,,,,,,0,32,9821.7568323408,0,10,Assisted_Takeoff,
25500,2023-10-08 20:48:45,38.4982819260367,-112.06435401256,0,,,9821.7568323408,0.656168,0,0.36556431616,1.39217852224,20,5,0,9821.7568323408,0,0,0.36556431616,0,0,0,152.9, -7.3, -2.8,0,0,1024,1024,1024,1024,0,0,0,0,0,0,0,99,,,,,,,0,32,9821.7568323408,0,10,Assisted_Takeoff,
25600,2023-10-08 20:48:45,38.4982819112803,-112.064354015197,0,,,9821.7568323408,0.656168,0,0.37081037932,1.39761487412,20,5,0,9821.7568323408,0,0,0.37081037932,0,0,0,152.9, -7.3, -2.9,0,0,1024,1024,1024,1024,0,0,0,0,0,0,0,99,,,,,,,0,32,9821.7568323408,0,10,Assisted_Takeoff,
25700,2023-10-08 20:48:45,38.4982819363286,-112.064354006932,0,,,9821.7568323408,0.656168,0,0.36147967036,1.40705056996,20,5,0,9821.7568323408,0,0,0.37081037932,0,0,0,152.9, -7.3, -2.9,0,0,1024,1024,1024,1024,0,0,0,0,0,0,0,99,,,,,,,0,32,9821.7568323408,0,10,Assisted_Takeoff,
25800,2023-10-08 20:48:45,38.498281924354,-112.064354007291,0,,,9821.7568323408,0.656168,0,0.36553806944,1.41142392968,20,5,0,9821.7568323408,0,0,0.37081037932,0,0,0,152.9, -7.3, -2.9,0,0,1024,1024,1024,1024,0,0,0,0,0,0,0,99,,,,,,,0,32,9821.7568323408,0,10,Assisted_Takeoff,
25900,2023-10-08 20:48:45,38.4982819484456,-112.06435400348,0,,,9821.7568323408,0.656168,0,0.35703085132,1.42027891684,20,5,0,9821.7568323408,0,0,0.37081037932,0,0,0,152.9, -7.3, -2.9,0,0,1024,1024,1024,1024,0,0,0,0,0,0,0,99,,,,,,,0,32,9821.7568323408,0,10,Assisted_Takeoff,
26000,2023-10-08 20:48:45,38.4982819379268,-112.064354003453,0,,,9821.7568323408,0.656168,0,0.36055447348,1.42411749964,20,5,0,9821.7568323408,0,0,0.37081037932,0,0,0,152.9, -7.3, -2.9,0,0,1024,1024,1024,1024,0,0,0,0,0,0,0,99,,,,,,,0,32,9821.7568323408,0,10,Assisted_Takeoff,
26100,2023-10-08 20:48:45,38.4982819593233,-112.064353997898,0,,,9821.7568323408,0.656168,0,0.3527559168,1.43208337916,20,5,0,9821.7568323408,0,0,0.37081037932,0,0,0,152.9, -7.3, -2.9,0,0,1024,1024,1024,1024,0,0,0,0,0,0,0,99,,,,,,,0,32,9821.7568323408,0,10,Assisted_Takeoff,
26200,2023-10-08 20:48:46,38.4982819513606,-112.064353996131,0,,,9821.7568323408,0.656168,0,0.35522310848,1.43503285432,20,5,0,9821.7568323408,0,0,0.37081037932,0,0,0,152.9, -7.3, -2.9,0,0,1024,1024,1024,1024,0,0,0,0,0,0,0,99,,,,,,,0,32,9821.7568323408,0,10,Assisted_Takeoff,
26300,2023-10-08 20:48:46,38.4982819627255,-112.064353994596,0,,,9821.7568323408,0.656168,0,0.35124344956,1.43920280196,20,5,0,9821.7568323408,0,0,0.37081037932,0,0,0,152.9, -7.3, -2.8,0,0,1024,1024,1024,1024,0,0,0,0,0,0,0,99,,,,,,,0,32,9821.7568323408,0,10,Assisted_Takeoff,
26400,2023-10-08 20:48:46,38.4982819559468,-112.064353993623,0,,,9821.7568323408,0.656168,0,0.35340552312,1.44168967868,20,5,0,9821.7568323408,0,0,0.37081037932,0,0,0,152.9, -7.3, -2.8,0,0,1024,1024,1024,1024,0,0,0,0,0,0,0,99,,,,,,,0,32,9821.7568323408,0,10,Assisted_Takeoff,
26500,2023-10-08 20:48:46,38.498281966125,-112.064353995272,0,,,9821.7568323408,0.656168,0,0.3501804574,1.44543311712,20,5,0,9821.7568323408,0,0,0.37081037932,0,0,0,152.9, -7.3, -2.8,0,0,1024,1024,1024,1024,0,0,0,0,0,0,0,99,,,,,,,0,32,9821.7568323408,0,10,Assisted_Takeoff,
26600,2023-10-08 20:48:46,38.4982819617447,-112.064353991526,0,,,9821.7568323408,0.656168,0,0.35122376452,1.44735568936,20,5,0,9821.7568323408,0,0,0.37081037932,0,0,0,152.9, -7.3, -2.8,0,0,1024,1024,1024,1024,0,0,0,0,0,0,0,99,,,,,,,0,32,9821.7568323408,0,10,Assisted_Takeoff,
26700,2023-10-08 20:48:46,38.4982819735847,-112.064353994651,0,,,9821.7568323408,0.656168,0,0.34761812136,1.45176841916,20,5,0,9821.7568323408,0,0,0.37081037932,0,0,0,152.9, -7.3, -2.9,0,0,1024,1024,1024,1024,0,0,0,0,0,0,0,99,,,,,,,0,32,9821.7568323408,0,10,Assisted_Takeoff,
26800,2023-10-08 20:48:46,38.498281970875,-112.064353991266,0,,,9821.7568323408,0.656168,0,0.34813649408,1.4531496528,20,5,0,9821.7568323408,0,0,0.37081037932,0,0,0,153, -7.3, -2.9,0,0,1024,1024,1024,1024,0,0,0,0,0,0,0,99,,,,,,,0,32,9821.7568323408,0,10,Assisted_Takeoff,
26900,2023-10-08 20:48:46,38.4982818171392,-112.064353992374,0,,,9821.7568323408,0.656168,0,0.40032481596,1.50924217428,20,5,0,9821.7568323408,0,0,0.40032481596,0,0,0,152.9, -7.3, -2.9,0,0,1024,1024,1024,1024,0,0,0,0,0,0,0,99,,,,,,,0,32,9821.7568323408,0,10,Assisted_Takeoff,
27000,2023-10-08 20:48:46,38.4982818001096,-112.064353989202,0,,,9821.7568323408,0.656168,0,0.40584975052,1.51552170204,19,5,0,9821.7568323408,0,0,0.40584975052,0,0,0,152.9, -7.3, -2.9,0,0,1024,1024,1024,1024,0,0,0,0,0,0,0,99,,,,,,,0,32,9821.7568323408,0,10,Assisted_Takeoff,
27100,2023-10-08 20:48:46,38.498281832236,-112.064353992646,0,,,9821.7568323408,0.656168,0,0.39519030136,1.52728351344,19,5,0,9821.7568323408,0,0,0.40584975052,0,0,0,152.9, -7.3, -2.8,0,0,1024,1024,1024,1024,0,0,0,0,0,0,0,99,,,,,,,0,32,9821.7568323408,0,10,Assisted_Takeoff,
27200,2023-10-08 20:48:47,38.4982818186736,-112.064353989665,0,,,9821.7568323408,0.656168,0,0.39953085268,1.53230319864,19,5,0,9821.7568323408,0,0,0.40584975052,0,0,0,152.9, -7.3, -2.8,0,0,1024,1024,1024,1024,0,0,0,0,0,0,0,99,,,,,,,0,32,9821.7568323408,0,10,Assisted_Takeoff,
27300,2023-10-08 20:48:47,38.4982816875317,-112.064353992889,0,,,9821.7568323408,0.656168,0,0.44502298012,1.58016081172,19,5,0,9821.7568323408,0,0,0.44502298012,0,0,0,152.9, -7.3, -2.8,0,0,1024,1024,1024,1024,0,0,0,0,0,0,0,99,,,,,,,0,32,9821.7568323408,0,10,Assisted_Takeoff,
27400,2023-10-08 20:48:47,38.4982816629058,-112.06435399202,0,,,9821.7568323408,0.656168,0,0.45349082816,1.58914703248,20,5,0,9821.7568323408,0,0,0.45349082816,0,0,0,152.9, -7.3, -2.8,0,0,1024,1024,1024,1024,0,0,0,0,0,0,0,99,,,,,,,0,32,9821.7568323408,0,10,Assisted_Takeoff,
27500,2023-10-08 20:48:47,38.4982817061699,-112.06435400004,0,,,9821.7568323408,0.656168,0,0.43921917416,1.60509847656,20,5,0,9821.7568323408,0,0,0.45349082816,0,0,0,152.9, -7.3, -2.8,0,0,1024,1024,1024,1024,0,0,0,0,0,0,0,99,,,,,,,0,32,9821.7568323408,0,10,Assisted_Takeoff,
27600,2023-10-08 20:48:47,38.4982816868037,-112.064353999786,0,,,9821.7568323408,0.656168,0,0.44589568356,1.61216540592,20,5,0,9821.7568323408,0,0,0.45349082816,0,0,0,152.9, -7.3, -2.8,0,0,1024,1024,1024,1024,0,0,0,0,0,0,0,99,,,,,,,0,32,9821.7568323408,0,10,Assisted_Takeoff,
27700,2023-10-08 20:48:47,38.4982817272509,-112.064353843799,0,,,9821.7568323408,0.656168,0,0.41949476408,1.65908469876,20,5,0,9821.7568323408,0,0,0.45349082816,0,0,0,152.9, -7.3, -2.9,0,0,1024,1024,1024,1024,0,0,0,0,0,0,0,99,,,,,,,0,32,9821.7568323408,0,10,Assisted_Takeoff,
27800,2023-10-08 20:48:47,38.4982817128505,-112.06435383035,0,,,9821.7568323408,0.656168,0,0.42375657524,1.66559388532,20,5,0,9821.7568323408,0,0,0.45349082816,0,0,0,153, -7.3, -2.9,0,0,1024,1024,1024,1024,0,0,0,0,0,0,0,99,,,,,,,0,32,9821.7568323408,0,10,Assisted_Takeoff,
27900,2023-10-08 20:48:47,38.4982815848752,-112.06435401922,0,,,9821.7568323408,0.656168,0,0.4829724564,1.73692918944,20,5,0,9821.7568323408,0,0,0.4829724564,0,0,0,152.9, -7.3, -2.9,0,0,1024,1024,1024,1024,0,0,0,0,0,0,0,99,,,,,,,0,32,9821.7568323408,0,10,Assisted_Takeoff,
28000,2023-10-08 20:48:47,38.4982815579444,-112.064354024797,0,,,9821.7568323408,0.656168,0,0.49282153808,1.74687997716,20,5,0,9821.7568323408,0,0,0.49282153808,0,0,0,152.9, -7.3, -2.9,0,0,1024,1024,1024,1024,0,0,0,0,0,0,0,99,,,,,,,0,32,9821.7568323408,0,10,Assisted_Takeoff,
28100,2023-10-08 20:48:47,38.4982815987292,-112.064354026393,0,,,9821.7568323408,0.656168,0,0.4787893854,1.76176842908,20,5,0,9821.7568323408,0,0,0.49282153808,0,0,0,152.9, -7.3, -2.9,0,0,1024,1024,1024,1024,0,0,0,0,0,0,0,99,,,,,,,0,32,9821.7568323408,0,10,Assisted_Takeoff,
28200,2023-10-08 20:48:48,38.4982815771697,-112.064354031091,0,,,9821.7568323408,0.656168,0,0.48668636728,1.76974743196,19,5,0,9821.7568323408,0,0,0.49282153808,0,0,0,152.9, -7.3, -2.8,0,0,1024,1024,1024,1024,0,0,0,0,0,0,0,99,,,,,,,0,32,9821.7568323408,0,10,Assisted_Takeoff,
28300,2023-10-08 20:48:48,38.4982814658448,-112.064353860249,0,,,9821.7568323408,0.656168,0,0.51368768048,1.83322512428,19,5,0,9821.7568323408,0,0,0.51368768048,0,0,0,152.9, -7.3, -2.8,0,0,1024,1024,1024,1024,0,0,0,0,0,0,0,99,,,,,,,0,32,9821.7568323408,0,10,Assisted_Takeoff,
28400,2023-10-08 20:48:48,38.4982814366182,-112.064353848971,0,,,9821.7568323408,0.656168,0,0.52353348132,1.84436685692,20,5,0,9821.7568323408,0,0,0.52353348132,0,0,0,152.9, -7.3, -2.9,0,0,1024,1024,1024,1024,0,0,0,0,0,0,0,99,,,,,,,0,32,9821.7568323408,0,10,Assisted_Takeoff,
28500,2023-10-08 20:48:48,38.4982814928295,-112.064353863682,0,,,9821.7568323408,0.656168,0,0.50423558044,1.86529861612,20,5,0,9821.7568323408,0,0,0.52353348132,0,0,0,152.9, -7.3, -2.9,0,0,1024,1024,1024,1024,0,0,0,0,0,0,0,99,,,,,,,0,32,9821.7568323408,0,10,Assisted_Takeoff,
28600,2023-10-08 20:48:48,38.4982814699626,-112.064353853469,0,,,9821.7568323408,0.656168,0,0.51183728672,1.87413719908,19,5,0,9821.7568323408,0,0,0.52353348132,0,0,0,152.9, -7.3, -2.9,0,0,1024,1024,1024,1024,0,0,0,0,0,0,0,99,,,,,,,0,32,9821.7568323408,0,10,Assisted_Takeoff,
28700,2023-10-08 20:48:48,38.4982815177395,-112.064353872958,0,,,9821.7568323408,0.656168,0,0.49589240432,1.89243444376,19,5,0,9821.7568323408,0,0,0.52353348132,0,0,0,152.9, -7.3, -2.9,0,0,1024,1024,1024,1024,0,0,0,0,0,0,0,99,,,,,,,0,32,9821.7568323408,0,10,Assisted_Takeoff,
28800,2023-10-08 20:48:48,38.498281501354,-112.064353863659,0,,,9821.7568323408,0.656168,0,0.50119096092,1.89897643872,19,5,0,9821.7568323408,0,0,0.52353348132,0,0,0,152.9, -7.3, -2.9,0,0,1024,1024,1024,1024,0,0,0,0,0,0,0,99,,,,,,,0,32,9821.7568323408,0,10,Assisted_Takeoff,
28900,2023-10-08 20:48:48,38.4982815379468,-112.064353874515,0,,,9821.7568323408,0.656168,0,0.48878610488,1.91268378824,19,5,0,9821.7568323408,0,0,0.52353348132,0,0,0,152.9, -7.3, -2.9,0,0,1024,1024,1024,1024,0,0,0,0,0,0,0,99,,,,,,,0,32,9821.7568323408,0,10,Assisted_Takeoff,
29000,2023-10-08 20:48:48,38.4982815250137,-112.064353866366,0,,,9821.7568323408,0.656168,0,0.49290355908,1.91794297476,19,5,0,9821.7568323408,0,0,0.52353348132,0,0,0,152.9, -7.3, -2.9,0,0,1024,1024,1024,1024,0,0,0,0,0,0,0,99,,,,,,,0,32,9821.7568323408,0,10,Assisted_Takeoff,
29100,2023-10-08 20:48:48,38.4982813951522,-112.064353878207,0,,,9821.7568323408,0.656168,0,0.53998361308,1.96544625712,19,5,0,9821.7568323408,0,0,0.53998361308,0,0,0,152.9, -7.3, -2.9,0,0,1024,1024,1024,1024,0,0,0,0,0,0,0,99,,,,,,,0,32,9821.7568323408,0,10,Assisted_Takeoff,
29200,2023-10-08 20:48:49,38.498281371721,-112.064353871176,0,,,9821.7568323408,0.656168,0,0.547982301,1.97422578496,19,5,0,9821.7568323408,0,0,0.547982301,0,0,0,152.9, -7.3, -2.8,0,0,1024,1024,1024,1024,0,0,0,0,0,0,0,99,,,,,,,0,32,9821.7568323408,0,10,Assisted_Takeoff,
29300,2023-10-08 20:48:49,38.4982814211529,-112.064353882161,0,,,9821.7568323408,0.656168,0,0.53091537132,1.99253287216,19,5,0,9821.7568323408,0,0,0.547982301,0,0,0,152.9, -7.3, -2.8,0,0,1024,1024,1024,1024,0,0,0,0,0,0,0,99,,,,,,,0,32,9821.7568323408,0,10,Assisted_Takeoff,
29400,2023-10-08 20:48:49,38.4982814040706,-112.064353877643,0,,,9821.7568323408,0.656168,0,0.5367618282,1.99889770176,19,5,0,9821.7568323408,0,0,0.547982301,0,0,0,152.9, -7.3, -2.8,0,0,1024,1024,1024,1024,0,0,0,0,0,0,0,99,,,,,,,0,32,9821.7568323408,0,10,Assisted_Takeoff,
29500,2023-10-08 20:48:49,38.4982814372443,-112.06435388892,0,,,9821.7568323408,0.656168,0,0.52556432128,2.01142066804,19,5,0,9821.7568323408,0,0,0.547982301,0,0,0,152.9, -7.3, -2.9,0,0,1024,1024,1024,1024,0,0,0,0,0,0,0,99,,,,,,,0,32,9821.7568323408,0,10,Assisted_Takeoff,
29600,2023-10-08 20:48:49,38.4982814246091,-112.064353886522,0,,,9821.7568323408,0.656168,0,0.52993440016,2.01608274168,19,5,0,9821.7568323408,0,0,0.547982301,0,0,0,152.9, -7.3, -2.8,0,0,1024,1024,1024,1024,0,0,0,0,0,0,0,99,,,,,,,0,32,9821.7568323408,0,10,Assisted_Takeoff,
29700,2023-10-08 20:48:49,38.4982814509953,-112.064353903156,0,,,9821.7568323408,0.656168,0,0.52152560724,2.02681765016,19,5,0,9821.7568323408,0,0,0.547982301,0,0,0,152.9, -7.3, -2.9,0,0,1024,1024,1024,1024,0,0,0,0,0,0,0,99,,,,,,,0,32,9821.7568323408,0,10,Assisted_Takeoff,
29800,2023-10-08 20:48:49,38.4982814423154,-112.064353902287,0,,,9821.7568323408,0.656168,0,0.52456366508,2.02999350328,19,5,0,9821.7568323408,0,0,0.547982301,0,0,0,152.9, -7.3, -2.9,0,0,1024,1024,1024,1024,0,0,0,0,0,0,0,99,,,,,,,0,32,9821.7568323408,0,10,Assisted_Takeoff,
29900,2023-10-08 20:48:49,38.498281468808,-112.064353904774,0,,,9821.7568323408,0.656168,0,0.5152887304,2.03968510464,19,5,0,9821.7568323408,0,0,0.547982301,0,0,0,152.9, -7.3, -2.9,0,0,1024,1024,1024,1024,0,0,0,0,0,0,0,99,,,,,,,0,32,9821.7568323408,0,10,Assisted_Takeoff,
30000,2023-10-08 20:48:49,38.4982814643303,-112.064353903244,0,,,9821.7568323408,0.656168,0,0.51678479344,2.04137473724,19,5,0,9821.7568323408,0,0,0.547982301,0,0,0,152.9, -7.3, -2.9,0,0,1024,1024,1024,1024,0,0,0,0,0,0,0,99,,,,,,,0,32,9821.7568323408,0,10,Assisted_Takeoff,
30100,2023-10-08 20:48:50,38.4982814803481,-112.064353903533,0,,,9821.7568323408,0.656168,0,0.51110237856,2.04722119412,19,5,0,9821.7568323408,0,0,0.547982301,0,0,0,152.9, -7.3, -2.9,0,0,1024,1024,1024,1024,0,0,0,0,0,0,0,99,,,,,,,0,32,9821.7568323408,0,10,Assisted_Takeoff,
30200,2023-10-08 20:48:50,38.4982814783867,-112.064353900883,0,,,9821.7568323408,0.656168,0,0.51163387464,2.0482612204,19,5,0,9821.7568323408,0,0,0.547982301,0,0,0,152.9, -7.3, -2.8,0,0,1024,1024,1024,1024,0,0,0,0,0,0,0,99,,,,,,,0,32,9821.7568323408,0,10,Assisted_Takeoff,
30300,2023-10-08 20:48:50,38.4982814927885,-112.064353739169,0,,,9821.7568323408,0.656168,0,0.49826773248,2.09473759984,19,5,0,9821.7568323408,0,0,0.547982301,0,0,0,152.9, -7.3, -2.8,0,0,1024,1024,1024,1024,0,0,0,0,0,0,0,99,,,,,,,0,32,9821.7568323408,0,10,Assisted_Takeoff,
30400,2023-10-08 20:48:50,38.4982814935591,-112.064353722919,0,,,9821.7568323408,0.656168,0,0.49738846736,2.09938326928,19,5,0,9821.7568323408,0,0,0.547982301,0,0,0,152.9, -7.3, -2.8,0,0,1024,1024,1024,1024,0,0,0,0,0,0,0,99,,,,,,,0,32,9821.7568323408,0,10,Assisted_Takeoff,
30500,2023-10-08 20:48:50,38.4982814970787,-112.06435374586,0,,,9821.7568323408,0.656168,0,0.49697508152,2.10605977868,19,5,0,9821.7568323408,0,0,0.547982301,0,0,0,152.9, -7.3, -2.8,0,0,1024,1024,1024,1024,0,0,0,0,0,0,0,99,,,,,,,0,32,9821.7568323408,0,10,Assisted_Takeoff,
30600,2023-10-08 20:48:50,38.4982814991897,-112.064353731514,0,,,9821.7568323408,0.656168,0,0.49566274552,2.11022972632,20,5,0,9821.7568323408,0,0,0.547982301,0,0,0,152.9, -7.3, -2.9,0,0,1024,1024,1024,1024,0,0,0,0,0,0,0,99,,,,,,,0,32,9821.7568323408,0,10,Assisted_Takeoff,
30700,2023-10-08 20:48:50,38.4982815011479,-112.064353761171,0,,,9821.7568323408,0.656168,0,0.4961286248,2.11872710192,20,5,0,9821.7568323408,0,0,0.547982301,0,0,0,152.9, -7.3, -2.9,0,0,1024,1024,1024,1024,0,0,0,0,0,0,0,99,,,,,,,0,32,9821.7568323408,0,10,Assisted_Takeoff,
30800,2023-10-08 20:48:50,38.4982815047477,-112.064353750629,0,,,9821.7568323408,0.656168,0,0.49439634128,2.12201122276,19,5,0,9821.7568323408,0,0,0.547982301,0,0,0,152.9, -7.3, -2.9,0,0,1024,1024,1024,1024,0,0,0,0,0,0,0,99,,,,,,,0,32,9821.7568323408,0,10,Assisted_Takeoff,
30900,2023-10-08 20:48:50,38.4982813470665,-112.064353774561,0,,,9821.7568323408,0.656168,0,0.55231629064,2.17994429548,19,5,0,9821.7568323408,0,0,0.55231629064,0,0,0,152.9, -7.3, -2.9,0,0,1024,1024,1024,1024,0,0,0,0,0,0,0,99,,,,,,,0,32,9821.7568323408,0,10,Assisted_Takeoff,
31000,2023-10-08 20:48:50,38.4982813364539,-112.064353767528,0,,,9821.7568323408,0.656168,0,0.55587600204,2.18430781268,19,5,0,9821.7568323408,0,0,0.55587600204,0,0,0,152.9, -7.3, -2.9,0,0,1024,1024,1024,1024,0,0,0,0,0,0,0,99,,,,,,,0,32,9821.7568323408,0,10,Assisted_Takeoff,
31100,2023-10-08 20:48:50,38.4982815165663,-112.064353784636,0,,,9821.7568323408,0.656168,0,0.49160434644,2.25020348408,19,5,0,9821.7568323408,0,0,0.55587600204,0,0,0,152.9, -7.3, -2.9,0,0,1024,1024,1024,1024,0,0,0,0,0,0,0,99,,,,,,,0,32,9821.7568323408,0,10,Assisted_Takeoff,
31200,2023-10-08 20:48:51,38.4982815228005,-112.064353780438,0,,,9821.7568323408,0.656168,0,0.48916668232,2.2527723818,20,5,0,9821.7568323408,0,0,0.55587600204,0,0,0,152.9, -7.3, -2.9,0,0,1024,1024,1024,1024,0,0,0,0,0,0,0,99,,,,,,,0,32,9821.7568323408,0,10,Assisted_Takeoff,
31300,2023-10-08 20:48:51,38.4982815167701,-112.064353794207,0,,,9821.7568323408,0.656168,0,0.49198164304,2.25727697512,20,5,0,9821.7568323408,0,0,0.55587600204,0,0,0,152.8, -7.3, -2.8,0,0,1024,1024,1024,1024,0,0,0,0,0,0,0,99,,,,,,,0,32,9821.7568323408,0,10,Assisted_Takeoff,
31400,2023-10-08 20:48:51,38.4982815229829,-112.064353792345,0,,,9821.7568323408,0.656168,0,0.48965880832,2.25960637152,20,5,0,9821.7568323408,0,0,0.55587600204,0,0,0,152.8, -7.3, -2.8,0,0,1024,1024,1024,1024,0,0,0,0,0,0,0,99,,,,,,,0,32,9821.7568323408,0,10,Assisted_Takeoff,
31500,2023-10-08 20:48:51,38.4982815201364,-112.0643537981,0,,,9821.7568323408,0.656168,0,0.49095802096,2.26155190964,20,5,0,9821.7568323408,0,0,0.55587600204,0,0,0,152.8, -7.3, -2.8,0,0,1024,1024,1024,1024,0,0,0,0,0,0,0,99,,,,,,,0,32,9821.7568323408,0,10,Assisted_Takeoff,
31600,2023-10-08 20:48:51,38.4982815287846,-112.064353796882,0,,,9821.7568323408,0.656168,0,0.48778872952,2.26472448192,20,5,0,9821.7568323408,0,0,0.55587600204,0,0,0,152.8, -7.3, -2.8,0,0,1024,1024,1024,1024,0,0,0,0,0,0,0,99,,,,,,,0,32,9821.7568323408,0,10,Assisted_Takeoff,
31700,2023-10-08 20:48:51,38.498281360887,-112.064353803994,0,,,9821.7568323408,0.656168,0,0.54856300968,2.3260171348,20,5,0,9821.7568323408,0,0,0.55587600204,0,0,0,152.9, -7.3, -2.9,0,0,1024,1024,1024,1024,0,0,0,0,0,0,0,99,,,,,,,0,32,9821.7568323408,0,10,Assisted_Takeoff,
31800,2023-10-08 20:48:51,38.4982813534804,-112.064353804869,0,,,9821.7568323408,0.656168,0,0.55126970268,2.32873038948,20,5,0,9821.7568323408,0,0,0.55587600204,0,0,0,152.9, -7.3, -2.9,0,0,1024,1024,1024,1024,0,0,0,0,0,0,0,99,,,,,,,0,32,9821.7568323408,0,10,Assisted_Takeoff,
31900,2023-10-08 20:48:51,38.4982815259133,-112.064353813045,0,,,9821.7568323408,0.656168,0,0.48962599992,2.39168642824,20,5,0,9821.7568323408,0,0,0.55587600204,0,0,0,152.9, -7.3, -2.9,0,0,1024,1024,1024,1024,0,0,0,0,0,0,0,99,,,,,,,0,32,9821.7568323408,0,10,Assisted_Takeoff,
32000,2023-10-08 20:48:51,38.4982815324115,-112.064353817076,0,,,9821.7568323408,0.656168,0,0.48750329644,2.39432094276,20,5,0,9821.7568323408,0,0,0.55587600204,0,0,0,152.9, -7.3, -2.9,0,0,1024,1024,1024,1024,0,0,0,0,0,0,0,99,,,,,,,0,32,9821.7568323408,0,10,Assisted_Takeoff,
32100,2023-10-08 20:48:51,38.4982813598798,-112.064353819083,0,,,9821.7568323408,0.656168,0,0.54960959764,2.45727041984,20,5,0,9821.7568323408,0,0,0.55587600204,0,0,0,152.9, -7.3, -2.9,0,0,1024,1024,1024,1024,0,0,0,0,0,0,0,99,,,,,,,0,32,9821.7568323408,0,10,Assisted_Takeoff,
32200,2023-10-08 20:48:52,38.4982813514042,-112.064353824809,0,,,9821.7568323408,0.656168,0,0.55292980772,2.46076779528,20,5,0,9821.7568323408,0,0,0.55587600204,0,0,0,152.9, -7.3, -2.9,0,0,1024,1024,1024,1024,0,0,0,0,0,0,0,99,,,,,,,0,32,9821.7568323408,0,10,Assisted_Takeoff,
32300,2023-10-08 20:48:52,38.4982815191288,-112.064353825937,0,,,9821.7568323408,0.656168,0,0.4927329554,2.5219653038,20,5,0,9821.7568323408,0,0,0.55587600204,0,0,0,152.9, -7.3, -2.9,0,0,1024,1024,1024,1024,0,0,0,0,0,0,0,99,,,,,,,0,32,9821.7568323408,0,10,Assisted_Takeoff,
32400,2023-10-08 20:48:52,38.4982815246352,-112.064353834358,0,,,9821.7568323408,0.656168,0,0.49121064564,2.525098506,20,5,0,9821.7568323408,0,0,0.55587600204,0,0,0,152.8, -7.3, -2.8,0,0,1024,1024,1024,1024,0,0,0,0,0,0,0,99,,,,,,,0,32,9821.7568323408,0,10,Assisted_Takeoff,
32500,2023-10-08 20:48:52,38.4982815144331,-112.064353831658,0,,,9821.7568323408,0.656168,0,0.49472114444,2.52889771872,20,5,0,9821.7568323408,0,0,0.55587600204,0,0,0,152.9, -7.3, -2.8,0,0,1024,1024,1024,1024,0,0,0,0,0,0,0,99,,,,,,,0,32,9821.7568323408,0,10,Assisted_Takeoff,
32600,2023-10-08 20:48:52,38.4982815192825,-112.064353839388,0,,,9821.7568323408,0.656168,0,0.49340224676,2.53172908364,20,5,0,9821.7568323408,0,0,0.55587600204,0,0,0,152.9, -7.3, -2.8,0,0,1024,1024,1024,1024,0,0,0,0,0,0,0,99,,,,,,,0,32,9821.7568323408,0,10,Assisted_Takeoff,
32700,2023-10-08 20:48:52,38.4982815113737,-112.064353831729,0,,,9821.7568323408,0.656168,0,0.49582022584,2.53534785016,20,5,0,9821.7568323408,0,0,0.55587600204,0,0,0,152.9, -7.3, -2.9,0,0,1024,1024,1024,1024,0,0,0,0,0,0,0,99,,,,,,,0,32,9821.7568323408,0,10,Assisted_Takeoff,
32800,2023-10-08 20:48:52,38.4982815147631,-112.064353839354,0,,,9821.7568323408,0.656168,0,0.49501970088,2.53785113108,20,5,0,9821.7568323408,0,0,0.55587600204,0,0,0,152.9, -7.3, -2.9,0,0,1024,1024,1024,1024,0,0,0,0,0,0,0,99,,,,,,,0,32,9821.7568323408,0,10,Assisted_Takeoff,
32900,2023-10-08 20:48:52,38.4982813379428,-112.064353832071,0,,,9821.7568323408,0.656168,0,0.55811681576,2.60239837724,20,5,0,9821.7568323408,0,0,0.55811681576,0,0,0,152.9, -7.3, -2.9,0,0,1024,1024,1024,1024,0,0,0,0,0,0,0,99,,,,,,,0,32,9821.7568323408,0,10,Assisted_Takeoff,
33000,2023-10-08 20:48:52,38.498281325201,-112.064353839218,0,,,9821.7568323408,0.656168,0,0.5630413566,2.60747711756,20,5,0,9821.7568323408,0,0,0.5630413566,0,0,0,152.9, -7.3, -2.9,0,0,1024,1024,1024,1024,0,0,0,0,0,0,0,99,,,,,,,0,32,9821.7568323408,0,10,Assisted_Takeoff,
33100,2023-10-08 20:48:52,38.4982813447206,-112.064353670017,0,,,9821.7568323408,0.656168,0,0.5498195714,2.65631242096,20,5,0,9821.7568323408,0,0,0.5630413566,0,0,0,152.9, -7.3, -2.9,0,0,1024,1024,1024,1024,0,0,0,0,0,0,0,99,,,,,,,0,32,9821.7568323408,0,10,Assisted_Takeoff,
33200,2023-10-08 20:48:53,38.4982813336585,-112.064353662483,0,,,9821.7568323408,0.656168,0,0.55366143504,2.66088591192,20,5,0,9821.7568323408,0,0,0.5630413566,0,0,0,152.9, -7.3, -2.9,0,0,1024,1024,1024,1024,0,0,0,0,0,0,0,99,,,,,,,0,32,9821.7568323408,0,10,Assisted_Takeoff,
33300,2023-10-08 20:48:53,38.4982813574601,-112.06435367329,0,,,9821.7568323408,0.656168,0,0.54526904632,2.67010179148,20,5,0,9821.7568323408,0,0,0.5630413566,0,0,0,152.9, -7.3, -2.9,0,0,1024,1024,1024,1024,0,0,0,0,0,0,0,99,,,,,,,0,32,9821.7568323408,0,10,Assisted_Takeoff,
33400,2023-10-08 20:48:53,38.4982813497625,-112.064353666377,0,,,9821.7568323408,0.656168,0,0.54789699916,2.67353355012,20,5,0,9821.7568323408,0,0,0.5630413566,0,0,0,152.8, -7.3, -2.8,0,0,1024,1024,1024,1024,0,0,0,0,0,0,0,99,,,,,,,0,32,9821.7568323408,0,10,Assisted_Takeoff,
33500,2023-10-08 20:48:53,38.4982813654872,-112.06435367829,0,,,9821.7568323408,0.656168,0,0.54248033232,2.68020349784,20,5,0,9821.7568323408,0,0,0.5630413566,0,0,0,152.8, -7.3, -2.8,0,0,1024,1024,1024,1024,0,0,0,0,0,0,0,99,,,,,,,0,32,9821.7568323408,0,10,Assisted_Takeoff,
33600,2023-10-08 20:48:53,38.4982813595529,-112.064353673558,0,,,9821.7568323408,0.656168,0,0.54451445312,2.68275599136,20,5,0,9821.7568323408,0,0,0.5630413566,0,0,0,152.8, -7.3, -2.8,0,0,1024,1024,1024,1024,0,0,0,0,0,0,0,99,,,,,,,0,32,9821.7568323408,0,10,Assisted_Takeoff,
33700,2023-10-08 20:48:53,38.4982815354714,-112.064353681349,0,,,9821.7568323408,0.656168,0,0.4808399104,2.74697843436,20,5,0,9821.7568323408,0,0,0.5630413566,0,0,0,152.8, -7.3, -2.9,0,0,1024,1024,1024,1024,0,0,0,0,0,0,0,99,,,,,,,0,32,9821.7568323408,0,10,Assisted_Takeoff,
33800,2023-10-08 20:48:53,38.4982815458469,-112.064353675426,0,,,9821.7568323408,0.656168,0,0.47689962156,2.75112541612,20,5,0,9821.7568323408,0,0,0.5630413566,0,0,0,152.8, -7.3, -2.9,0,0,1024,1024,1024,1024,0,0,0,0,0,0,0,99,,,,,,,0,32,9821.7568323408,0,10,Assisted_Takeoff,
33900,2023-10-08 20:48:53,38.4982815281584,-112.064353687378,0,,,9821.7568323408,0.656168,0,0.48367455616,2.75842528512,20,5,0,9821.7568323408,0,0,0.5630413566,0,0,0,152.8, -7.3, -2.9,0,0,1024,1024,1024,1024,0,0,0,0,0,0,0,99,,,,,,,0,32,9821.7568323408,0,10,Assisted_Takeoff,
34000,2023-10-08 20:48:53,38.4982815367178,-112.064353683044,0,,,9821.7568323408,0.656168,0,0.48043636708,2.76178486528,20,5,0,9821.7568323408,0,0,0.5630413566,0,0,0,152.8, -7.3, -2.9,0,0,1024,1024,1024,1024,0,0,0,0,0,0,0,99,,,,,,,0,32,9821.7568323408,0,10,Assisted_Takeoff,
34100,2023-10-08 20:48:54,38.498281526117,-112.06435369058,0,,,9821.7568323408,0.656168,0,0.4845144512,2.76621071844,20,5,0,9821.7568323408,0,0,0.5630413566,0,0,0,152.8, -7.3, -2.9,0,0,1024,1024,1024,1024,0,0,0,0,0,0,0,99,,,,,,,0,32,9821.7568323408,0,10,Assisted_Takeoff,
34200,2023-10-08 20:48:54,38.4982815330369,-112.064353688796,0,,,9821.7568323408,0.656168,0,0.48194883432,2.76878617784,20,5,0,9821.7568323408,0,0,0.5630413566,0,0,0,152.8, -7.3, -2.9,0,0,1024,1024,1024,1024,0,0,0,0,0,0,0,99,,,,,,,0,32,9821.7568323408,0,10,Assisted_Takeoff,
34300,2023-10-08 20:48:54,38.4982815264851,-112.064353691355,0,,,9821.7568323408,0.656168,0,0.48440290264,2.77128617792,20,5,0,9821.7568323408,0,0,0.5630413566,0,0,0,152.8, -7.3, -2.8,0,0,1024,1024,1024,1024,0,0,0,0,0,0,0,99,,,,,,,0,32,9821.7568323408,0,10,Assisted_Takeoff,
34400,2023-10-08 20:48:54,38.4982815341714,-112.064353689327,0,,,9821.7568323408,0.656168,0,0.48155185268,2.7741470704,20,5,0,9821.7568323408,0,0,0.5630413566,0,0,0,152.8, -7.3, -2.8,0,0,1024,1024,1024,1024,0,0,0,0,0,0,0,99,,,,,,,0,32,9821.7568323408,0,10,Assisted_Takeoff,
34500,2023-10-08 20:48:54,38.4982815191805,-112.064353696821,0,,,9821.7568323408,0.656168,0,0.48722442504,2.78002305484,20,5,0,9821.7568323408,0,0,0.5630413566,0,0,0,152.8, -7.3, -2.8,0,0,1024,1024,1024,1024,0,0,0,0,0,0,0,99,,,,,,,0,32,9821.7568323408,0,10,Assisted_Takeoff,
34600,2023-10-08 20:48:54,38.498281525593,-112.064353696248,0,,,9821.7568323408,0.656168,0,0.48488190528,2.7823655746,20,5,0,9821.7568323408,0,0,0.5630413566,0,0,0,152.8, -7.3, -2.8,0,0,1024,1024,1024,1024,0,0,0,0,0,0,0,99,,,,,,,0,32,9821.7568323408,0,10,Assisted_Takeoff,
34700,2023-10-08 20:48:54,38.4982813578281,-112.064353699803,0,,,9821.7568323408,0.656168,0,0.545849755,2.843586049,20,5,0,9821.7568323408,0,0,0.5630413566,0,0,0,152.8, -7.3, -2.8,0,0,1024,1024,1024,1024,0,0,0,0,0,0,0,99,,,,,,,0,32,9821.7568323408,0,10,Assisted_Takeoff,
34800,2023-10-08 20:48:54,38.498281349328,-112.064353699516,0,,,9821.7568323408,0.656168,0,0.54892718292,2.8466864428,20,5,0,9821.7568323408,0,0,0.5630413566,0,0,0,152.8, -7.3, -2.9,0,0,1024,1024,1024,1024,0,0,0,0,0,0,0,99,,,,,,,0,32,9821.7568323408,0,10,Assisted_Takeoff,
34900,2023-10-08 20:48:54,38.4982813616968,-112.064353704312,0,,,9821.7568323408,0.656168,0,0.54458006992,2.85140429072,20,5,0,9821.7568323408,0,0,0.5630413566,0,0,0,152.8, -7.3, -2.9,0,0,1024,1024,1024,1024,0,0,0,0,0,0,0,99,,,,,,,0,32,9821.7568323408,0,10,Assisted_Takeoff,
35000,2023-10-08 20:48:54,38.4982813538874,-112.064353705142,0,,,9821.7568323408,0.656168,0,0.54743768156,2.85426190236,20,5,0,9821.7568323408,0,0,0.5630413566,0,0,0,152.8, -7.3, -2.9,0,0,1024,1024,1024,1024,0,0,0,0,0,0,0,99,,,,,,,0,32,9821.7568323408,0,10,Assisted_Takeoff,
35100,2023-10-08 20:48:54,38.4982813658037,-112.064353709143,0,,,9821.7568323408,0.656168,0,0.54323492552,2.85875665316,20,5,0,9821.7568323408,0,0,0.5630413566,0,0,0,152.9, -7.3, -2.9,0,0,1024,1024,1024,1024,0,0,0,0,0,0,0,99,,,,,,,0,32,9821.7568323408,0,10,Assisted_Takeoff,
35200,2023-10-08 20:48:55,38.4982813587604,-112.064353711068,0,,,9821.7568323408,0.656168,0,0.545849755,2.861384606,20,5,0,9821.7568323408,0,0,0.5630413566,0,0,0,152.8, -7.3, -2.8,0,0,1024,1024,1024,1024,0,0,0,0,0,0,0,99,,,,,,,0,32,9821.7568323408,0,10,Assisted_Takeoff,
35300,2023-10-08 20:48:55,38.4982815333935,-112.064353547727,0,,,9821.7568323408,0.656168,0,0.47913059276,2.94034786312,20,5,0,9821.7568323408,0,0,0.5630413566,0,0,0,152.8, -7.3, -2.8,0,0,1024,1024,1024,1024,0,0,0,0,0,0,0,99,,,,,,,0,32,9821.7568323408,0,10,Assisted_Takeoff,
35400,2023-10-08 20:48:55,38.4982815428074,-112.064353535493,0,,,9821.7568323408,0.656168,0,0.4756233748,2.94524615724,20,5,0,9821.7568323408,0,0,0.5630413566,0,0,0,152.8, -7.3, -2.8,0,0,1024,1024,1024,1024,0,0,0,0,0,0,0,99,,,,,,,0,32,9821.7568323408,0,10,Assisted_Takeoff,
35500,2023-10-08 20:48:55,38.4982813661355,-112.064353718216,0,,,9821.7568323408,0.656168,0,0.54339568668,3.02817266908,20,5,0,9821.7568323408,0,0,0.5630413566,0,0,0,152.8, -7.3, -2.8,0,0,1024,1024,1024,1024,0,0,0,0,0,0,0,99,,,,,,,0,32,9821.7568323408,0,10,Assisted_Takeoff,
35600,2023-10-08 20:48:55,38.4982813597762,-112.064353723572,0,,,9821.7568323408,0.656168,0,0.54587600172,3.03095154056,20,5,0,9821.7568323408,0,0,0.5630413566,0,0,0,152.8, -7.3, -2.8,0,0,1024,1024,1024,1024,0,0,0,0,0,0,0,99,,,,,,,0,32,9821.7568323408,0,10,Assisted_Takeoff,
35700,2023-10-08 20:48:55,38.4982813668529,-112.064353565361,0,,,9821.7568323408,0.656168,0,0.5400098598,3.07620088584,20,5,0,9821.7568323408,0,0,0.5630413566,0,0,0,152.8, -7.3, -2.8,0,0,1024,1024,1024,1024,0,0,0,0,0,0,0,99,,,,,,,0,32,9821.7568323408,0,10,Assisted_Takeoff,
35800,2023-10-08 20:48:55,38.4982813610288,-112.064353557224,0,,,9821.7568323408,0.656168,0,0.54206694648,3.07935049224,20,5,0,9821.7568323408,0,0,0.5630413566,0,0,0,152.8, -7.3, -2.8,0,0,1024,1024,1024,1024,0,0,0,0,0,0,0,99,,,,,,,0,32,9821.7568323408,0,10,Assisted_Takeoff,
35900,2023-10-08 20:48:55,38.4982813717016,-112.064353574323,0,,,9821.7568323408,0.656168,0,0.53833006972,3.0855972116,20,5,0,9821.7568323408,0,0,0.5630413566,0,0,0,152.8, -7.3, -2.9,0,0,1024,1024,1024,1024,0,0,0,0,0,0,0,99,,,,,,,0,32,9821.7568323408,0,10,Assisted_Takeoff,
36000,2023-10-08 20:48:55,38.4982813667904,-112.064353568065,0,,,9821.7568323408,0.656168,0,0.5400590724,3.08812673924,20,5,0,9821.7568323408,0,0,0.5630413566,0,0,0,152.9, -7.3, -2.9,0,0,1024,1024,1024,1024,0,0,0,0,0,0,0,99,,,,,,,0,32,9821.7568323408,0,10,Assisted_Takeoff,
36100,2023-10-08 20:48:55,38.4982813761715,-112.064353584217,0,,,9821.7568323408,0.656168,0,0.5368110408,3.09386820924,20,5,0,9821.7568323408,0,0,0.5630413566,0,0,0,152.9, -7.3, -2.9,0,0,1024,1024,1024,1024,0,0,0,0,0,0,0,99,,,,,,,0,32,9821.7568323408,0,10,Assisted_Takeoff,
36200,2023-10-08 20:48:56,38.4982813709021,-112.064353580554,0,,,9821.7568323408,0.656168,0,0.53868768128,3.09605981036,20,5,0,9821.7568323408,0,0,0.5630413566,0,0,0,152.8, -7.3, -2.8,0,0,1024,1024,1024,1024,0,0,0,0,0,0,0,99,,,,,,,0,32,9821.7568323408,0,10,Assisted_Takeoff,
36300,2023-10-08 20:48:56,38.498281378978,-112.06435359013,0,,,9821.7568323408,0.656168,0,0.5358595972,3.10007883936,20,5,0,9821.7568323408,0,0,0.5630413566,0,0,0,152.8, -7.3, -2.8,0,0,1024,1024,1025,1024,0,0,0,0,0,0,0,99,,,,,,,0,32,9821.7568323408,0,10,Assisted_Takeoff,
36400,2023-10-08 20:48:56,38.498281374051,-112.064353587229,0,,,9821.7568323408,0.656168,0,0.53761812744,3.10205718588,20,5,0,9821.7568323408,0,0,0.5630413566,0,0,0,152.8, -7.3, -2.8,0,0,1024,1024,1049,1024,0,0,4,0,0,0,0,99,,,,,,,0,32,9821.7568323408,0,10,Assisted_Takeoff,
36500,2023-10-08 20:48:56,38.4982813816303,-112.064353589493,0,,,9821.7568323408,0.656168,0,0.53488518772,3.10489839332,20,5,0,9821.7568323408,0,0,0.5630413566,0,0,0,152.8, -7.3, -2.8,0,0,1024,1024,1085,1024,0,0,9,0,0,0,0,99,,,,,,,0,32,9821.7568323408,0,10,Assisted_Takeoff,
36600,2023-10-08 20:48:56,38.4982813787832,-112.064353585277,0,,,9821.7568323408,0.656168,0,0.53586943972,3.10648631988,20,5,0,9821.7568323408,0,0,0.5630413566,0,0,0,152.8, -7.3, -2.8,0,0,1024,1024,1097,1024,0,0,11,0,0,0,0,99,,,,,,,0,32,9821.7568323408,0,10,Assisted_Takeoff,
36700,2023-10-08 20:48:56,38.4982813852942,-112.064353590921,0,,,9821.7568323408,0.656168,0,0.53356957088,3.10935705488,20,5,0,9821.7568323408,0,0,0.5630413566,0,0,0,152.9, -7.3, -2.8,0,0,1024,1024,1095,1024,0,0,11,0,0,0,0,99,,,,,,,0,32,9821.7568323408,0,10,Assisted_Takeoff,
36800,2023-10-08 20:48:56,38.4982813834923,-112.064353588811,0,,,9821.7568323408,0.656168,0,0.53419621132,3.11024944336,20,5,0,9821.7568323408,0,0,0.5630413566,0,0,0,152.9, -7.3, -2.9,0,0,1024,1024,1024,1024,0,0,0,0,0,0,0,99,,,,,,,0,32,9821.7568323408,0,10,Assisted_Takeoff,
36900,2023-10-08 20:48:56,38.4982813886271,-112.064353598689,0,,,9821.7568323408,0.656168,0,0.53245736612,3.11363527024,20,5,0,9821.7568323408,0,0,0.5630413566,0,0,0,152.8, -7.2, -2.9,0,0,1024,1024,1141,1024,0,0,18,0,0,0,0,99,,,,,,,0,32,9821.7568323408,0,10,Assisted_Takeoff,
37000,2023-10-08 20:48:56,38.4982813853376,-112.064353598813,0,,,9821.7568323408,0.656168,0,0.53365815356,3.11483605768,20,5,0,9821.7568323408,0,0,0.5630413566,0,0,0,152.8, -7.3, -2.8,0,0,1024,1024,1317,1024,0,0,44,0,0,0,0,99,,,,,,,0,32,9821.7568323408,0,10,Assisted_Takeoff,
37100,2023-10-08 20:48:56,38.4982813884211,-112.06435360564,0,,,9821.7568323408,0.656168,0,0.53263781232,3.11708671392,20,5,0,9821.7568323408,0,0,0.5630413566,0,0,0,152.8, -7.3, -2.8,0,0,1024,1024,1594,1024,0,0,86,0,0,0,0,99,,,,,,,0,32,9821.7568323408,0,10,Assisted_Takeoff,
37200,2023-10-08 20:48:57,38.4982813888867,-112.064353606777,0,,,9821.7568323408,0.656168,0,0.53248361284,3.117454168,20,5,0,9821.7568323408,0,0,0.5630413566,0,0,0,152.8, -7.2, -2.8,0,0,1024,1024,1684,1024,0,0,100,0,0,0,0,99,,,,,,,0,32,9821.7568323408,0,10,Assisted_Takeoff,
37300,2023-10-08 20:48:57,38.4982812280713,-112.064353605858,0,,,9821.7568323408,0.656168,0,0.59106629188,3.17612871056,20,5,0,9821.7568323408,0,0,0.59106629188,0,0,0,152.9, -7.3, -2.8,0,0,1024,1024,1684,1024,0,0,100,0,0,0,0,99,,,,,,,0,32,9821.7568323408,0,10,Assisted_Takeoff,"Manned aircraft detected nearby. Fly with caution"
37400,2023-10-08 20:48:57,38.4982812125699,-112.064353606549,0,,,9821.7568323408,0.656168,0,0.59672574088,3.18178815956,20,5,0,9821.7568323408,0,0,0.59672574088,0,0,0,152.9, -7.3, -2.8,0,0,1024,1024,1684,1024,0,0,100,0,0,0,0,99,,,,,,,0,32,9821.7568323408,0,10,Assisted_Takeoff,
37500,2023-10-08 20:48:57,38.498281243019,-112.064353605137,0,,,9821.7568323408,0.656168,0,0.58561025496,3.19290364548,20,5,0,9821.7568323408,0,0,0.59672574088,0,0,0,152.9, -7.4, -2.8,0,0,1024,1024,1684,1024,0,0,100,0,0,0,0,99,,,,,,,0,32,9821.7568323408,0,10,Assisted_Takeoff,
37600,2023-10-08 20:48:57,38.4982812287289,-112.06435360224,0,,,9821.7568323408,0.656168,0,0.59077757796,3.19818251704,20,5,0,9821.7568323408,0,0,0.59672574088,0,0,0,152.9, -7.5, -2.7,0,0,1024,1024,1684,1024,0,0,100,0,0,0,0,99,,,,,,,0,32,9821.7568323408,0,10,Assisted_Takeoff,
37700,2023-10-08 20:48:57,38.4982812253168,-112.0643535875,0,,,9821.7568323408,0.656168,0,0.59184057012,3.20257228096,20,5,0,9821.7568323408,0,0,0.59672574088,0,0,0,153, -7.6, -2.7,0,0,1024,1024,1684,1024,0,0,100,0,0,0,0,99,,,,,,,0,32,9821.7568323408,0,10,Assisted_Takeoff,
37800,2023-10-08 20:48:57,38.4982811867356,-112.064353538003,0,,,9821.7568323408,0.656168,0,0.6055282346,3.22251978816,20,5,0,9821.7568323408,0,0,0.6055282346,0,0,0,153.5, -7.9, -2.7,0,0,1024,1024,1684,1024,0,0,100,0,0,0,0,99,,,,,,,0,32,9821.7568323408,0,10,Assisted_Takeoff,
37900,2023-10-08 20:48:57,38.4982811320466,-112.064353428018,0,,,9821.7568323408,0.656168,0,0.62581038748,3.2597277946,20,5,0,9821.7568323408,0,0,0.62581038748,-0.223694,0.223694,0,154.3, -7.5, -2.4,0,0,1024,1024,1684,1024,0,0,100,0,0,0,0,99,,,,,,,0,32,9821.7568323408,0,10,Assisted_Takeoff,
38000,2023-10-08 20:48:57,38.4982809484289,-112.064353213367,0,,,9821.7568323408,0.656168,0.6263432,0.69742784384,3.3505250416,20,5,0,9821.7568323408,0,0.6263432,0.69742784384,-0.447388,0.447388,-0.223694,154.6, -5.7, -1.5,0,0,1024,1024,1684,1024,0,0,100,0,0,0,0,99,,,,,,,0,32,9821.7568323408,0,10,Assisted_Takeoff,
38100,2023-10-08 20:48:58,38.4982805621094,-112.064352924174,0,,,9821.7568323408,0.656168,0.8052984,0.84975068336,3.5138780652,20,5,0,9821.7568323408,0,0.8052984,0.84975068336,-0.671082,0.447388,-0.447388,154.2, -3, -0.1,0,0,1024,1024,1684,1024,0,0,100,0,0,0,0,99,,,,,,,0,32,9821.7568323408,0,6,P-GPS,
38200,2023-10-08 20:48:58,38.4982802205696,-112.064352559504,0,,,9821.7568323408,0.984252,0.9395148,0.99535436256,3.6762796452,20,5,0,9821.7568323408,0,0.9395148,0.99535436256,-0.671082,0.671082,-0.671082,153.5, 0.6, 1.2,0,0,1024,1024,1684,1024,0,0,100,0,0,0,0,99,,,,,,,0,32,9821.7568323408,0,6,P-GPS,
38300,2023-10-08 20:48:58,38.4982799268296,-112.064351995604,0,,,9821.7568323408,0.984252,1.11847,1.14913389504,3.8696851632,20,5,0,9821.7568323408,0,1.11847,1.14913389504,-0.894776,0.671082,-1.11847,153.2, 4, 2.2,0,0,1024,1024,1684,1024,0,0,100,0,0,0,0,99,,,,,,,0,32,9821.7568323408,0,6,P-GPS,
