time(millisecond),datetime(utc),latitude,longitude,height_above_takeoff(feet),height_above_ground_at_drone_location(feet),ground_elevation_at_drone_location(feet),altitude_above_seaLevel(feet),height_sonar(feet),speed(mph),distance(feet),mileage(feet),satellites,gpslevel,voltage(v),max_altitude(feet),max_ascent(feet),max_speed(mph),max_distance(feet), xSpeed(mph), ySpeed(mph), zSpeed(mph), compass_heading(degrees), pitch(degrees), roll(degrees),isPhoto,isVideo,rc_elevator,rc_aileron,rc_throttle,rc_rudder,rc_elevator(percent),rc_aileron(percent),rc_throttle(percent),rc_rudder(percent),gimbal_heading(degrees),gimbal_pitch(degrees),gimbal_roll(degrees),battery_percent,voltageCell1,voltageCell2,voltageCell3,voltageCell4,voltageCell5,voltageCell6,current(A),battery_temperature(f),altitude(feet),ascent(feet),flycStateRaw,flycState,message
0,2023-10-09 18:35:03,38.4981393596677,-112.064412145835,0,Available with any HD 360 subscription,Available with any HD 360 subscription,9820.0178910122,0.656168,0,0,0,17,5,0,9820.0178910122,0,0,0,0,0,0,312.8, 5.8, 0.8,0,0,1024,1024,1024,1024,0,0,0,0,0,0,0,100,3.965,3.973,3.977,3.971,3.986,3.982,0,32,9820.0178910122,0,41,Motors_Started,
100,2023-10-09 18:35:03,38.498139359885,-112.064412162488,0,,,9820.0178910122,0.656168,0,0.0047556103884,0.0047556103884,17,5,0,9820.0178910122,0,0,0.0047556103884,0,0,0,312.8, 5.8, 0.8,0,0,364,399,364,1660,-100,-95,-100,96,0,0,0,100,3.965,3.973,3.977,3.971,3.986,3.982,0,32,9820.0178910122,0,41,Motors_Started,
200,2023-10-09 18:35:03,38.4981393618298,-112.064412131396,0,,,9820.0178910122,0.656168,0,0.0041978019716,0.0136618770776,17,5,0,9820.0178910122,0,0,0.0047556103884,0,0,0,312.8, 5.8, 0.8,0,0,364,396,364,1660,-100,-95,-100,96,0,0,0,100,3.965,3.973,3.977,3.971,3.986,3.982,0,32,9820.0178910122,0,41,Motors_Started,
300,2023-10-09 18:35:03,38.498139362716,-112.064412144049,0,,,9820.0178910122,0.656168,0,0.0012236056822,0.0172891409732,17,5,0,9820.0178910122,0,0,0.0047556103884,0,0,0,312.8, 5.8, 0.8,0,0,364,399,364,1659,-100,-95,-100,96,0,0,0,100,3.965,3.973,3.977,3.971,3.986,3.982,0,32,9820.0178910122,0,41,Motors_Started,"Setting new Return-To-Home altitude to 90m (295 ft). Data Recorder File Index is 18. Setting new Maximum Flight Altitude to 120m (394 ft)"
400,2023-10-09 18:35:04,38.4981393609695,-112.064412116973,0,,,9820.0178910122,0.656168,0,0.008255085566,0.0250465559196,17,5,0,9820.0178910122,0,0,0.008255085566,0,0,0,312.8, 5.8, 0.8,0,0,364,406,364,1656,-100,-94,-100,96,0,0,0,100,3.965,3.973,3.977,3.971,3.986,3.982,0,32,9820.0178910122,0,41,Motors_Started,
500,2023-10-09 18:35:04,38.498139362529,-112.064412126398,0,,,9820.0178910122,0.656168,0,0.0056476051676,0.0277972121756,17,5,0,9820.0178910122,0,0,0.008255085566,0,0,0,312.8, 5.8, 0.8,0,0,364,408,364,1656,-100,-93,-100,96,0,0,0,100,3.965,3.973,3.977,3.971,3.986,3.982,0,32,9820.0178910122,0,41,Motors_Started,
600,2023-10-09 18:35:04,38.4981393626306,-112.064412258126,0,,,9820.0178910122,0.656168,0,0.0320819235988,0.065411091332,17,5,0,9820.0178910122,0,0,0.0320819235988,0,0,0,312.8, 5.9, 0.9,0,0,364,476,443,1517,-100,-83,-88,75,0,0,0,100,3.965,3.973,3.977,3.971,3.986,3.982,0,32,9820.0178910122,0,41,Motors_Started,
700,2023-10-09 18:35:04,38.4981393651553,-112.064412278432,0,,,9820.0178910122,0.656168,0,0.037914699376,0.071282154512,17,5,0,9820.0178910122,0,0,0.037914699376,0,0,0,312.8, 5.8, 0.9,0,0,1024,1024,1024,1024,0,0,0,0,0,0,0,100,3.965,3.973,3.977,3.971,3.986,3.982,0,32,9820.0178910122,0,41,Motors_Started,
800,2023-10-09 18:35:04,38.4981393642769,-112.064412240584,0,,,9820.0178910122,0.656168,0,0.0271068906312,0.082093834648,17,5,0,9820.0178910122,0,0,0.037914699376,0,0,0,312.8, 5.8, 0.8,0,0,1024,1024,1024,1024,0,0,0,0,0,0,0,100,3.965,3.973,3.977,3.971,3.986,3.982,0,32,9820.0178910122,0,41,Motors_Started,
900,2023-10-09 18:35:04,38.4981393648393,-112.064412252661,0,,,9820.0178910122,0.656168,0,0.030561352684,0.085548559168,17,5,0,9820.0178910122,0,0,0.037914699376,0,0,0,312.9, 5.8, 0.9,0,0,1024,1024,1024,1024,0,0,0,0,0,0,0,100,3.965,3.973,3.977,3.971,3.986,3.982,0,32,9820.0178910122,0,41,Motors_Started,
1000,2023-10-09 18:35:04,38.4981393629442,-112.064412217577,0,,,9820.0178910122,0.656168,0,0.02052001378,0.095590226156,17,5,0,9820.0178910122,0,0,0.037914699376,0,0,0,313, 5.9, 0.9,0,0,1024,1024,1024,1024,0,0,0,0,0,0,0,100,3.965,3.973,3.977,3.971,3.986,3.982,0,32,9820.0178910122,0,41,Motors_Started,
1100,2023-10-09 18:35:04,38.4981393631526,-112.064412222693,0,,,9820.0178910122,0.656168,0,0.0219828419108,0.097053152712,17,5,0,9820.0178910122,0,0,0.037914699376,0,0,0,312.8, 5.9, 0.9,0,0,1024,1024,1024,1024,0,0,0,0,0,0,0,100,3.965,3.973,3.977,3.971,3.986,3.982,0,32,9820.0178910122,0,41,Motors_Started,
1200,2023-10-09 18:35:04,38.4981393551885,-112.064412195,0,,,9820.0178910122,0.656168,0,0.0141332681688,0.105477693664,17,5,0,9820.0178910122,0,0,0.037914699376,0,0,0,312.7, 5.9, 0.9,0,0,1024,1024,1024,1024,0,0,0,0,0,0,0,100,3.965,3.973,3.977,3.971,3.986,3.982,0,32,9820.0178910122,0,41,Motors_Started,
1300,2023-10-09 18:35:04,38.4981393573398,-112.064412199307,0,,,9820.0178910122,0.656168,0,0.0152919624316,0.106936683212,17,5,0,9820.0178910122,0,0,0.037914699376,0,0,0,312.8, 5.9, 0.9,0,0,1024,1024,1024,1024,0,0,0,0,0,0,0,100,3.965,3.973,3.977,3.971,3.986,3.982,0,32,9820.0178910122,0,41,Motors_Started,
1400,2023-10-09 18:35:05,38.4981393584447,-112.064412340949,0,,,9820.0178910122,0.656168,0,0.055714896796,0.147383206816,17,5,0,9820.0178910122,0,0,0.055714896796,0,0,0,312.9, 5.9, 0.9,0,0,1024,1024,1024,1024,0,0,0,0,0,0,0,100,3.965,3.973,3.977,3.971,3.986,3.982,0,32,9820.0178910122,0,41,Motors_Started,
1500,2023-10-09 18:35:05,38.4981393577743,-112.064412357872,0,,,9820.0178910122,0.656168,0,0.060549214536,0.152221461564,17,5,0,9820.0178910122,0,0,0.060549214536,0,0,0,312.9, 5.9, 0.9,0,0,1024,1024,1024,1024,0,0,0,0,0,0,0,100,3.965,3.973,3.977,3.971,3.986,3.982,0,32,9820.0178910122,0,41,Motors_Started,
1600,2023-10-09 18:35:05,38.4981393511424,-112.064412182897,0,,,9820.0178910122,0.656168,0,0.0110303809304,0.20224246054,17,5,0,9820.0178910122,0,0,0.060549214536,0,0,0,312.8, 5.9, 0.9,0,0,1024,1024,1024,1024,0,0,0,0,0,0,0,100,3.965,3.973,3.977,3.971,3.986,3.982,0,32,9820.0178910122,0,41,Motors_Started,
1700,2023-10-09 18:35:05,38.4981393505065,-112.064412184164,0,,,9820.0178910122,0.656168,0,0.0114433730696,0.20267225058,17,5,0,9820.0178910122,0,0,0.060549214536,0,0,0,312.8, 6, 0.9,0,0,1024,1024,1024,1024,0,0,0,0,0,0,0,100,3.965,3.973,3.977,3.971,3.986,3.982,0,32,9820.0178910122,0,41,Motors_Started,
1800,2023-10-09 18:35:05,38.4981393627589,-112.064412335671,0,,,9820.0178910122,0.656168,0,0.054217849504,0.246164049872,17,5,0,9820.0178910122,0,0,0.060549214536,0,0,0,312.8, 6, 0.9,0,0,1024,1024,1024,1024,0,0,0,0,0,0,0,100,3.965,3.973,3.977,3.971,3.986,3.982,0,32,9820.0178910122,0,41,Motors_Started,
1900,2023-10-09 18:35:05,38.4981393643216,-112.064412349745,0,,,9820.0178910122,0.656168,0,0.05824967378,0.25022310512,17,5,0,9820.0178910122,0,0,0.060549214536,0,0,0,312.8, 5.9, 0.9,0,0,1024,1024,1024,1024,0,0,0,0,0,0,0,100,3.965,3.973,3.977,3.971,3.986,3.982,0,32,9820.0178910122,0,41,Motors_Started,
2000,2023-10-09 18:35:05,38.4981393559062,-112.06441231571,0,,,9820.0178910122,0.656168,0,0.048525592104,0.26041503458,17,5,0,9820.0178910122,0,0,0.060549214536,0,0,0,312.8, 6, 0.9,0,0,1024,1024,1024,1024,0,0,0,0,0,0,0,100,3.965,3.973,3.977,3.971,3.986,3.982,0,32,9820.0178910122,0,10,Assisted_Takeoff,
2100,2023-10-09 18:35:05,38.4981393590775,-112.064412323603,0,,,9820.0178910122,0.656168,0,0.050760500312,0.262948499228,17,5,0,9820.0178910122,0,0,0.060549214536,0,0,0,312.8, 6, 0.9,0,0,1024,1024,1024,1024,0,0,0,0,0,0,0,100,3.965,3.973,3.977,3.971,3.986,3.982,0,32,9820.0178910122,0,10,Assisted_Takeoff,
2200,2023-10-09 18:35:05,38.4981393647985,-112.064412302817,0,,,9820.0178910122,0.656168,0,0.04486384658,0.269239838012,17,5,0,9820.0178910122,0,0,0.060549214536,0,0,0,312.8, 5.9, 0.9,0,0,1024,1024,1024,1024,0,0,0,0,0,0,0,100,3.965,3.973,3.977,3.971,3.986,3.982,0,32,9820.0178910122,0,10,Assisted_Takeoff,
2300,2023-10-09 18:35:05,38.4981393654796,-112.064412306259,0,,,9820.0178910122,0.656168,0,0.045856628764,0.270253617572,17,5,0,9820.0178910122,0,0,0.060549214536,0,0,0,312.8, 6, 0.9,0,0,1024,1024,1024,1024,0,0,0,0,0,0,0,100,3.965,3.973,3.977,3.971,3.986,3.982,0,32,9820.0178910122,0,10,Assisted_Takeoff,
2400,2023-10-09 18:35:06,38.4981393602292,-112.064412292509,0,,,9820.0178910122,0.656168,0,0.041881891104,0.274622384116,17,5,0,9820.0178910122,0,0,0.060549214536,0,0,0,312.8, 5.9, 0.9,0,0,1024,1024,1024,1024,0,0,0,0,0,0,0,100,3.965,3.973,3.977,3.971,3.986,3.982,0,32,9820.0178910122,0,10,Assisted_Takeoff,
2500,2023-10-09 18:35:06,38.4981393591562,-112.064412294767,0,,,9820.0178910122,0.656168,0,0.042526576164,0.275376649232,17,5,0,9820.0178910122,0,0,0.060549214536,0,0,0,312.8, 5.9, 0.9,0,0,1024,1024,1024,1024,0,0,0,0,0,0,0,100,3.965,3.973,3.977,3.971,3.986,3.982,0,32,9820.0178910122,0,10,Assisted_Takeoff,
2600,2023-10-09 18:35:06,38.4981393517447,-112.064412281909,0,,,9820.0178910122,0.656168,0,0.038962271588,0.279936360664,17,5,0,9820.0178910122,0,0,0.060549214536,0,0,0,312.8, 6, 0.9,0,0,1024,1024,1024,1024,0,0,0,0,0,0,0,100,3.965,3.973,3.977,3.971,3.986,3.982,0,32,9820.0178910122,0,10,Assisted_Takeoff,
2700,2023-10-09 18:35:06,38.4981393502456,-112.064412280687,0,,,9820.0178910122,0.656168,0,0.038658793888,0.280585310816,17,5,0,9820.0178910122,0,0,0.060549214536,0,0,0,312.8, 6, 0.9,0,0,1024,1024,1024,1024,0,0,0,0,0,0,0,100,3.965,3.973,3.977,3.971,3.986,3.982,0,32,9820.0178910122,0,10,Assisted_Takeoff,
2800,2023-10-09 18:35:06,38.4981393534092,-112.064412275783,0,,,9820.0178910122,0.656168,0,0.037175526124,0.28239994342,17,5,0,9820.0178910122,0,0,0.060549214536,0,0,0,312.8, 6, 0.9,0,0,1024,1024,1024,1024,0,0,0,0,0,0,0,100,3.965,3.973,3.977,3.971,3.986,3.982,0,32,9820.0178910122,0,10,Assisted_Takeoff,
2900,2023-10-09 18:35:06,38.4981393519172,-112.064412271955,0,,,9820.0178910122,0.656168,0,0.036123360736,0.283621072068,17,5,0,9820.0178910122,0,0,0.060549214536,0,0,0,312.8, 6, 0.9,0,0,1024,1024,1024,1024,0,0,0,0,0,0,0,100,3.965,3.973,3.977,3.971,3.986,3.982,0,32,9820.0178910122,0,10,Assisted_Takeoff,
3000,2023-10-09 18:35:06,38.4981392022394,-112.064412270735,0,,,9820.0178910122,0.656168,0,0.067609254132,0.33823163812,17,5,0,9820.0178910122,0,0,0.067609254132,0,0,0,312.8, 5.9, 0.9,0,0,1024,1024,1024,1024,0,0,0,0,0,0,0,100,3.965,3.973,3.977,3.971,3.986,3.982,0,32,9820.0178910122,0,10,Assisted_Takeoff,
3100,2023-10-09 18:35:06,38.4981391869068,-112.064412265999,0,,,9820.0178910122,0.656168,0,0.071765422244,0.34398623148,17,5,0,9820.0178910122,0,0,0.071765422244,0,0,0,312.8, 5.9, 0.9,0,0,1024,1024,1024,1024,0,0,0,0,0,0,0,100,3.965,3.973,3.977,3.971,3.986,3.982,0,32,9820.0178910122,0,10,Assisted_Takeoff,
3200,2023-10-09 18:35:06,38.4981392069804,-112.064412266773,0,,,9820.0178910122,0.656168,0,0.0655429811,0.35131562804,17,5,0,9820.0178910122,0,0,0.071765422244,0,0,0,312.8, 5.9, 0.9,0,0,1024,1024,1024,1024,0,0,0,0,0,0,0,100,3.965,3.973,3.977,3.971,3.986,3.982,0,32,9820.0178910122,0,10,Assisted_Takeoff,
3300,2023-10-09 18:35:07,38.4981391934855,-112.064412260841,0,,,9820.0178910122,0.656168,0,0.06895341428,0.35652232112,17,5,0,9820.0178910122,0,0,0.071765422244,0,0,0,312.8, 5.9, 0.9,0,0,1024,1024,1024,1024,0,0,0,0,0,0,0,100,3.965,3.973,3.977,3.971,3.986,3.982,0,32,9820.0178910122,0,10,Assisted_Takeoff,
3400,2023-10-09 18:35:07,38.4981392145134,-112.064412416301,0,,,9820.0178910122,0.656168,0,0.0936433757,0.40156825432,17,5,0,9820.0178910122,0,0,0.0936433757,0,0,0,312.8, 5.9, 0.9,0,0,1024,1024,1024,1024,0,0,0,0,0,0,0,100,3.965,3.973,3.977,3.971,3.986,3.982,0,32,9820.0178910122,0,10,Assisted_Takeoff,
3500,2023-10-09 18:35:07,38.498139202805,-112.064412423011,0,,,9820.0178910122,0.656168,0,0.097669622548,0.406250013,17,5,0,9820.0178910122,0,0,0.097669622548,0,0,0,312.8, 5.9, 0.9,0,0,1024,1024,1024,1024,0,0,0,0,0,0,0,100,3.965,3.973,3.977,3.971,3.986,3.982,0,32,9820.0178910122,0,10,Assisted_Takeoff,
3600,2023-10-09 18:35:07,38.4981392233285,-112.064412407101,0,,,9820.0178910122,0.656168,0,0.0896653572,0.4150098558,17,5,0,9820.0178910122,0,0,0.097669622548,0,0,0,312.8, 5.9, 0.9,0,0,1024,1024,1024,1024,0,0,0,0,0,0,0,100,3.965,3.973,3.977,3.971,3.986,3.982,0,32,9820.0178910122,0,10,Assisted_Takeoff,
3700,2023-10-09 18:35:07,38.4981392140469,-112.064412410828,0,,,9820.0178910122,0.656168,0,0.092456367788,0.41855972468,17,5,0,9820.0178910122,0,0,0.097669622548,0,0,0,312.8, 6, 0.9,0,0,1024,1024,1024,1024,0,0,0,0,0,0,0,100,3.965,3.973,3.977,3.971,3.986,3.982,0,32,9820.0178910122,0,10,Assisted_Takeoff,
3800,2023-10-09 18:35:07,38.4981392259711,-112.064412394725,0,,,9820.0178910122,0.656168,0,0.086198165488,0.42488846504,17,5,0,9820.0178910122,0,0,0.097669622548,0,0,0,312.8, 5.9, 0.9,0,0,1024,1024,1024,1024,0,0,0,0,0,0,0,100,3.965,3.973,3.977,3.971,3.986,3.982,0,32,9820.0178910122,0,10,Assisted_Takeoff,
3900,2023-10-09 18:35:07,38.4981392172916,-112.064412397346,0,,,9820.0178910122,0.656168,0,0.088634189188,0.42814305832,17,5,0,9820.0178910122,0,0,0.097669622548,0,0,0,312.9, 5.9, 0.9,0,0,1024,1024,1024,1024,0,0,0,0,0,0,0,100,3.965,3.973,3.977,3.971,3.986,3.982,0,32,9820.0178910122,0,10,Assisted_Takeoff,
4000,2023-10-09 18:35:07,38.4981392344836,-112.064412388455,0,,,9820.0178910122,0.656168,0,0.082978677196,0.43491143124,17,5,0,9820.0178910122,0,0,0.097669622548,0,0,0,312.8, 5.9, 0.9,0,0,1024,1024,1024,1024,0,0,0,0,0,0,0,100,3.965,3.973,3.977,3.971,3.986,3.982,0,32,9820.0178910122,0,10,Assisted_Takeoff,
4100,2023-10-09 18:35:07,38.4981392300612,-112.064412385737,0,,,9820.0178910122,0.656168,0,0.083237863556,0.43669948904,17,5,0,9820.0178910122,0,0,0.097669622548,0,0,0,312.8, 5.9, 0.9,0,0,1024,1024,1037,1024,0,0,2,0,0,0,0,100,3.965,3.973,3.977,3.971,3.986,3.982,0,32,9820.0178910122,0,10,Assisted_Takeoff,
4200,2023-10-09 18:35:07,38.4981392449872,-112.064412378502,0,,,9820.0178910122,0.656168,0,0.07851378204,0.44252626088,17,5,0,9820.0178910122,0,0,0.097669622548,0,0,0,312.8, 5.9, 0.9,0,0,1024,1024,1210,1024,0,0,28,0,0,0,0,100,3.965,3.973,3.977,3.971,3.986,3.982,0,32,9820.0178910122,0,10,Assisted_Takeoff,
4300,2023-10-09 18:35:08,38.4981392400944,-112.064412375334,0,,,9820.0178910122,0.656168,0,0.078725068136,0.44452757328,17,5,0,9820.0178910122,0,0,0.097669622548,0,0,0,312.8, 5.9, 0.9,0,0,1024,1024,1545,1024,0,0,79,0,0,0,0,100,3.965,3.973,3.977,3.971,3.986,3.982,0,32,9820.0178910122,0,10,Assisted_Takeoff,
4400,2023-10-09 18:35:08,38.4981392536148,-112.064412376992,0,,,9820.0178910122,0.656168,0,0.076510173052,0.44948164168,17,5,0,9820.0178910122,0,0,0.097669622548,0,0,0,312.9, 5.9, 0.9,0,0,1024,1024,1644,1024,0,0,94,0,0,0,0,100,3.965,3.973,3.977,3.971,3.986,3.982,0,32,9820.0178910122,0,10,Assisted_Takeoff,
4500,2023-10-09 18:35:08,38.4981392550476,-112.064412377087,0,,,9820.0178910122,0.656168,0,0.076270671732,0.45000657608,17,5,0,9820.0178910122,0,0,0.097669622548,0,0,0,312.8, 5.8, 0.9,0,0,1024,1024,1684,1024,0,0,100,0,0,0,0,100,3.965,3.973,3.977,3.971,3.986,3.982,0,32,9820.0178910122,0,10,Assisted_Takeoff,
4600,2023-10-09 18:35:08,38.4981392549737,-112.064412375714,0,,,9820.0178910122,0.656168,0,0.075945212404,0.45039699604,17,5,0,9820.0178910122,0,0,0.097669622548,0,0,0,312.8, 5.9, 0.9,0,0,1024,1024,1684,1024,0,0,100,0,0,0,0,100,3.965,3.973,3.977,3.971,3.986,3.982,0,32,9820.0178910122,0,10,Assisted_Takeoff,
4700,2023-10-09 18:35:08,38.4981392497339,-112.064412364807,0,,,9820.0178910122,0.656168,0,0.074284451196,0.4540518518,17,5,0,9820.0178910122,0,0,0.097669622548,0,0,0,312.8, 6.1, 0.9,0,0,1024,1024,1684,1024,0,0,100,0,0,0,0,100,3.965,3.973,3.977,3.971,3.986,3.982,0,32,9820.0178910122,0,10,Assisted_Takeoff,
4800,2023-10-09 18:35:08,38.4981390990101,-112.064412360174,0,,,9820.0178910122,0.656168,0,0.113092523304,0.50906169608,17,5,0,9820.0178910122,0,0,0.113092523304,0,0,0,312.8, 6.3, 0.9,0,0,1024,1024,1684,1024,0,0,100,0,0,0,0,100,3.965,3.973,3.977,3.971,3.986,3.982,0,32,9820.0178910122,0,10,Assisted_Takeoff,
4900,2023-10-09 18:35:08,38.4981390757029,-112.064412345117,0,,,9820.0178910122,0.656168,0,0.118202431604,0.51858925544,17,5,0,9820.0178910122,0,0,0.118202431604,0,0,0,312.7, 6.5, 0.9,0,0,1024,1024,1684,1028,0,0,100,1,0,0,0,100,3.965,3.973,3.977,3.971,3.986,3.982,0,32,9820.0178910122,0,10,Assisted_Takeoff,
5000,2023-10-09 18:35:08,38.4981390648601,-112.064412317238,0,,,9820.0178910122,0.656168,0,0.118171919792,0.527477051,17,5,0,9820.0178910122,0,0,0.118202431604,0,0,0,312.3, 7.2, 0.8,0,0,1024,1024,1684,1037,0,0,100,2,0,0,0,100,3.965,3.973,3.977,3.971,3.986,3.982,0,32,9820.0178910122,0,10,Assisted_Takeoff,
5100,2023-10-09 18:35:08,38.4981389771323,-112.064412239189,0,,,9820.0178910122,0.656168,0.223694,0.142090555728,0.56647967692,17,5,0,9820.0178910122,0,0.223694,0.142090555728,-0.223694,0,0,310.9, 8.3, 0.9,0,0,1024,1024,1684,1053,0,0,100,4,0,0,0,100,3.965,3.973,3.977,3.971,3.986,3.982,0,32,9820.0178910122,0,10,Assisted_Takeoff,
5200,2023-10-09 18:35:08,38.4981388537097,-112.064412107598,0,,,9820.0178910122,0.656168,0.3131716,0.184920937676,0.62512797276,17,5,0,9820.0178910122,0,0.3131716,0.184920937676,-0.223694,0.223694,0,308.7, 9.5, 0.9,0,0,1024,1024,1684,1061,0,0,100,6,0,0,0,100,3.965,3.973,3.977,3.971,3.986,3.982,0,32,9820.0178910122,0,10,Assisted_Takeoff,
5300,2023-10-09 18:35:08,38.4981385842393,-112.064411807495,0,,,9820.0178910122,0.656168,0.9395148,0.29895506206,0.75554792444,17,5,0,9820.0178910122,0,0.9395148,0.29895506206,-0.671082,0.671082,-0.223694,306.3, 9.9, 1.3,0,0,1024,1024,1684,1076,0,0,100,8,0,0,0,100,3.965,3.973,3.977,3.971,3.986,3.982,0,32,9820.0178910122,0,10,Assisted_Takeoff,"Home Point recorded. Return-to-Home Altitude:295.3 ft"
5400,2023-10-09 18:35:09,38.4981382417471,-112.064411427553,0,,,9820.0178910122,0.656168,1.2750558,0.45653544768,0.9210302132,17,5,0,9820.0178910122,0,1.2750558,0.45653544768,-0.894776,0.894776,-0.671082,304.9, 8.1, 1.8,0,0,1024,1024,1684,1082,0,0,100,9,0,0,0,100,3.965,3.973,3.977,3.971,3.986,3.982,0,32,9820.0178910122,0,6,P-GPS,
5500,2023-10-09 18:35:09,38.4981377687876,-112.064410818207,0,,,9820.0178910122,0.984252,1.5882274,0.69326117704,1.16608271448,17,5,0,9820.0178910122,0,1.5882274,0.69326117704,-1.11847,1.11847,-0.894776,303.8, 3.8, 2.6,0,0,1024,1024,1684,1082,0,0,100,9,0,0,0,100,3.965,3.973,3.977,3.971,3.986,3.982,0,32,9820.0178910122,0,6,P-GPS,
5600,2023-10-09 18:35:09,38.4981372614844,-112.06441014896,0.328084,,,9820.3459750122,1.312336,1.7448132,0.95453743212,1.4321194684,17,5,0,9820.3459750122,0.328084,1.7448132,0.95453743212,-1.11847,1.342164,-1.342164,303, -1.9, 3.1,0,0,1024,1024,1684,1075,0,0,100,8,0,0,0,100,3.965,3.973,3.977,3.971,3.986,3.982,0,32,9820.3459750122,0.328084,6,P-GPS,
5700,2023-10-09 18:35:09,38.4981367871561,-112.064409484174,0.656168,,,9820.6740590122,1.64042,1.5882274,1.20770673156,1.68898955536,17,5,0,9820.6740590122,0.656168,1.7448132,1.20770673156,-1.11847,1.11847,-1.789552,302.3, -6.1, 2.8,0,0,1024,1024,1684,1058,0,0,100,5,0,0,0,100,3.965,3.973,3.977,3.971,3.986,3.982,0,32,9820.6740590122,0.656168,6,P-GPS,
5800,2023-10-09 18:35:09,38.4981364253233,-112.064408676876,0.656168,,,9820.6740590122,1.968504,1.2750558,1.45853351124,1.95463260848,16,5,0,9820.6740590122,0.656168,1.7448132,1.45853351124,-0.894776,0.894776,-2.23694,301.7, -7.6, 2.2,0,0,1024,1024,1684,1058,0,0,100,5,0,0,0,100,3.965,3.973,3.977,3.971,3.986,3.982,0,32,9820.6740590122,0.656168,6,P-GPS,
5900,2023-10-09 18:35:09,38.4981361002317,-112.064408242957,1.312336,,,9821.3302270122,2.296588,0.9395148,1.6297736742,2.12615492368,16,5,0,9821.3302270122,1.312336,1.7448132,1.6297736742,-0.671082,0.671082,-2.684328,301.2, -6.7, 1.3,0,0,1024,1024,1684,1051,0,0,100,4,0,0,0,100,3.965,3.973,3.977,3.971,3.986,3.982,0,32,9821.3302270122,1.312336,6,P-GPS,
6000,2023-10-09 18:35:09,38.4981359687139,-112.06440807327,1.64042,,,9821.6583110122,2.624672,0.6263432,1.69792328268,2.19434718308,18,5,0,9821.6583110122,1.64042,1.7448132,1.69792328268,-0.447388,0.447388,-3.131716,300.6, -4.4, 0.7,0,0,1024,1024,1684,1047,0,0,100,3,0,0,0,100,3.965,3.973,3.977,3.971,3.986,3.982,0,32,9821.6583110122,1.64042,6,P-GPS,
6100,2023-10-09 18:35:09,38.498135725259,-112.064407896698,2.296588,,,9822.3144790122,3.28084,0.4921268,1.79733601552,2.29648301312,18,5,0,9822.3144790122,2.296588,1.7448132,1.79733601552,-0.447388,0.223694,-3.802798,300, -1.8, 1,0,0,1024,1024,1684,1024,0,0,100,0,0,0,0,100,3.965,3.973,3.977,3.971,3.986,3.982,0,32,9822.3144790122,2.296588,6,P-GPS,
6200,2023-10-09 18:35:09,38.4981353883536,-112.064407743109,2.624672,,,9822.6425630122,3.937008,0.4921268,1.91829402464,2.42699154748,17,5,0,9822.6425630122,2.624672,1.7448132,1.91829402464,-0.447388,0.223694,-4.47388,299.5, 0, 2.1,0,0,1024,1024,1684,1024,0,0,100,0,0,0,0,100,3.965,3.973,3.977,3.971,3.986,3.982,0,32,9822.6425630122,2.624672,6,P-GPS,
6300,2023-10-09 18:35:09,38.4981351252713,-112.064407577301,3.28084,,,9823.2987310122,4.593176,0.4921268,2.02200465788,2.53401910996,17,5,0,9823.2987310122,3.28084,1.7448132,2.02200465788,-0.447388,0.223694,-5.144962,299, 0, 3.1,0,0,1024,1024,1684,1024,0,0,100,0,0,0,0,100,3.965,3.973,3.977,3.971,3.986,3.982,0,32,9823.2987310122,3.28084,6,P-GPS,
6400,2023-10-09 18:35:10,38.4981349613016,-112.064407348485,4.265092,,,9824.2829830122,5.577428,0.4921268,2.10989508064,2.62260835164,18,5,0,9824.2829830122,4.265092,1.7448132,2.10989508064,-0.447388,0.223694,-5.59235,298.5, -0.9, 3.4,0,0,1024,1024,1684,819,0,0,100,-31,0,0,0,100,3.965,3.973,3.977,3.971,3.986,3.982,0,32,9824.2829830122,4.265092,6,P-GPS,
6500,2023-10-09 18:35:10,38.4981347529087,-112.064407138064,5.249344,,,9825.2672350122,6.233596,0.4921268,2.20673563492,2.71951452272,18,5,0,9825.2672350122,5.249344,1.7448132,2.20673563492,-0.447388,0.223694,-6.263432,298.1, -2.3, 3,0,0,1024,1024,1684,567,0,0,100,-69,0,0,0,100,3.965,3.973,3.977,3.971,3.986,3.982,0,32,9825.2672350122,5.249344,6,P-GPS,
6600,2023-10-09 18:35:10,38.4981346364902,-112.06440708322,6.233596,,,9826.2514870122,7.217848,0.3131716,2.24929141056,2.76478355304,18,5,0,9826.2514870122,6.233596,1.7448132,2.24929141056,-0.223694,0.223694,-7.158208,297.2, -3.1, 2.4,0,0,1024,1024,1684,385,0,0,100,-97,0,0,0,100,3.965,3.973,3.977,3.971,3.986,3.982,0,32,9826.2514870122,6.233596,6,P-GPS,
6700,2023-10-09 18:35:10,38.4981344844091,-112.064406963873,7.217848,,,9827.2357390122,8.530184,0.223694,2.31372054648,2.82990166536,18,5,0,9827.2357390122,7.217848,1.7448132,2.31372054648,-0.223694,0,-7.82929,294.2, -2.8, 2.5,0,0,1024,1024,1684,364,0,0,100,-100,0,0,0,100,3.965,3.973,3.977,3.971,3.986,3.982,0,32,9827.2357390122,7.217848,6,P-GPS,
6800,2023-10-09 18:35:10,38.4981332871018,-112.0644058494,8.530184,,,9828.5480750122,9.514436,0.223694,2.85327436952,3.3703741236,19,5,0,9828.5480750122,8.530184,1.7448132,2.85327436952,-0.223694,0,-8.724066,288.3, -2, 3.1,0,0,1024,1024,1684,364,0,0,100,-100,0,0,0,100,3.965,3.973,3.977,3.971,3.986,3.982,0,32,9828.5480750122,8.530184,6,P-GPS,
6900,2023-10-09 18:35:10,38.498133079106,-112.064405689483,9.84252,,,9829.8604110122,10.826772,0.223694,2.94100075028,3.4589239952,19,5,0,9829.8604110122,9.84252,1.7448132,2.94100075028,-0.223694,0,-9.395148,280.5, -1.2, 3.7,0,0,1024,1024,1684,364,0,0,100,-100,0,0,0,100,3.965,3.973,3.977,3.971,3.986,3.982,0,32,9829.8604110122,9.84252,6,P-GPS,
7000,2023-10-09 18:35:10,38.4981326449837,-112.064405214166,11.48294,,,9831.5008310122,11.811024,0,3.1494915706,3.6675198024,19,5,0,9831.5008310122,11.48294,1.7448132,3.1494915706,0,0,-10.06623,271.9, -0.7, 3.6,0,0,1024,1024,1684,364,0,0,100,-100,0,0,0,100,3.965,3.973,3.977,3.971,3.986,3.982,0,32,9831.5008310122,11.48294,6,P-GPS,
7100,2023-10-09 18:35:10,38.4981324731734,-112.064405013752,12.795276,,,9832.8131670122,13.12336,0,3.2342192636,3.7523951332,19,5,0,9832.8131670122,12.795276,1.7448132,3.2342192636,0,0,-10.513618,262.7, -0.7, 2.8,0,0,1024,1024,1684,364,0,0,100,-100,0,0,0,100,3.965,3.973,3.977,3.971,3.986,3.982,0,32,9832.8131670122,12.795276,6,P-GPS,
7200,2023-10-09 18:35:10,38.4981327472866,-112.064404899018,14.435696,,,9834.4535870122,14.76378,0,3.17838592848,3.857611672,19,5,0,9834.4535870122,14.435696,1.7448132,3.2342192636,0,0,-10.961006,253.6, -1.3, 2.1,0,0,1024,1024,1684,364,0,0,100,-100,0,0,0,100,3.965,3.973,3.977,3.971,3.986,3.982,0,32,9834.4535870122,14.435696,6,P-GPS,
7300,2023-10-09 18:35:10,38.4981326115638,-112.064404719646,16.076116,,,9836.0940070122,16.076116,0,3.24932425096,3.9288715168,19,5,0,9836.0940070122,16.076116,1.7448132,3.24932425096,0,0,-11.1847,244.3, -1.6, 1.9,0,0,1024,1024,1684,364,0,0,100,-100,0,0,0,99,3.965,3.973,3.977,3.971,3.986,3.982,0,32,9836.0940070122,16.076116,6,P-GPS,
7400,2023-10-09 18:35:11,38.4981327795081,-112.064404618485,17.716536,,,9837.7344270122,17.388452,0,3.22233934196,3.9966208628,19,5,0,9837.7344270122,17.716536,1.7448132,3.24932425096,0,0,-11.408394,235.2, -1.5, 2,0,0,1070,1024,1683,364,7,0,100,-100,0,0,0,99,3.965,3.973,3.977,3.971,3.986,3.982,0,32,9837.7344270122,17.716536,6,P-GPS,
7500,2023-10-09 18:35:11,38.4981326318818,-112.064404482966,19.356956,,,9839.3748470122,19.028872,0,3.2882875068,4.0629266392,19,5,0,9839.3748470122,19.356956,1.7448132,3.2882875068,0,0,-11.632088,226, -0.7, 2.2,0,0,1684,1024,1645,364,100,0,94,-100,0,0,0,99,3.965,3.973,3.977,3.971,3.986,3.982,0,32,9839.3748470122,19.356956,6,P-GPS,
7600,2023-10-09 18:35:11,38.4981323849534,-112.064404310119,20.997376,,,9841.0152670122,20.341208,0,3.388451552,4.1656497396,19,5,0,9841.0152670122,20.997376,1.7448132,3.388451552,0,0,-11.632088,217.2, -0.1, 1.8,0,0,1684,1024,1575,364,100,0,83,-100,0,0,0,99,3.965,3.973,3.977,3.971,3.986,3.982,0,32,9841.0152670122,20.997376,6,P-GPS,
7700,2023-10-09 18:35:11,38.4981322160123,-112.064404174802,22.96588,,,9842.9837710122,21.981628,0,3.4602691396,4.2384187708,19,5,0,9842.9837710122,22.96588,1.7448132,3.4602691396,0,0,-11.632088,208.7, -0.4, 1.3,0,0,1684,1024,1544,364,100,0,79,-100,0,0,0,99,3.965,3.973,3.977,3.971,3.986,3.982,0,32,9842.9837710122,22.96588,6,P-GPS,
7800,2023-10-09 18:35:11,38.4981320193668,-112.064404572163,24.6063,,,9844.6241910122,23.622048,0.223694,3.442257328,4.3726379352,19,5,0,9844.6241910122,24.6063,1.7448132,3.4602691396,-0.223694,0,-11.408394,200.7, -1.6, 1.1,0,0,1684,1024,1537,364,100,0,78,-100,0,0,0,99,3.965,3.973,3.977,3.971,3.986,3.982,0,32,9844.6241910122,24.6063,6,P-GPS,
7900,2023-10-09 18:35:11,38.4981317955615,-112.064404470591,26.24672,,,9846.2646110122,25.262468,0.223694,3.524114286,4.459317728,19,5,0,9846.2646110122,26.24672,1.7448132,3.524114286,-0.223694,0,-10.961006,192.5, -2.4, 1.1,0,0,1684,1024,1327,662,100,0,46,-55,0,0,0,99,3.965,3.973,3.977,3.971,3.986,3.982,0,32,9846.2646110122,26.24672,6,P-GPS,
8000,2023-10-09 18:35:11,38.4981319403469,-112.064404280174,27.88714,,,9847.9050310122,26.574804,0.223694,3.5173557556,4.535105132,19,5,0,9847.9050310122,27.88714,1.7448132,3.524114286,-0.223694,0,-10.289924,184.5, -2.7, 0.9,0,0,1684,1024,1154,1002,100,0,20,-3,0,0,0,99,3.965,3.973,3.977,3.971,3.986,3.982,0,32,9847.9050310122,27.88714,6,P-GPS,
8100,2023-10-09 18:35:11,38.4981316728412,-112.064404178056,29.199476,,,9849.2173670122,27.88714,0.447388,3.6113190132,4.636975214,19,5,0,9849.2173670122,29.199476,1.7448132,3.6113190132,-0.447388,0,-9.842536,177.3, -2.9, 0,0,0,1684,1024,1111,1024,100,0,13,0,0,0,0,99,3.965,3.973,3.977,3.971,3.986,3.982,0,32,9849.2173670122,29.199476,6,P-GPS,
8200,2023-10-09 18:35:11,38.4981311934383,-112.064404633389,30.839896,,,9850.8577870122,28.215224,0.447388,3.6713255768,4.8549214152,18,5,0,9850.8577870122,30.839896,1.7448132,3.6713255768,-0.447388,0,-9.171454,173.1, -3.8, -0.4,0,0,1684,1024,1024,1024,100,0,0,0,0,0,0,99,3.965,3.973,3.977,3.971,3.986,3.982,0,32,9850.8577870122,30.839896,6,P-GPS,
8300,2023-10-09 18:35:11,38.4981308344246,-112.06440452819,32.152232,,,9852.1701230122,28.215224,0.671082,3.7955381792,4.9893046216,18,5,0,9852.1701230122,32.152232,1.7448132,3.7955381792,-0.671082,0,-8.500372,171.2, -5.2, -0.5,0,0,1684,1024,1024,1024,100,0,0,0,0,0,0,99,3.965,3.973,3.977,3.971,3.986,3.982,0,32,9852.1701230122,32.152232,6,P-GPS,
8400,2023-10-09 18:35:12,38.4981306333506,-112.064404715799,33.136484,,,9853.1543750122,28.215224,0.894776,3.8259187576,5.0801510812,19,5,0,9853.1543750122,33.136484,1.7448132,3.8259187576,-0.894776,0,-7.82929,170.4, -6.7, -0.3,0,0,1684,1024,1024,1024,100,0,0,0,0,0,0,99,3.965,3.973,3.977,3.971,3.986,3.982,0,32,9853.1543750122,33.136484,6,P-GPS,
8500,2023-10-09 18:35:12,38.4981301658348,-112.064404561131,34.44882,,,9854.4667110122,28.215224,0.9171454,3.99278228,5.2563321892,19,5,0,9854.4667110122,34.44882,1.7448132,3.99278228,-0.894776,0.223694,-6.934514,169.9, -7.7, 0.4,0,0,1684,1024,1024,1024,100,0,0,0,0,0,0,99,3.965,3.973,3.977,3.971,3.986,3.982,0,32,9854.4667110122,34.44882,6,P-GPS,
8600,2023-10-09 18:35:12,38.4981297201055,-112.06440459213,35.433072,,,9855.4509630122,28.215224,1.1408394,4.1256891084,5.4191930868,19,5,0,9855.4509630122,35.433072,1.7448132,4.1256891084,-1.11847,0.223694,-6.039738,169.6, -8.4, 1.2,0,0,1684,1024,1024,1024,100,0,0,0,0,0,0,99,3.965,3.973,3.977,3.971,3.986,3.982,0,32,9855.4509630122,35.433072,6,P-GPS,
8700,2023-10-09 18:35:12,38.4981291039047,-112.064404405101,36.08924,,,9856.1071310122,28.215224,1.3645334,4.3458662808,5.650262648,19,5,0,9856.1071310122,36.08924,1.7448132,4.3458662808,-1.342164,0.223694,-5.144962,169.4, -8.7, 1.9,0,0,1684,1024,1024,1024,100,0,0,0,0,0,0,99,3.965,3.973,3.977,3.971,3.986,3.982,0,32,9856.1071310122,36.08924,6,P-GPS,
8800,2023-10-09 18:35:12,38.4981283974834,-112.064404732486,36.745408,,,9856.7632990122,28.215224,1.5882274,4.5251969952,5.9244424468,19,5,0,9856.7632990122,36.745408,1.7448132,4.5251969952,-1.565858,0.223694,-4.250186,169.4, -9, 2.2,0,0,1684,1024,1024,1024,100,0,0,0,0,0,0,99,3.965,3.973,3.977,3.971,3.986,3.982,0,32,9856.7632990122,36.745408,6,P-GPS,
8900,2023-10-09 18:35:12,38.4981276230695,-112.064404576682,37.401576,,,9857.4194670122,28.215224,1.8119214,4.7966208884,6.210466078,19,5,0,9857.4194670122,37.401576,1.8119214,4.7966208884,-1.789552,0.223694,-3.35541,169.5, -9.9, 2.2,0,0,1684,1024,1024,1024,100,0,0,0,0,0,0,99,3.965,3.973,3.977,3.971,3.986,3.982,0,32,9857.4194670122,37.401576,6,P-GPS,
9000,2023-10-09 18:35:12,38.4981268804719,-112.064404562951,37.72966,,,9857.7475510122,28.215224,2.0356154,5.041666828,6.4814306536,19,5,0,9857.7475510122,37.72966,2.0356154,5.041666828,-2.013246,0.223694,-2.460634,169.6, -11.6, 2.2,0,0,1684,1024,1024,1024,100,0,0,0,0,0,0,99,3.965,3.973,3.977,3.971,3.986,3.982,0,32,9857.7475510122,37.72966,6,P-GPS,
9100,2023-10-09 18:35:12,38.4981259346301,-112.064404407003,38.057744,,,9858.0756350122,28.215224,2.2816788,5.373523794,6.829396544,19,5,0,9858.0756350122,38.057744,2.2816788,5.373523794,-2.23694,0.447388,-1.565858,169.6, -14.2, 2,0,0,1684,1024,1024,1024,100,0,0,0,0,0,0,99,3.965,3.973,3.977,3.971,3.986,3.982,0,32,9858.0756350122,38.057744,6,P-GPS,
9200,2023-10-09 18:35:12,38.4981250653758,-112.064404338082,38.385828,,,9858.4037190122,28.215224,2.7290668,5.6718177668,7.147145898,19,5,0,9858.4037190122,38.385828,2.7290668,5.6718177668,-2.684328,0.447388,-0.894776,169.5, -17.1, 1.9,0,0,1684,1024,1024,1024,100,0,0,0,0,0,0,99,3.965,3.973,3.977,3.971,3.986,3.982,0,32,9858.4037190122,38.385828,6,P-GPS,
9300,2023-10-09 18:35:12,38.4981238170856,-112.064404140419,38.385828,,,9858.4037190122,28.215224,3.1540854,6.1140749988,7.6060697972,19,5,0,9858.4037190122,38.385828,3.1540854,6.1140749988,-3.131716,0.447388,-0.447388,169.3, -19.4, 1.8,0,0,1684,1024,1024,1024,100,0,0,0,0,0,0,99,3.965,3.973,3.977,3.971,3.986,3.982,0,32,9858.4037190122,38.385828,6,P-GPS,
9400,2023-10-09 18:35:13,38.4981222860109,-112.064403882647,38.385828,,,9858.4037190122,28.215224,3.8699062,6.6611878772,8.1694884504,19,5,0,9858.4037190122,38.385828,3.8699062,6.6611878772,-3.802798,0.671082,0,169.1, -20.2, 1.7,0,0,1684,1024,1024,1024,100,0,0,0,0,0,0,99,3.965,3.973,3.977,3.971,3.986,3.982,0,32,9858.4037190122,38.385828,6,P-GPS,
9500,2023-10-09 18:35:13,38.4981205354477,-112.064403584852,38.385828,,,9858.4037190122,28.215224,4.5186188,7.2900592884,8.8138454264,19,5,0,9858.4037190122,38.385828,4.5186188,7.2900592884,-4.47388,0.671082,0,169, -19.8, 1.6,0,0,1684,1024,1024,1024,100,0,0,0,0,0,0,99,3.965,3.973,3.977,3.971,3.986,3.982,0,32,9858.4037190122,38.385828,6,P-GPS,
9600,2023-10-09 18:35:13,38.4981184240312,-112.06440296763,38.385828,,,9858.4037190122,28.215224,5.1897008,8.075459576,9.6040685488,19,5,0,9858.4037190122,38.385828,5.1897008,8.075459576,-5.144962,0.671082,0.223694,168.9, -18.9, 1.6,0,0,1684,1024,1024,1024,100,0,0,0,0,0,0,99,3.965,3.973,3.977,3.971,3.986,3.982,0,32,9858.4037190122,38.385828,6,P-GPS,
9700,2023-10-09 18:35:13,38.4981161429848,-112.064402534991,38.385828,,,9858.4037190122,28.215224,5.8831522,8.904035718,10.4454399668,19,5,0,9858.4037190122,38.385828,5.8831522,8.904035718,-5.816044,0.894776,0.447388,169, -18.2, 1.7,0,0,1684,1024,1024,1024,100,0,0,0,0,0,0,99,3.965,3.973,3.977,3.971,3.986,3.982,0,32,9858.4037190122,38.385828,6,P-GPS,
9800,2023-10-09 18:35:13,38.4981135441484,-112.064401724772,38.385828,,,9858.4037190122,28.215224,6.5542342,9.8776577964,11.42142425,19,5,0,9858.4037190122,38.385828,6.5542342,9.8776577964,-6.487126,0.894776,0.447388,169.2, -18.3, 2,0,0,1684,1024,1024,1024,100,0,0,0,0,0,0,99,3.965,3.973,3.977,3.971,3.986,3.982,0,32,9858.4037190122,38.385828,6,P-GPS,
9900,2023-10-09 18:35:13,38.4981107495832,-112.064401174306,38.385828,,,9858.4037190122,28.215224,7.2476856,10.8983599288,12.453084388,19,5,0,9858.4037190122,38.385828,7.2476856,10.8983599288,-7.158208,1.11847,0.447388,169.4, -18.8, 2.1,0,0,1684,1024,1024,1024,100,0,0,0,0,0,0,99,3.965,3.973,3.977,3.971,3.986,3.982,0,32,9858.4037190122,38.385828,6,P-GPS,
10000,2023-10-09 18:35:13,38.4981077055606,-112.06440037507,38.057744,,,9858.0756350122,28.215224,7.9187676,12.0281171828,13.5868770752,19,5,0,9858.4037190122,38.385828,7.9187676,12.0281171828,-7.82929,1.11847,0.223694,169.4, -19.5, 1.9,0,0,1684,1024,1024,1024,100,0,0,0,0,0,0,99,3.965,3.973,3.977,3.971,3.986,3.982,0,32,9858.0756350122,38.057744,6,P-GPS,
10100,2023-10-09 18:35:13,38.4981043688954,-112.064399725145,38.057744,,,9858.0756350122,28.215224,8.835913,13.249836382,14.8183403692,19,5,0,9858.4037190122,38.385828,8.835913,13.249836382,-8.724066,1.342164,0.223694,169.5, -19.5, 1.2,0,0,1684,1024,1024,1024,100,0,0,0,0,0,0,99,3.965,3.973,3.977,3.971,3.986,3.982,0,32,9858.0756350122,38.057744,6,P-GPS,
10200,2023-10-09 18:35:13,38.4981004589523,-112.064398923871,38.057744,,,9858.0756350122,28.215224,9.4846256,14.6864506012,16.26312388,19,5,0,9858.4037190122,38.385828,9.4846256,14.6864506012,-9.395148,1.342164,0.223694,169.3, -18.9, 0.7,0,0,1684,1024,1024,1024,100,0,0,0,0,0,0,99,3.965,3.973,3.977,3.971,3.986,3.982,0,32,9858.0756350122,38.057744,6,P-GPS,
10300,2023-10-09 18:35:13,38.4980965611409,-112.064398143298,38.057744,,,9858.0756350122,28.215224,10.178077,16.1187997284,17.70259243,19,5,0,9858.4037190122,38.385828,10.178077,16.1187997284,-10.06623,1.565858,0,169.3, -18.4, 0.4,0,0,1684,1024,1024,1024,100,0,0,0,0,0,0,99,3.965,3.973,3.977,3.971,3.986,3.982,0,32,9858.0756350122,38.057744,6,P-GPS,
10400,2023-10-09 18:35:14,38.4980925594517,-112.064397227029,38.057744,,,9858.0756350122,28.215224,10.849159,17.5983929516,19.185860194,19,5,0,9858.4037190122,38.385828,10.849159,17.5983929516,-10.737312,1.565858,0,169.2, -18.4, 0.5,0,0,1684,1024,1024,1024,100,0,0,0,0,0,0,99,3.965,3.973,3.977,3.971,3.986,3.982,0,32,9858.0756350122,38.057744,6,P-GPS,
10500,2023-10-09 18:35:14,38.4980881980458,-112.064396317772,38.057744,,,9858.0756350122,28.215224,11.3189164,19.2056436592,20.7981633952,19,5,0,9858.4037190122,38.385828,11.3189164,19.2056436592,-11.1847,1.789552,0,169.1, -18.8, 0.8,0,0,1684,1024,1024,1024,100,0,0,0,0,0,0,99,3.965,3.973,3.977,3.971,3.986,3.982,0,32,9858.0756350122,38.057744,6,P-GPS,
10600,2023-10-09 18:35:14,38.4980835145769,-112.064395216225,38.057744,,,9858.0756350122,28.215224,11.9899984,20.9406502764,22.5356306424,19,5,0,9858.4037190122,38.385828,11.9899984,20.9406502764,-11.855782,1.789552,0,168.9, -19.5, 1,0,0,1684,1024,1024,1013,100,0,0,-2,0,0,0,99,3.965,3.973,3.977,3.971,3.986,3.982,0,32,9858.0756350122,38.057744,6,P-GPS,
10700,2023-10-09 18:35:14,38.4980786588847,-112.064394184968,38.057744,,,9858.0756350122,28.215224,11.9899984,22.7327107012,24.33152965,19,5,0,9858.4037190122,38.385828,11.9899984,22.7327107012,-12.526864,2.013246,0,168.8, -20.2, 1,0,0,1684,1024,1024,549,100,0,0,-72,0,0,0,99,3.965,3.973,3.977,3.971,3.986,3.982,0,32,9858.0756350122,38.057744,6,P-GPS,
10800,2023-10-09 18:35:14,38.4980733296158,-112.064393070014,38.057744,,,9858.0756350122,28.215224,13.1755766,24.6991149636,26.3018053036,19,5,0,9858.4037190122,38.385828,13.1755766,24.6991149636,-12.974252,2.23694,0,168.7, -20.4, 0.7,0,0,1684,1024,1024,364,100,0,0,-100,0,0,0,99,3.965,3.973,3.977,3.971,3.986,3.982,0,32,9858.0756350122,38.057744,6,P-GPS,
10900,2023-10-09 18:35:14,38.4980679333542,-112.064391930881,38.057744,,,9858.0756350122,28.215224,13.8242892,26.6914706704,28.2973106168,19,5,0,9858.4037190122,38.385828,13.8242892,26.6914706704,-13.645334,2.23694,0,168.9, -18.9, -7.8,0,0,1684,1024,1024,364,100,0,0,-100,0,0,0,99,3.965,3.973,3.977,3.971,3.986,3.982,0,32,9858.0756350122,38.057744,6,P-GPS,
11000,2023-10-09 18:35:14,38.4980622792136,-112.064390522912,38.057744,,,9858.0756350122,28.215224,14.3387854,28.7925534148,30.3990167208,19,5,0,9858.4037190122,38.385828,14.3387854,28.7925534148,-14.092722,2.684328,0,164.8, -14.7, -21,0,0,1684,1024,1024,464,100,0,0,-85,0,0,0,99,3.965,3.973,3.977,3.971,3.986,3.982,0,32,9858.0756350122,38.057744,6,P-GPS,
11100,2023-10-09 18:35:14,38.49805660498,-112.064388704887,37.72966,,,9857.7475510122,28.215224,14.8085428,30.92601805,32.5333671828,19,5,0,9858.4037190122,38.385828,14.8085428,30.92601805,-14.316416,3.802798,0,155.9, -10.3, -26.9,0,0,1684,1024,1024,479,100,0,0,-83,0,0,0,99,3.965,3.973,3.977,3.971,3.986,3.982,0,32,9857.7475510122,37.72966,6,P-GPS,
11200,2023-10-09 18:35:14,38.4980507370472,-112.064386197318,37.72966,,,9857.7475510122,28.215224,14.8085428,33.171917072,34.790683528,19,5,0,9858.4037190122,38.385828,14.8085428,33.171917072,-13.869028,5.144962,0,145.3, -5.7, -28.6,0,0,1684,1024,1024,480,100,0,0,-82,0,0,0,99,3.965,3.973,3.977,3.971,3.986,3.982,0,32,9857.7475510122,37.72966,6,P-GPS,
11300,2023-10-09 18:35:15,38.4980454573154,-112.064383157425,37.72966,,,9857.7475510122,28.215224,14.316416,35.24606412,36.903544488,19,5,0,9858.4037190122,38.385828,14.8085428,35.24606412,-12.974252,6.039738,0,135.8, -2.4, -28,0,0,1684,1024,1024,561,100,0,0,-70,0,0,0,99,3.965,3.973,3.977,3.971,3.986,3.982,0,32,9857.7475510122,37.72966,6,P-GPS,
11400,2023-10-09 18:35:15,38.4980407071196,-112.064379264743,37.72966,,,9857.7475510122,28.215224,13.6229646,37.197835836,38.962599672,19,5,0,9858.4037190122,38.385828,14.8085428,37.197835836,-11.855782,6.71082,0,127.8, -0.4, -26.1,0,0,1684,1024,1024,802,100,0,0,-34,0,0,0,99,3.965,3.973,3.977,3.971,3.986,3.982,0,32,9857.7475510122,37.72966,6,P-GPS,
11500,2023-10-09 18:35:15,38.4980362712545,-112.064375478428,37.72966,,,9857.7475510122,28.215224,13.6229646,39.041996,40.90879396,19,5,0,9858.4037190122,38.385828,14.8085428,39.041996,-10.737312,7.158208,0,121.5, -0.5, -24.4,0,0,1684,1024,1024,910,100,0,0,-17,0,0,0,99,3.965,3.973,3.977,3.971,3.986,3.982,0,32,9857.7475510122,37.72966,6,P-GPS,
11600,2023-10-09 18:35:15,38.4980321809235,-112.0643716919,37.72966,,,9857.7475510122,28.215224,12.4373864,40.774607604,42.751641788,19,5,0,9858.4037190122,38.385828,14.8085428,40.774607604,-9.842536,7.605596,0,118.5, -2.9, -22.7,0,0,1684,1024,1024,1024,100,0,0,0,0,0,0,99,3.965,3.973,3.977,3.971,3.986,3.982,0,32,9857.7475510122,37.72966,6,P-GPS,
11700,2023-10-09 18:35:15,38.4980285355688,-112.064367516574,37.72966,,,9857.7475510122,28.215224,11.8781514,42.394686396,44.538059168,19,5,0,9858.4037190122,38.385828,14.8085428,42.394686396,-8.724066,8.052984,-0.223694,118.4, -8.7, -20.2,0,0,1684,1024,1024,1024,100,0,0,0,0,0,0,99,3.965,3.973,3.977,3.971,3.986,3.982,0,32,9857.7475510122,37.72966,6,P-GPS,
11800,2023-10-09 18:35:15,38.4980249778906,-112.064363023651,38.057744,,,9858.0756350122,28.215224,11.8781514,44.026248128,46.362862376,19,5,0,9858.4037190122,38.385828,14.8085428,44.026248128,-8.052984,8.724066,-0.223694,119.5, -16.2, -16,0,0,1684,1024,1024,1024,100,0,0,0,0,0,0,99,3.965,3.973,3.977,3.971,3.986,3.982,0,32,9858.0756350122,38.057744,6,P-GPS,
11900,2023-10-09 18:35:15,38.4980217810315,-112.064358184671,38.057744,,,9858.0756350122,28.215224,12.2360618,45.581694372,48.171261384,19,5,0,9858.4037190122,38.385828,14.8085428,45.581694372,-7.82929,9.395148,0,120, -22.6, -10.6,0,0,1684,1024,1024,1024,100,0,0,0,0,0,0,99,3.965,3.973,3.977,3.971,3.986,3.982,0,32,9858.0756350122,38.057744,6,P-GPS,
12000,2023-10-09 18:35:15,38.4980184950144,-112.064352818299,38.057744,,,9858.0756350122,28.215224,12.9295132,47.239502824,50.116799504,19,5,0,9858.4037190122,38.385828,14.8085428,47.239502824,-7.82929,10.289924,0,119.7, -26.2, -5.1,0,0,1684,1024,1024,1024,100,0,0,0,0,0,0,99,3.965,3.973,3.977,3.971,3.986,3.982,0,32,9858.0756350122,38.057744,6,P-GPS,
12100,2023-10-09 18:35:15,38.4980152065482,-112.064347045699,38.057744,,,9858.0756350122,28.215224,13.9137668,48.962928076,52.15551348,19,5,0,9858.4037190122,38.385828,14.8085428,48.962928076,-8.276678,11.1847,0,119.3, -27.8, -1,0,0,1684,1024,1024,1024,100,0,0,0,0,0,0,99,3.965,3.973,3.977,3.971,3.986,3.982,0,32,9858.0756350122,38.057744,6,P-GPS,
12200,2023-10-09 18:35:15,38.4980114991115,-112.064340526015,38.057744,,,9858.0756350122,28.215224,13.9137668,50.935697168,54.456694656,19,5,0,9858.4037190122,38.385828,14.8085428,50.935697168,-8.724066,12.30317,0,119.1, -27.4, 0.8,0,0,1684,1024,1024,1024,100,0,0,0,0,0,0,99,3.965,3.973,3.977,3.971,3.986,3.982,0,32,9858.0756350122,38.057744,6,P-GPS,
12300,2023-10-09 18:35:15,38.4980078053671,-112.064333838851,38.057744,,,9858.0756350122,28.215224,16.0164904,52.950132928,56.793965072,19,5,0,9858.4037190122,38.385828,16.0164904,52.950132928,-9.395148,12.974252,0,119.5, -25.4, 0.3,0,0,1684,1024,1024,1024,100,0,0,0,0,0,0,99,3.965,3.973,3.977,3.971,3.986,3.982,0,32,9858.0756350122,38.057744,6,P-GPS,
12400,2023-10-09 18:35:16,38.4980039185869,-112.064326749172,37.72966,,,9857.7475510122,28.215224,17.000744,55.104332472,59.265421844,19,5,0,9858.4037190122,38.385828,17.000744,55.104332472,-9.842536,13.869028,0,119.8, -23.2, -1.6,0,0,1684,1024,1024,1024,100,0,0,0,0,0,0,99,3.965,3.973,3.977,3.971,3.986,3.982,0,32,9857.7475510122,37.72966,6,P-GPS,
12500,2023-10-09 18:35:16,38.4979999127212,-112.064319301679,37.72966,,,9857.7475510122,28.215224,17.6941954,57.370080576,61.845802504,19,5,0,9858.4037190122,38.385828,17.6941954,57.370080576,-10.06623,14.54011,0,119.9, -21.3, -3.5,0,0,1684,1024,1024,1024,100,0,0,0,0,0,0,99,3.965,3.973,3.977,3.971,3.986,3.982,0,32,9857.7475510122,37.72966,6,P-GPS,
12600,2023-10-09 18:35:16,38.4979956892097,-112.064310918657,38.057744,,,9858.0756350122,28.215224,18.231061,59.859253884,64.692587372,19,5,0,9858.4037190122,38.385828,18.231061,59.859253884,-10.06623,15.211192,0,119.8, -20.2, -4.5,0,0,1684,1024,1024,1024,100,0,0,0,0,0,0,99,3.965,3.973,3.977,3.971,3.986,3.982,0,32,9858.0756350122,38.057744,6,P-GPS,
12700,2023-10-09 18:35:16,38.4979915504034,-112.064302761055,38.057744,,,9858.0756350122,28.215224,18.231061,62.320211968,67.46883418,19,5,0,9858.4037190122,38.385828,18.231061,62.320211968,-10.06623,15.882274,0,119.6, -20.1, -4.6,0,0,1684,1024,1024,1024,100,0,0,0,0,0,0,99,3.965,3.973,3.977,3.971,3.986,3.982,0,32,9858.0756350122,38.057744,6,P-GPS,
12800,2023-10-09 18:35:16,38.4979875743283,-112.06429419969,38.057744,,,9858.0756350122,28.215224,19.4837474,64.815618872,70.311353956,19,5,0,9858.4037190122,38.385828,19.4837474,64.815618872,-10.289924,16.553356,0,119.4, -20.4, -3.8,0,0,1684,1024,1024,1024,100,0,0,0,0,0,0,99,3.965,3.973,3.977,3.971,3.986,3.982,0,32,9858.0756350122,38.057744,6,P-GPS,
12900,2023-10-09 18:35:16,38.4979833562457,-112.064285432683,38.057744,,,9858.0756350122,28.215224,19.8640272,67.444555964,73.250002344,19,5,0,9858.4037190122,38.385828,19.8640272,67.444555964,-10.289924,17.000744,0,119.2, -21, -2.6,0,0,1684,1024,1024,1024,100,0,0,0,0,0,0,99,3.965,3.973,3.977,3.971,3.986,3.982,0,32,9858.0756350122,38.057744,6,P-GPS,
13000,2023-10-09 18:35:16,38.4979792539863,-112.064276446094,38.057744,,,9858.0756350122,28.215224,20.5574786,70.097443188,76.22047488,19,5,0,9858.4037190122,38.385828,20.5574786,70.097443188,-10.513618,17.671826,0,119, -21.4, -1.3,0,0,1684,1024,1024,1024,100,0,0,0,0,0,0,99,3.965,3.973,3.977,3.971,3.986,3.982,0,32,9858.0756350122,38.057744,6,P-GPS,
13100,2023-10-09 18:35:16,38.4979748861711,-112.064267114076,38.057744,,,9858.0756350122,28.215224,21.0719748,72.910763488,79.325461856,19,5,0,9858.4037190122,38.385828,21.0719748,72.910763488,-10.737312,18.119214,0,119, -21.1, -0.5,0,0,1684,1024,1024,1024,100,0,0,0,0,0,0,99,3.965,3.973,3.977,3.971,3.986,3.982,0,32,9858.0756350122,38.057744,6,P-GPS,
13200,2023-10-09 18:35:16,38.4979709177856,-112.064258020568,38.057744,,,9858.0756350122,28.215224,21.7430568,75.588585096,82.29823098,19,5,0,9858.4037190122,38.385828,21.7430568,75.588585096,-10.961006,18.790296,0,119, -20.5, 0,0,0,1684,1024,1024,1024,100,0,0,0,0,0,0,99,3.965,3.973,3.977,3.971,3.986,3.982,0,32,9858.0756350122,38.057744,6,P-GPS,
13300,2023-10-09 18:35:16,38.4979664047248,-112.064248227799,38.057744,,,9858.0756350122,28.215224,22.257553,78.56627548,85.543309824,19,5,0,9858.4037190122,38.385828,22.257553,78.56627548,-11.1847,19.237684,0,119.1, -20, 0,0,0,1684,1024,1024,1024,100,0,0,0,0,0,0,99,3.965,3.973,3.977,3.971,3.986,3.982,0,32,9858.0756350122,38.057744,6,P-GPS,
13400,2023-10-09 18:35:17,38.4979618634403,-112.064237890513,38.057744,,,9858.0756350122,28.215224,22.7496798,81.667325448,88.928480536,20,5,0,9858.4037190122,38.385828,22.7496798,81.667325448,-11.408394,19.685072,0,119.2, -19.8, -0.3,0,0,1684,1024,1024,1043,100,0,0,3,0,0,0,99,3.965,3.973,3.977,3.971,3.986,3.982,0,32,9858.0756350122,38.057744,6,P-GPS,
13500,2023-10-09 18:35:17,38.4979571832469,-112.064227634762,38.057744,,,9858.0756350122,28.215224,23.1299596,84.815291428,92.318244424,20,5,0,9858.4037190122,38.385828,23.1299596,84.815291428,-11.408394,20.13246,0,119.3, -19.8, -0.4,0,0,1684,1024,1024,1062,100,0,0,6,0,0,0,99,3.965,3.973,3.977,3.971,3.986,3.982,0,32,9858.0756350122,38.057744,6,P-GPS,
13600,2023-10-09 18:35:17,38.4979525354387,-112.064216886684,38.057744,,,9858.0756350122,28.215224,23.6444558,88.06102644,95.824478132,20,5,0,9858.4037190122,38.385828,23.6444558,88.06102644,-11.632088,20.579848,0,119.3, -19.9, -0.2,0,0,1684,1024,1024,1070,100,0,0,7,0,0,0,99,3.965,3.973,3.977,3.971,3.986,3.982,0,32,9858.0756350122,38.057744,6,P-GPS,
13700,2023-10-09 18:35:17,38.4979476970181,-112.064206170543,38.057744,,,9858.0756350122,28.215224,23.935258,91.373362504,99.357286644,20,5,0,9858.4037190122,38.385828,23.935258,91.373362504,-11.855782,20.803542,0,119.3, -20.1, 0.7,0,0,1684,1024,1024,1079,100,0,0,8,0,0,0,99,3.965,3.973,3.977,3.971,3.986,3.982,0,32,9858.0756350122,38.057744,6,P-GPS,
13800,2023-10-09 18:35:17,38.4979428023728,-112.064195005983,38.057744,,,9858.0756350122,28.215224,24.4497542,94.800856052,103.011158152,20,5,0,9858.4037190122,38.385828,24.4497542,94.800856052,-12.079476,21.25093,0,119.4, -19.8, 2.1,0,0,1684,1024,1024,1097,100,0,0,11,0,0,0,99,3.965,3.973,3.977,3.971,3.986,3.982,0,32,9858.0756350122,38.057744,6,P-GPS,
13900,2023-10-09 18:35:17,38.4979377539836,-112.064183868288,38.057744,,,9858.0756350122,28.215224,24.941881,98.281499208,106.68635512,20,5,0,9858.4037190122,38.385828,24.941881,98.281499208,-12.30317,21.698318,0,119.6, -19, 4.1,0,0,1684,1024,1024,1097,100,0,0,11,0,0,0,99,3.965,3.973,3.977,3.971,3.986,3.982,0,32,9858.0756350122,38.057744,6,P-GPS,
14000,2023-10-09 18:35:17,38.4979328221959,-112.064172513114,38.057744,,,9858.0756350122,28.215224,25.3668996,101.786092496,110.394688572,20,5,0,9858.4037190122,38.385828,25.3668996,101.786092496,-12.750558,21.922012,0,119.8, -18.1, 6.3,0,0,1684,1024,1024,1055,100,0,0,5,0,0,0,99,3.965,3.973,3.977,3.971,3.986,3.982,0,32,9858.0756350122,38.057744,6,P-GPS,
14100,2023-10-09 18:35:17,38.4979274932182,-112.064161139049,38.057744,,,9858.0756350122,28.215224,25.7695488,105.414373452,114.17979368,20,5,0,9858.4037190122,38.385828,25.7695488,105.414373452,-13.197946,22.145706,0,120.3, -17.7, 7.5,0,0,1684,1024,1024,1024,100,0,0,0,0,0,0,99,3.965,3.973,3.977,3.971,3.986,3.982,0,32,9858.0756350122,38.057744,6,P-GPS,
14200,2023-10-09 18:35:17,38.4979219095596,-112.064149655484,38.057744,,,9858.0756350122,28.215224,26.0156122,109.142391944,118.040358108,20,5,0,9858.4037190122,38.385828,26.0156122,109.142391944,-13.645334,22.145706,0,120.8, -18.1, 5.8,0,0,1684,1024,1024,1024,100,0,0,0,0,0,0,99,3.965,3.973,3.977,3.971,3.986,3.982,0,32,9858.0756350122,38.057744,6,P-GPS,
14300,2023-10-09 18:35:17,38.4979162248577,-112.064138134302,38.057744,,,9858.0756350122,28.215224,26.3287838,112.91338944,121.929465844,20,5,0,9858.4037190122,38.385828,26.3287838,112.91338944,-13.869028,22.3694,-0.223694,121, -18.6, 2.4,0,0,1684,1024,1024,1024,100,0,0,0,0,0,0,99,3.965,3.973,3.977,3.971,3.986,3.982,0,32,9858.0756350122,38.057744,6,P-GPS,
14400,2023-10-09 18:35:18,38.497910188011,-112.064125809041,38.057744,,,9858.0756350122,28.215224,26.619586,116.944557548,126.08104078,20,5,0,9858.4037190122,38.385828,26.619586,116.944557548,-14.092722,22.593094,-0.223694,121.3, -19.4, -1.3,0,0,1684,1024,1024,1024,100,0,0,0,0,0,0,99,3.965,3.973,3.977,3.971,3.986,3.982,0,32,9858.0756350122,38.057744,6,P-GPS,
14500,2023-10-09 18:35:18,38.4979043193417,-112.064113936926,38.057744,,,9858.0756350122,28.215224,27.1340822,120.849085232,130.090555344,20,5,0,9858.4037190122,38.385828,27.1340822,120.849085232,-14.316416,23.040482,0,121.5, -20.1, -3.4,0,0,1684,1024,1024,1024,100,0,0,0,0,0,0,99,3.965,3.973,3.977,3.971,3.986,3.982,0,32,9858.0756350122,38.057744,6,P-GPS,
14600,2023-10-09 18:35:18,38.4978987696954,-112.064102703085,38.057744,,,9858.0756350122,28.215224,27.514362,124.549216584,133.883862552,20,5,0,9858.4037190122,38.385828,27.514362,124.549216584,-14.316416,23.48787,0,121.3, -20.5, -3,0,0,1684,1024,1024,1024,100,0,0,0,0,0,0,99,3.965,3.973,3.977,3.971,3.986,3.982,0,32,9858.0756350122,38.057744,6,P-GPS,
14700,2023-10-09 18:35:18,38.4978928722372,-112.064090498464,38.057744,,,9858.0756350122,28.215224,27.6933172,128.541342696,137.979663208,20,5,0,9858.4037190122,38.385828,27.6933172,128.541342696,-14.316416,23.711564,0,121, -20.2, -1.2,0,0,1684,1024,1024,1024,100,0,0,0,0,0,0,99,3.965,3.973,3.977,3.971,3.986,3.982,0,32,9858.0756350122,38.057744,6,P-GPS,
14800,2023-10-09 18:35:18,38.4978870722945,-112.064078059457,38.057744,,,9858.0756350122,28.215224,28.2078134,132.562996368,142.114177776,20,5,0,9858.4037190122,38.385828,28.2078134,132.562996368,-14.54011,24.158952,0,120.7, -19.4, 0.9,0,0,1684,1024,1024,1024,100,0,0,0,0,0,0,99,3.965,3.973,3.977,3.971,3.986,3.982,0,32,9858.0756350122,38.057744,6,P-GPS,
14900,2023-10-09 18:35:18,38.497881101126,-112.064065517886,38.057744,,,9858.0756350122,28.215224,28.3867686,136.655844268,146.30577896,20,5,0,9858.4037190122,38.385828,28.3867686,136.655844268,-14.54011,24.382646,0,120.5, -18.2, 2.2,0,0,1684,1024,1024,1024,100,0,0,0,0,0,0,99,3.965,3.973,3.977,3.971,3.986,3.982,0,32,9858.0756350122,38.057744,6,P-GPS,
15000,2023-10-09 18:35:18,38.4978745477249,-112.064052005665,38.057744,,,9858.0756350122,28.215224,28.6999402,141.102038636,150.8448211,20,5,0,9858.4037190122,38.385828,28.6999402,141.102038636,-14.763804,24.60634,0,120.5, -17.4, 2.6,0,0,1684,1024,1024,1024,100,0,0,0,0,0,0,99,3.965,3.973,3.977,3.971,3.986,3.982,0,32,9858.0756350122,38.057744,6,P-GPS,
15100,2023-10-09 18:35:18,38.4978684716768,-112.064039163207,38.057744,,,9858.0756350122,28.215224,28.6999402,145.29528024,155.129926224,20,5,0,9858.4037190122,38.385828,28.6999402,145.29528024,-14.763804,24.830034,0,120.6, -17.7, 2.5,0,0,1684,1024,1024,1024,100,0,0,0,0,0,0,99,3.965,3.973,3.977,3.971,3.986,3.982,0,32,9858.0756350122,38.057744,6,P-GPS,
15200,2023-10-09 18:35:18,38.497862375283,-112.064026626954,38.057744,,,9858.0756350122,28.215224,29.08022,149.434387984,159.344493288,20,5,0,9858.4037190122,38.385828,29.08022,149.434387984,-14.763804,25.053728,0,120.5, -18.8, 2.6,0,0,1684,1024,1024,1094,100,0,0,11,0,0,0,99,3.965,3.973,3.977,3.971,3.986,3.982,0,32,9858.0756350122,38.057744,6,P-GPS,
15300,2023-10-09 18:35:18,38.4978562384376,-112.064013594204,38.057744,,,9858.0756350122,28.215224,29.3933916,153.69259022,163.687341196,20,5,0,9858.4037190122,38.385828,29.3933916,153.69259022,-14.987498,25.277422,0,120.6, -20, 2.8,0,0,1684,1024,1024,1110,100,0,0,13,0,0,0,99,3.965,3.973,3.977,3.971,3.986,3.982,0,32,9858.0756350122,38.057744,6,P-GPS,
15400,2023-10-09 18:35:18,38.497850605422,-112.064001618869,38.057744,,,9858.0756350122,28.215224,29.3933916,157.607616592,167.67717072,20,5,0,9858.4037190122,38.385828,29.3933916,157.607616592,-14.987498,25.501116,0,120.5, -20.3, 4.6,0,0,1684,1024,1024,1097,100,0,0,11,0,0,0,99,3.965,3.973,3.977,3.971,3.986,3.982,0,32,9858.0756350122,38.057744,6,P-GPS,
15500,2023-10-09 18:35:19,38.4978443775347,-112.063988452636,38.057744,,,9858.0756350122,28.215224,29.8855184,161.924873948,172.069887396,20,5,0,9858.4037190122,38.385828,29.8855184,161.924873948,-15.211192,25.72481,0,120.6, -19.2, 7.9,0,0,1684,1024,1024,1076,100,0,0,8,0,0,0,99,3.965,3.973,3.977,3.971,3.986,3.982,0,32,9858.0756350122,38.057744,6,P-GPS,
15600,2023-10-09 18:35:19,38.497838032694,-112.063975251915,38.057744,,,9858.0756350122,28.215224,30.1092124,166.281501384,176.493443968,20,5,0,9858.4037190122,38.385828,30.1092124,166.281501384,-15.65858,25.72481,0,121.1, -17.6, 10.3,0,0,1684,1024,1024,1087,100,0,0,10,0,0,0,99,3.965,3.973,3.977,3.971,3.986,3.982,0,32,9858.0756350122,38.057744,6,P-GPS,
15700,2023-10-09 18:35:19,38.49783152132,-112.063962041785,38.057744,,,9858.0756350122,28.215224,30.3552758,170.683732496,180.951121276,20,5,0,9858.4037190122,38.385828,30.3552758,170.683732496,-16.105968,25.72481,0,121.7, -16.5, 10.9,0,0,1684,1024,1024,1106,100,0,0,12,0,0,0,99,3.965,3.973,3.977,3.971,3.986,3.982,0,32,9858.0756350122,38.057744,6,P-GPS,
15800,2023-10-09 18:35:19,38.4978246338591,-112.063948741673,38.057744,,,9858.0756350122,28.215224,30.3552758,175.197840252,185.504927196,20,5,0,9858.4037190122,38.385828,30.3552758,175.197840252,-16.329662,25.72481,0,122.1, -16.4, 11,0,0,1684,1024,1024,1102,100,0,0,12,0,0,0,99,3.965,3.973,3.977,3.971,3.986,3.982,0,32,9858.0756350122,38.057744,6,P-GPS,
15900,2023-10-09 18:35:19,38.4978178119907,-112.063935586774,38.057744,,,9858.0756350122,28.215224,30.7131862,179.667328584,190.011160936,20,5,0,9858.4037190122,38.385828,30.7131862,179.667328584,-16.77705,25.72481,0,122.4, -16.8, 10.9,0,0,1684,1024,1024,1092,100,0,0,10,0,0,0,99,3.965,3.973,3.977,3.971,3.986,3.982,0,32,9858.0756350122,38.057744,6,P-GPS,
16000,2023-10-09 18:35:19,38.4978104316435,-112.063921497442,38.057744,,,9858.0756350122,28.215224,30.8250332,184.4734311,194.852040356,20,5,0,9858.4037190122,38.385828,30.8250332,184.4734311,-17.000744,25.72481,0,122.8, -17, 10,0,0,1684,1024,1024,1049,100,0,0,4,0,0,0,99,3.965,3.973,3.977,3.971,3.986,3.982,0,32,9858.0756350122,38.057744,6,P-GPS,
16100,2023-10-09 18:35:19,38.4978032757496,-112.063908316022,38.057744,,,9858.0756350122,28.215224,30.8921414,189.030845944,199.432749164,20,5,0,9858.4037190122,38.385828,30.8921414,189.030845944,-17.448132,25.501116,0,123.3, -17, 8.4,0,0,1684,1024,1024,1024,100,0,0,0,0,0,0,99,3.965,3.973,3.977,3.971,3.986,3.982,0,32,9858.0756350122,38.057744,6,P-GPS,
16200,2023-10-09 18:35:19,38.4977958089503,-112.063895479735,38.057744,,,9858.0756350122,28.215224,31.0263578,193.587932704,203.999678444,20,5,0,9858.4037190122,38.385828,31.0263578,193.587932704,-17.671826,25.501116,0,123.7, -17.3, 4.4,0,0,1684,1024,1024,1024,100,0,0,0,0,0,0,99,3.965,3.973,3.977,3.971,3.986,3.982,0,32,9858.0756350122,38.057744,6,P-GPS,
16300,2023-10-09 18:35:19,38.4977884239449,-112.063882303873,38.057744,,,9858.0756350122,28.215224,31.3395294,198.200137576,208.627303264,20,5,0,9858.4037190122,38.385828,31.3395294,198.200137576,-17.89552,25.72481,0,124, -17.8, -0.1,0,0,1684,1024,1024,1024,100,0,0,0,0,0,0,99,3.965,3.973,3.977,3.971,3.986,3.982,0,32,9858.0756350122,38.057744,6,P-GPS,
16400,2023-10-09 18:35:20,38.49778110806,-112.06386926841,38.057744,,,9858.0756350122,28.215224,31.5184846,202.766082604,213.207683988,20,5,0,9858.4037190122,38.385828,31.5184846,202.766082604,-17.89552,25.948504,0,124.2, -18.4, -3.1,0,0,1684,1024,1024,1024,100,0,0,0,0,0,0,99,3.965,3.973,3.977,3.971,3.986,3.982,0,32,9858.0756350122,38.057744,6,P-GPS,
16500,2023-10-09 18:35:20,38.4977737527168,-112.063855860504,38.057744,,,9858.0756350122,28.215224,31.6974398,207.423234984,217.882880988,20,5,0,9858.4037190122,38.385828,31.6974398,207.423234984,-17.89552,26.172198,0,124, -18.7, -2.9,0,0,1684,1024,1024,1024,100,0,0,0,0,0,0,99,3.965,3.973,3.977,3.971,3.986,3.982,0,32,9858.0756350122,38.057744,6,P-GPS,
16600,2023-10-09 18:35:20,38.4977669358493,-112.063843492856,38.057744,,,9858.0756350122,28.215224,31.764548,211.72736898,222.202434932,20,5,0,9858.4037190122,38.385828,31.764548,211.72736898,-17.671826,26.395892,0,123.6, -18.8, -0.8,0,0,1684,1024,1024,1024,100,0,0,0,0,0,0,99,3.965,3.973,3.977,3.971,3.986,3.982,0,32,9858.0756350122,38.057744,6,P-GPS,
16700,2023-10-09 18:35:20,38.4977596628479,-112.063829958031,38.057744,,,9858.0756350122,28.215224,31.9435032,216.394691964,226.890427208,20,5,0,9858.4037190122,38.385828,31.9435032,216.394691964,-17.671826,26.619586,0,123.4, -19, 1.2,0,0,1684,1024,1024,1024,100,0,0,0,0,0,0,99,3.965,3.973,3.977,3.971,3.986,3.982,0,32,9858.0756350122,38.057744,6,P-GPS,
16800,2023-10-09 18:35:20,38.4977512903572,-112.06381416452,38.057744,,,9858.0756350122,28.215224,32.0777196,221.815295812,232.337277776,20,5,0,9858.4037190122,38.385828,32.0777196,221.815295812,-17.89552,26.619586,0,123.3, -19.1, 2.3,0,0,1684,1024,1024,1024,100,0,0,0,0,0,0,99,3.965,3.973,3.977,3.971,3.986,3.982,0,32,9858.0756350122,38.057744,6,P-GPS,
16900,2023-10-09 18:35:20,38.4977438226674,-112.063800266049,38.057744,,,9858.0756350122,28.215224,32.3908912,226.609915388,237.151254308,20,5,0,9858.4037190122,38.385828,32.3908912,226.609915388,-18.119214,26.84328,0,123.4, -19.2, 2.4,0,0,1684,1024,1024,1024,100,0,0,0,0,0,0,99,3.965,3.973,3.977,3.971,3.986,3.982,0,32,9858.0756350122,38.057744,6,P-GPS,
17000,2023-10-09 18:35:20,38.4977369511337,-112.063787656247,38.057744,,,9858.0756350122,28.215224,32.5698464,230.982947024,241.53872164,20,5,0,9858.4037190122,38.385828,32.5698464,230.982947024,-18.119214,27.066974,0,123.7, -19.2, 1.8,0,0,1684,1024,1024,1024,100,0,0,0,0,0,0,99,3.965,3.973,3.977,3.971,3.986,3.982,0,32,9858.0756350122,38.057744,6,P-GPS,
17100,2023-10-09 18:35:20,38.4977294385395,-112.063773691865,38.057744,,,9858.0756350122,28.215224,32.5698464,235.80381332,246.377304472,20,5,0,9858.4037190122,38.385828,32.5698464,235.80381332,-18.342908,27.290668,0,123.9, -18.7, 1.3,0,0,1684,1024,1024,1024,100,0,0,0,0,0,0,99,3.965,3.973,3.977,3.971,3.986,3.982,0,32,9858.0756350122,38.057744,6,P-GPS,
17200,2023-10-09 18:35:20,38.4977222473319,-112.063760902364,38.057744,,,9858.0756350122,28.215224,33.0619732,240.291346272,250.874023776,20,5,0,9858.4037190122,38.385828,33.0619732,240.291346272,-18.342908,27.514362,0,123.9, -18, 1.3,0,0,1684,1024,1024,1024,100,0,0,0,0,0,0,99,3.965,3.973,3.977,3.971,3.986,3.982,0,32,9858.0756350122,38.057744,6,P-GPS,
17300,2023-10-09 18:35:20,38.497714688703,-112.063746889446,38.057744,,,9858.0756350122,28.215224,33.0619732,245.134850364,255.733603984,20,5,0,9858.4037190122,38.385828,33.0619732,245.134850364,-18.342908,27.514362,0,123.9, -17.3, 1.5,0,0,1684,1024,1024,1024,100,0,0,0,0,0,0,99,3.965,3.973,3.977,3.971,3.986,3.982,0,32,9858.0756350122,38.057744,6,P-GPS,
