time(millisecond),datetime(utc),latitude,longitude,height_above_takeoff(feet),height_above_ground_at_drone_location(feet),ground_elevation_at_drone_location(feet),altitude_above_seaLevel(feet),height_sonar(feet),speed(mph),distance(feet),mileage(feet),satellites,gpslevel,voltage(v),max_altitude(feet),max_ascent(feet),max_speed(mph),max_distance(feet), xSpeed(mph), ySpeed(mph), zSpeed(mph), compass_heading(degrees), pitch(degrees), roll(degrees),isPhoto,isVideo,rc_elevator,rc_aileron,rc_throttle,rc_rudder,rc_elevator(percent),rc_aileron(percent),rc_throttle(percent),rc_rudder(percent),gimbal_heading(degrees),gimbal_pitch(degrees),gimbal_roll(degrees),battery_percent,voltageCell1,voltageCell2,voltageCell3,voltageCell4,voltageCell5,voltageCell6,current(A),battery_temperature(f),altitude(feet),ascent(feet),flycStateRaw,flycState,message
0,2023-10-10 00:18:45,38.498136126995,-112.064416687198,0,Available with any HD 360 subscription,Available with any HD 360 subscription,9820.1364369478,0.656168,0,0,0,15,5,0,9820.1364369478,0,0,0,0,0,0,332.9, -0.7, 1.6,0,0,364,364,364,1684,-100,-100,-100,100,0,0,0,99,3.825,3.834,3.847,3.852,3.854,3.856,0,32,9820.1364369478,0,41,Motors_Started,
100,2023-10-10 00:18:46,38.4981361206535,-112.064416688236,0,,,9820.1364369478,0.656168,0,0.00233260834236,0.00233260834236,15,5,0,9820.1364369478,0,0,0.00233260834236,0,0,0,332.9, -0.7, 1.6,0,0,364,364,364,1684,-100,-100,-100,100,0,0,0,99,3.825,3.834,3.847,3.852,3.854,3.856,0,32,9820.1364369478,0,41,Motors_Started,
200,2023-10-10 00:18:46,38.4981361269163,-112.064416528811,0,,,9820.1364369478,0.656168,0,0.045225723232,0.047912075024,15,5,0,9820.1364369478,0,0,0.045225723232,0,0,0,332.9, -0.7, 1.6,0,0,364,364,364,1684,-100,-100,-100,100,0,0,0,99,3.825,3.834,3.847,3.852,3.854,3.856,0,32,9820.1364369478,0,41,Motors_Started,
300,2023-10-10 00:18:46,38.4981361208974,-112.064416516052,0,,,9820.1364369478,0.656168,0,0.048919949072,0.052166340252,15,5,0,9820.1364369478,0,0,0.048919949072,0,0,0,332.9, -0.7, 1.6,0,0,364,364,364,1684,-100,-100,-100,100,0,0,0,99,3.825,3.834,3.847,3.852,3.854,3.856,0,32,9820.1364369478,0,41,Motors_Started,
400,2023-10-10 00:18:46,38.4981362905691,-112.0644165394,0,,,9820.1364369478,0.656168,0,0.073094162444,0.114428809436,15,5,0,9820.1364369478,0,0,0.073094162444,0,0,0,332.9, -0.7, 1.6,0,0,364,364,364,1684,-100,-100,-100,100,0,0,0,99,3.825,3.834,3.847,3.852,3.854,3.856,0,32,9820.1364369478,0,41,Motors_Started,
500,2023-10-10 00:18:46,38.4981362995221,-112.064416528694,0,,,9820.1364369478,0.656168,0,0.077528217704,0.11890256286,15,5,0,9820.1364369478,0,0,0.077528217704,0,0,0,332.9, -0.7, 1.6,0,0,364,364,364,1684,-100,-100,-100,100,0,0,0,99,3.825,3.834,3.847,3.852,3.854,3.856,0,32,9820.1364369478,0,41,Motors_Started,"Setting new Return-To-Home altitude to 122m (400 ft). Data Recorder File Index is 21. Setting new Maximum Flight Altitude to 244m (801 ft)"
600,2023-10-10 00:18:46,38.4981361198877,-112.064416548364,0,,,9820.1364369478,0.656168,0,0.039727363476,0.184682092524,15,5,0,9820.1364369478,0,0,0.077528217704,0,0,0,332.9, -0.7, 1.6,0,0,364,364,364,1684,-100,-100,-100,100,0,0,0,99,3.825,3.834,3.847,3.852,3.854,3.856,0,32,9820.1364369478,0,41,Motors_Started,
700,2023-10-10 00:18:46,38.4981361130449,-112.064416540107,0,,,9820.1364369478,0.656168,0,0.042307744136,0.188116147752,15,5,0,9820.1364369478,0,0,0.077528217704,0,0,0,332.8, -0.7, 1.6,0,0,364,367,364,1684,-100,-100,-100,100,0,0,0,99,3.825,3.834,3.847,3.852,3.854,3.856,0,32,9820.1364369478,0,41,Motors_Started,
800,2023-10-10 00:18:46,38.498136121161,-112.064416556827,0,,,9820.1364369478,0.656168,0,0.037287074684,0.193734258168,15,5,0,9820.1364369478,0,0,0.077528217704,0,0,0,332.8, -0.7, 1.6,0,0,364,372,364,1684,-100,-99,-100,100,0,0,0,99,3.825,3.834,3.847,3.852,3.854,3.856,0,32,9820.1364369478,0,41,Motors_Started,
900,2023-10-10 00:18:46,38.4981361150097,-112.064416548801,0,,,9820.1364369478,0.656168,0,0.039759187624,0.196941607352,15,5,0,9820.1364369478,0,0,0.077528217704,0,0,0,332.8, -0.7, 1.6,0,0,364,395,364,1683,-100,-95,-100,100,0,0,0,99,3.825,3.834,3.847,3.852,3.854,3.856,0,32,9820.1364369478,0,41,Motors_Started,
1000,2023-10-10 00:18:46,38.4981362887296,-112.064416560395,0,,,9820.1364369478,0.656168,0,0.069231629512,0.260409785236,15,5,0,9820.1364369478,0,0,0.077528217704,0,0,0,332.8, -0.7, 1.6,0,0,826,863,540,1500,-30,-24,-73,72,0,0,0,99,3.825,3.834,3.847,3.852,3.854,3.856,0,32,9820.1364369478,0,41,Motors_Started,
1100,2023-10-10 00:18:47,38.498136297393,-112.064416553885,0,,,9820.1364369478,0.656168,0,0.072897968212,0.264076780104,15,5,0,9820.1364369478,0,0,0.077528217704,0,0,0,332.8, -0.8, 1.6,0,0,1024,1024,1024,1024,0,0,0,0,0,0,0,99,3.825,3.834,3.847,3.852,3.854,3.856,0,32,9820.1364369478,0,41,Motors_Started,
1200,2023-10-10 00:18:47,38.4981362827604,-112.064416401288,0,,,9820.1364369478,0.656168,0,0.099472116044,0.307975075472,15,5,0,9820.1364369478,0,0,0.099472116044,0,0,0,332.8, -0.7, 1.6,0,0,1024,1024,1024,1024,0,0,0,0,0,0,0,99,3.825,3.834,3.847,3.852,3.854,3.856,0,32,9820.1364369478,0,41,Motors_Started,
1300,2023-10-10 00:18:47,38.4981362910009,-112.064416380437,0,,,9820.1364369478,0.656168,0,0.106080383972,0.314645023192,15,5,0,9820.1364369478,0,0,0.106080383972,0,0,0,332.7, -0.7, 1.6,0,0,1024,1024,1024,1024,0,0,0,0,0,0,0,99,3.825,3.834,3.847,3.852,3.854,3.856,0,32,9820.1364369478,0,41,Motors_Started,
1400,2023-10-10 00:18:47,38.4981362812925,-112.064416414418,0,,,9820.1364369478,0.656168,0,0.096104333784,0.324974091764,15,5,0,9820.1364369478,0,0,0.106080383972,0,0,0,332.8, -0.7, 1.6,0,0,1024,1024,1024,1024,0,0,0,0,0,0,0,99,3.825,3.834,3.847,3.852,3.854,3.856,0,32,9820.1364369478,0,41,Motors_Started,
1500,2023-10-10 00:18:47,38.4981362869897,-112.064416396613,0,,,9820.1364369478,0.656168,0,0.101450462564,0.33046588984,15,5,0,9820.1364369478,0,0,0.106080383972,0,0,0,332.8, -0.7, 1.6,0,0,1024,1024,1024,1024,0,0,0,0,0,0,0,99,3.825,3.834,3.847,3.852,3.854,3.856,0,32,9820.1364369478,0,41,Motors_Started,
1600,2023-10-10 00:18:47,38.4981362669879,-112.06441642792,0,,,9820.1364369478,0.656168,0,0.089943900516,0.34200788496,15,5,0,9820.1364369478,0,0,0.106080383972,0,0,0,332.8, -0.7, 1.6,0,0,1024,1024,1024,1024,0,0,0,0,0,0,0,99,3.825,3.834,3.847,3.852,3.854,3.856,0,32,9820.1364369478,0,41,Motors_Started,
1700,2023-10-10 00:18:47,38.4981362712007,-112.064416413971,0,,,9820.1364369478,0.656168,0,0.094100396712,0.3462762578,15,5,0,9820.1364369478,0,0,0.106080383972,0,0,0,332.8, -0.8, 1.6,0,0,1024,1024,1024,1024,0,0,0,0,0,0,0,99,3.825,3.834,3.847,3.852,3.854,3.856,0,32,9820.1364369478,0,41,Motors_Started,
1800,2023-10-10 00:18:47,38.4981362520973,-112.064416439798,0,,,9820.1364369478,0.656168,0,0.084105645736,0.35642389592,15,5,0,9820.1364369478,0,0,0.106080383972,0,0,0,332.9, -0.8, 1.6,0,0,1024,1024,1024,1024,0,0,0,0,0,0,0,99,3.825,3.834,3.847,3.852,3.854,3.856,0,32,9820.1364369478,0,41,Motors_Started,
1900,2023-10-10 00:18:47,38.4981362551857,-112.064416424935,0,,,9820.1364369478,0.656168,0,0.08829232566,0.36081365984,15,5,0,9820.1364369478,0,0,0.106080383972,0,0,0,332.8, -0.8, 1.6,0,0,1024,1024,1024,1024,0,0,0,0,0,0,0,99,3.825,3.834,3.847,3.852,3.854,3.856,0,32,9820.1364369478,0,41,Motors_Started,
2000,2023-10-10 00:18:47,38.4981362582894,-112.064416278164,0,,,9820.1364369478,0.656168,0,0.126237864932,0.4027395142,15,5,0,9820.1364369478,0,0,0.126237864932,0,0,0,332.8, -0.8, 1.6,0,0,1024,1024,1024,1024,0,0,0,0,0,0,0,99,3.825,3.834,3.847,3.852,3.854,3.856,0,32,9820.1364369478,0,10,Assisted_Takeoff,
2100,2023-10-10 00:18:48,38.4981362605908,-112.064416251642,0,,,9820.1364369478,0.656168,0,0.133579728684,0.41035762468,15,5,0,9820.1364369478,0,0,0.133579728684,0,0,0,332.8, -0.8, 1.6,0,0,1024,1024,1024,1024,0,0,0,0,0,0,0,99,3.825,3.834,3.847,3.852,3.854,3.856,0,32,9820.1364369478,0,10,Assisted_Takeoff,
2200,2023-10-10 00:18:48,38.4981362579227,-112.064416289592,0,,,9820.1364369478,0.656168,0,0.123172904204,0.42123689012,15,5,0,9820.1364369478,0,0,0.133579728684,0,0,0,332.8, -0.8, 1.6,0,0,1024,1024,1024,1024,0,0,0,0,0,0,0,99,3.825,3.834,3.847,3.852,3.854,3.856,0,32,9820.1364369478,0,10,Assisted_Takeoff,
2300,2023-10-10 00:18:48,38.4981362594415,-112.064416266013,0,,,9820.1364369478,0.656168,0,0.129610896536,0.42799542052,15,5,0,9820.1364369478,0,0,0.133579728684,0,0,0,332.8, -0.8, 1.6,0,0,1024,1024,1024,1024,0,0,0,0,0,0,0,99,3.825,3.834,3.847,3.852,3.854,3.856,0,32,9820.1364369478,0,10,Assisted_Takeoff,
2400,2023-10-10 00:18:48,38.4981364135314,-112.064416311318,0,,,9820.1364369478,0.656168,0,0.149829073036,0.48568243024,15,5,0,9820.1364369478,0,0,0.149829073036,0,0,0,332.8, -0.8, 1.6,0,0,1024,1024,1024,1024,0,0,0,0,0,0,0,99,3.825,3.834,3.847,3.852,3.854,3.856,0,32,9820.1364369478,0,10,Assisted_Takeoff,
2500,2023-10-10 00:18:48,38.4981364292089,-112.064416292014,0,,,9820.1364369478,0.656168,0,0.157768705836,0.49362534388,15,5,0,9820.1364369478,0,0,0.157768705836,0,0,0,332.8, -0.7, 1.6,0,0,1024,1024,1024,1024,0,0,0,0,0,0,0,99,3.825,3.834,3.847,3.852,3.854,3.856,0,32,9820.1364369478,0,10,Assisted_Takeoff,
2600,2023-10-10 00:18:48,38.4981364013544,-112.064416326708,0,,,9820.1364369478,0.656168,0,0.143581369424,0.50781825772,15,5,0,9820.1364369478,0,0,0.157768705836,0,0,0,332.8, -0.7, 1.6,0,0,1024,1024,1024,1024,0,0,0,0,0,0,0,99,3.825,3.834,3.847,3.852,3.854,3.856,0,32,9820.1364369478,0,10,Assisted_Takeoff,
2700,2023-10-10 00:18:48,38.4981364141767,-112.064416312185,0,,,9820.1364369478,0.656168,0,0.14981627776,0.51407153876,15,5,0,9820.1364369478,0,0,0.157768705836,0,0,0,332.8, -0.8, 1.6,0,0,1024,1024,1024,1024,0,0,0,0,0,0,0,99,3.825,3.834,3.847,3.852,3.854,3.856,0,32,9820.1364369478,0,10,Assisted_Takeoff,
2800,2023-10-10 00:18:48,38.4981363891457,-112.064416343085,0,,,9820.1364369478,0.656168,0,0.137123363968,0.52676838956,15,5,0,9820.1364369478,0,0,0.157768705836,0,0,0,332.8, -0.7, 1.6,0,0,1024,1024,1024,1024,0,0,0,0,0,0,0,99,3.825,3.834,3.847,3.852,3.854,3.856,0,32,9820.1364369478,0,10,Assisted_Takeoff,
2900,2023-10-10 00:18:48,38.4981363988944,-112.064416332629,0,,,9820.1364369478,0.656168,0,0.141744427108,0.53141077816,15,5,0,9820.1364369478,0,0,0.157768705836,0,0,0,332.8, -0.7, 1.6,0,0,1024,1024,1024,1024,0,0,0,0,0,0,0,99,3.825,3.834,3.847,3.852,3.854,3.856,0,32,9820.1364369478,0,10,Assisted_Takeoff,
3000,2023-10-10 00:18:48,38.4981363749613,-112.064416360097,0,,,9820.1364369478,0.656168,0,0.130033140644,0.54314962368,15,5,0,9820.1364369478,0,0,0.157768705836,0,0,0,332.8, -0.7, 1.6,0,0,1024,1024,1024,1024,0,0,0,0,0,0,0,99,3.825,3.834,3.847,3.852,3.854,3.856,0,32,9820.1364369478,0,10,Assisted_Takeoff,
3100,2023-10-10 00:18:49,38.4981363823433,-112.064416354059,0,,,9820.1364369478,0.656168,0,0.133147313972,0.54634844268,15,5,0,9820.1364369478,0,0,0.157768705836,0,0,0,332.8, -0.8, 1.6,0,0,1024,1024,1024,1024,0,0,0,0,0,0,0,99,3.825,3.834,3.847,3.852,3.854,3.856,0,32,9820.1364369478,0,10,Assisted_Takeoff,
3200,2023-10-10 00:18:49,38.4981363631391,-112.064416374402,0,,,9820.1364369478,0.656168,0,0.124098429168,0.55544949284,15,5,0,9820.1364369478,0,0,0.157768705836,0,0,0,332.8, -0.8, 1.6,0,0,1024,1024,1024,1024,0,0,0,0,0,0,0,99,3.825,3.834,3.847,3.852,3.854,3.856,0,32,9820.1364369478,0,10,Assisted_Takeoff,
3300,2023-10-10 00:18:49,38.4981363676274,-112.064416371361,0,,,9820.1364369478,0.656168,0,0.125861552584,0.55730316744,15,5,0,9820.1364369478,0,0,0.157768705836,0,0,0,332.8, -0.8, 1.6,0,0,1024,1024,1024,1024,0,0,0,0,0,0,0,99,3.825,3.834,3.847,3.852,3.854,3.856,0,32,9820.1364369478,0,10,Assisted_Takeoff,
3400,2023-10-10 00:18:49,38.4981363553901,-112.064416222977,0,,,9820.1364369478,0.656168,0,0.156571199236,0.59990487484,15,5,0,9820.1364369478,0,0,0.157768705836,0,0,0,332.8, -0.8, 1.6,0,0,1024,1024,1024,1024,0,0,0,0,0,0,0,99,3.825,3.834,3.847,3.852,3.854,3.856,0,32,9820.1364369478,0,10,Assisted_Takeoff,
3500,2023-10-10 00:18:49,38.4981363574606,-112.064416206726,0,,,9820.1364369478,0.656168,0,0.16091207864,0.60460631856,15,5,0,9820.1364369478,0,0,0.16091207864,0,0,0,332.8, -0.8, 1.6,0,0,1024,1024,1024,1024,0,0,0,0,0,0,0,99,3.825,3.834,3.847,3.852,3.854,3.856,0,32,9820.1364369478,0,10,Assisted_Takeoff,
3600,2023-10-10 00:18:49,38.4981363452826,-112.064416239505,0,,,9820.1364369478,0.656168,0,0.150614178048,0.61496721128,15,5,0,9820.1364369478,0,0,0.16091207864,0,0,0,332.8, -0.8, 1.6,0,0,1024,1024,1024,1024,0,0,0,0,0,0,0,99,3.825,3.834,3.847,3.852,3.854,3.856,0,32,9820.1364369478,0,10,Assisted_Takeoff,
3700,2023-10-10 00:18:49,38.4981363454669,-112.064416225982,0,,,9820.1364369478,0.656168,0,0.153939637472,0.6188320408,15,5,0,9820.1364369478,0,0,0.16091207864,0,0,0,332.8, -0.8, 1.6,0,0,1024,1024,1024,1024,0,0,0,0,0,0,0,99,3.825,3.834,3.847,3.852,3.854,3.856,0,32,9820.1364369478,0,10,Assisted_Takeoff,
3800,2023-10-10 00:18:49,38.4981364990044,-112.064416247754,0,,,9820.1364369478,0.656168,0,0.184843181768,0.67519359116,15,5,0,9820.1364369478,0,0,0.184843181768,0,0,0,332.8, -0.8, 1.6,0,0,1024,1024,1024,1024,0,0,0,0,0,0,0,99,3.825,3.834,3.847,3.852,3.854,3.856,0,32,9820.1364369478,0,10,Assisted_Takeoff,
3900,2023-10-10 00:18:49,38.4981365126322,-112.064416238151,0,,,9820.1364369478,0.656168,0,0.190360570396,0.68086944436,15,5,0,9820.1364369478,0,0,0.190360570396,0,0,0,332.8, -0.8, 1.6,0,0,1024,1024,1024,1024,0,0,0,0,0,0,0,99,3.825,3.834,3.847,3.852,3.854,3.856,0,32,9820.1364369478,0,10,Assisted_Takeoff,
4000,2023-10-10 00:18:49,38.4981364867233,-112.064416258889,0,,,9820.1364369478,0.656168,0,0.179396003116,0.69202430036,15,5,0,9820.1364369478,0,0,0.190360570396,0,0,0,332.8, -0.8, 1.6,0,0,1024,1024,1024,1024,0,0,0,0,0,0,0,99,3.825,3.834,3.847,3.852,3.854,3.856,0,32,9820.1364369478,0,10,Assisted_Takeoff,
4100,2023-10-10 00:18:50,38.4981364966887,-112.064416249533,0,,,9820.1364369478,0.656168,0,0.183878286724,0.69653545536,15,5,0,9820.1364369478,0,0,0.190360570396,0,0,0,332.8, -0.7, 1.6,0,0,1024,1024,1024,1024,0,0,0,0,0,0,0,99,3.825,3.834,3.847,3.852,3.854,3.856,0,32,9820.1364369478,0,10,Assisted_Takeoff,
4200,2023-10-10 00:18:50,38.4981364772021,-112.064416264687,0,,,9820.1364369478,0.656168,0,0.1757299925,0.70485894644,15,5,0,9820.1364369478,0,0,0.190360570396,0,0,0,332.8, -0.8, 1.6,0,0,1024,1024,1024,1024,0,0,0,0,0,0,0,99,3.825,3.834,3.847,3.852,3.854,3.856,0,32,9820.1364369478,0,10,Assisted_Takeoff,
4300,2023-10-10 00:18:50,38.4981364844193,-112.064416260324,0,,,9820.1364369478,0.656168,0,0.178501974216,0.70777233236,15,5,0,9820.1364369478,0,0,0.190360570396,0,0,0,332.8, -0.8, 1.6,0,0,1024,1024,1024,1024,0,0,0,0,0,0,0,99,3.825,3.834,3.847,3.852,3.854,3.856,0,32,9820.1364369478,0,10,Assisted_Takeoff,
4400,2023-10-10 00:18:50,38.4981364667955,-112.064416277294,0,,,9820.1364369478,0.656168,0,0.170497708868,0.71582351372,15,5,0,9820.1364369478,0,0,0.190360570396,0,0,0,332.8, -0.8, 1.6,0,0,1024,1024,1024,1024,0,0,0,0,0,0,0,99,3.825,3.834,3.847,3.852,3.854,3.856,0,32,9820.1364369478,0,10,Assisted_Takeoff,
4500,2023-10-10 00:18:50,38.498136472359,-112.064416272088,0,,,9820.1364369478,0.656168,0,0.172994428108,0.718339918,15,5,0,9820.1364369478,0,0,0.190360570396,0,0,0,332.8, -0.8, 1.6,0,0,1024,1024,1024,1024,0,0,0,0,0,0,0,99,3.825,3.834,3.847,3.852,3.854,3.856,0,32,9820.1364369478,0,10,Assisted_Takeoff,
4600,2023-10-10 00:18:50,38.4981364558807,-112.064416281046,0,,,9820.1364369478,0.656168,0,0.16687828618,0.72487535128,15,5,0,9820.1364369478,0,0,0.190360570396,0,0,0,332.8, -0.8, 1.6,0,0,1024,1024,1024,1024,0,0,0,0,0,0,0,99,3.825,3.834,3.847,3.852,3.854,3.856,0,32,9820.1364369478,0,10,Assisted_Takeoff,
4700,2023-10-10 00:18:50,38.4981364572854,-112.064416280068,0,,,9820.1364369478,0.656168,0,0.167440622156,0.72545605996,15,5,0,9820.1364369478,0,0,0.190360570396,0,0,0,332.8, -0.8, 1.6,0,0,1024,1024,1050,1024,0,0,4,0,0,0,0,99,3.825,3.834,3.847,3.852,3.854,3.856,0,32,9820.1364369478,0,10,Assisted_Takeoff,
4800,2023-10-10 00:18:50,38.4981364482464,-112.064416124695,0,,,9820.1364369478,0.656168,0,0.198836292452,0.76994425036,15,5,0,9820.1364369478,0,0,0.198836292452,0,0,0,332.8, -0.8, 1.6,0,0,1024,1024,1024,1024,0,0,0,0,0,0,0,99,3.825,3.834,3.847,3.852,3.854,3.856,0,32,9820.1364369478,0,10,Assisted_Takeoff,
4900,2023-10-10 00:18:50,38.4981364493386,-112.064416108579,0,,,9820.1364369478,0.656168,0,0.202802499928,0.77456367308,15,5,0,9820.1364369478,0,0,0.202802499928,0,0,0,332.8, -0.8, 1.6,0,0,1024,1024,1024,1024,0,0,0,0,0,0,0,99,3.825,3.834,3.847,3.852,3.854,3.856,0,32,9820.1364369478,0,10,Assisted_Takeoff,
5000,2023-10-10 00:18:50,38.4981364406335,-112.064416137907,0,,,9820.1364369478,0.656168,0,0.194151581016,0.78352036628,15,5,0,9820.1364369478,0,0,0.202802499928,0,0,0,332.8, -0.8, 1.6,0,0,1024,1024,1045,1024,0,0,3,0,0,0,0,99,3.825,3.834,3.847,3.852,3.854,3.856,0,32,9820.1364369478,0,10,Assisted_Takeoff,
5100,2023-10-10 00:18:50,38.4981364402092,-112.064416126999,0,,,9820.1364369478,0.656168,0,0.19658629238,0.78664044512,15,5,0,9820.1364369478,0,0,0.202802499928,0,0,0,332.8, -0.8, 1.6,0,0,1024,1024,1234,1024,0,0,32,0,0,0,0,99,3.825,3.834,3.847,3.852,3.854,3.856,0,32,9820.1364369478,0,10,Assisted_Takeoff,
5200,2023-10-10 00:18:51,38.4981364387643,-112.064416314538,0,,,9820.1364369478,0.656168,0,0.155762144092,0.84019359644,15,5,0,9820.1364369478,0,0,0.202802499928,0,0,0,332.9, -0.8, 1.6,0,0,1024,1024,1428,1024,0,0,61,0,0,0,0,99,3.825,3.834,3.847,3.852,3.854,3.856,0,32,9820.1364369478,0,10,Assisted_Takeoff,
5300,2023-10-10 00:18:51,38.4981364377118,-112.064416319868,0,,,9820.1364369478,0.656168,0,0.154444230664,0.84176183796,15,5,0,9820.1364369478,0,0,0.202802499928,0,0,0,332.8, -0.8, 1.6,0,0,1024,1024,1684,1024,0,0,100,0,0,0,0,99,3.825,3.834,3.847,3.852,3.854,3.856,0,32,9820.1364369478,0,10,Assisted_Takeoff,
5400,2023-10-10 00:18:51,38.4981364385217,-112.064416153103,0,,,9820.1364369478,0.656168,0,0.190202105824,0.88937994972,15,5,0,9820.1364369478,0,0,0.202802499928,0,0,0,332.9, -0.8, 1.6,0,0,1024,1024,1684,1024,0,0,100,0,0,0,0,99,3.825,3.834,3.847,3.852,3.854,3.856,0,32,9820.1364369478,0,10,Assisted_Takeoff,
5500,2023-10-10 00:18:51,38.4981364352049,-112.064416143632,0,,,9820.1364369478,0.656168,0,0.191664704296,0.89234254824,15,5,0,9820.1364369478,0,0,0.202802499928,0,0,0,332.9, -0.7, 1.6,0,0,1024,1024,1684,1056,0,0,100,5,0,0,0,99,3.825,3.834,3.847,3.852,3.854,3.856,0,32,9820.1364369478,0,10,Assisted_Takeoff,
5600,2023-10-10 00:18:51,38.4981364351082,-112.064416160807,0,,,9820.1364369478,0.656168,0,0.187694231728,0.89724740404,15,5,0,9820.1364369478,0,0,0.202802499928,0,0,0,332.9, -0.7, 1.6,0,0,1024,1024,1684,1087,0,0,100,10,0,0,0,99,3.825,3.834,3.847,3.852,3.854,3.856,0,32,9820.1364369478,0,10,Assisted_Takeoff,
5700,2023-10-10 00:18:51,38.4981364319467,-112.064416154021,0,,,9820.1364369478,0.656168,0,0.188566607084,0.89950134112,15,5,0,9820.1364369478,0,0,0.202802499928,0,0,0,332.9, -0.7, 1.6,0,0,1024,1024,1684,1089,0,0,100,10,0,0,0,99,3.825,3.834,3.847,3.852,3.854,3.856,0,32,9820.1364369478,0,10,Assisted_Takeoff,
5800,2023-10-10 00:18:51,38.4981364319108,-112.064416163919,0,,,9820.1364369478,0.656168,0,0.18628445478,0.9023294252,15,5,0,9820.1364369478,0,0,0.202802499928,0,0,0,332.8, -0.7, 1.6,0,0,1024,1024,1684,1090,0,0,100,10,0,0,0,99,3.825,3.834,3.847,3.852,3.854,3.856,0,32,9820.1364369478,0,10,Assisted_Takeoff,
5900,2023-10-10 00:18:51,38.4981364259168,-112.064416156822,0,,,9820.1364369478,0.656168,0,0.18662730256,0.90531170876,15,5,0,9820.1364369478,0,0,0.202802499928,0,0,0,332.8, -0.6, 1.7,0,0,1024,1024,1684,1091,0,0,100,10,0,0,0,99,3.825,3.834,3.847,3.852,3.854,3.856,0,32,9820.1364369478,0,10,Assisted_Takeoff,
6000,2023-10-10 00:18:51,38.4981364217582,-112.064416164446,0,,,9820.1364369478,0.656168,0,0.183974087252,0.90796262748,15,5,0,9820.1364369478,0,0,0.202802499928,0,0,0,332.9, -0.4, 1.8,0,0,1024,1024,1684,1091,0,0,100,10,0,0,0,99,3.825,3.834,3.847,3.852,3.854,3.856,0,32,9820.1364369478,0,10,Assisted_Takeoff,
6100,2023-10-10 00:18:51,38.4981364046569,-112.064416142022,0,,,9820.1364369478,0.656168,0,0.185730648988,0.91690619732,15,5,0,9820.1364369478,0,0,0.202802499928,0,0,0,332.8, 0, 2,0,0,1024,1024,1684,1096,0,0,100,11,0,0,0,99,3.825,3.834,3.847,3.852,3.854,3.856,0,32,9820.1364369478,0,10,Assisted_Takeoff,
6200,2023-10-10 00:18:52,38.4981363746198,-112.064416099779,0,,,9820.1364369478,0.656168,0,0.190516410296,0.9332021296,15,5,0,9820.1364369478,0,0,0.202802499928,0,0,0,332.8, 1.4, 2.3,0,0,1024,1024,1684,1097,0,0,100,11,0,0,0,99,3.825,3.834,3.847,3.852,3.854,3.856,0,32,9820.1364369478,0,10,Assisted_Takeoff,
6300,2023-10-10 00:18:52,38.4981363221116,-112.064415993244,0,,,9820.1364369478,0.656168,0.223694,0.210552172092,0.96915029348,15,5,0,9820.1364369478,0,0.223694,0.210552172092,0,0.223694,-0.223694,332.3, 3.6, 2.1,0,0,1024,1024,1684,1104,0,0,100,12,0,0,0,99,3.825,3.834,3.847,3.852,3.854,3.856,0,32,9820.1364369478,0,10,Assisted_Takeoff,
6400,2023-10-10 00:18:52,38.498136245277,-112.064415825592,0,,,9820.1364369478,0.656168,0.3131716,0.249780519804,1.02462601704,15,5,0,9820.1364369478,0,0.3131716,0.249780519804,-0.223694,0.223694,-0.447388,331.7, 5, 1.4,0,0,1024,1024,1684,1105,0,0,100,12,0,0,0,99,3.825,3.834,3.847,3.852,3.854,3.856,0,32,9820.1364369478,0,6,P-GPS,
6500,2023-10-10 00:18:52,38.4981360774415,-112.064415577277,0,,,9820.1364369478,0.984252,0.6263432,0.317443907796,1.11831368408,15,5,0,9820.1364369478,0,0.6263432,0.317443907796,-0.447388,0.447388,-0.894776,331.1, 4.3, 0.7,0,0,1024,1024,1684,1104,0,0,100,12,0,0,0,99,3.825,3.834,3.847,3.852,3.854,3.856,0,32,9820.1364369478,0,6,P-GPS,
6600,2023-10-10 00:18:52,38.4981357261692,-112.064415185407,0.328084,,,9820.4645209478,0.984252,0.8052984,0.45307416148,1.28844820396,15,5,0,9820.4645209478,0.328084,0.8052984,0.45307416148,-0.671082,0.447388,-1.342164,330.6, 1.8, 0.8,0,0,1024,1024,1684,1102,0,0,100,12,0,0,0,99,3.825,3.834,3.847,3.852,3.854,3.856,0,32,9820.4645209478,0.328084,6,P-GPS,"Home Point recorded. Return-to-Home Altitude:400.3 ft"
6700,2023-10-10 00:18:52,38.4981354405304,-112.064414832324,0.328084,,,9820.4645209478,1.312336,0.9395148,0.585876003,1.4334482086,15,5,0,9820.4645209478,0.328084,0.9395148,0.585876003,-0.671082,0.671082,-1.789552,330.2, -1.1, -0.1,0,0,1024,1024,1684,1094,0,0,100,11,0,0,0,99,3.825,3.834,3.847,3.852,3.854,3.856,0,32,9820.4645209478,0.328084,6,P-GPS,
6800,2023-10-10 00:18:52,38.4981352579368,-112.064414425777,0.656168,,,9820.7926049478,1.64042,0.8052984,0.71937666344,1.56729335724,15,5,0,9820.7926049478,0.656168,0.9395148,0.71937666344,-0.447388,0.671082,-2.23694,329.9, -3.4, -1.3,0,0,1024,1024,1684,1067,0,0,100,7,0,0,0,99,3.825,3.834,3.847,3.852,3.854,3.856,0,32,9820.7926049478,0.656168,6,P-GPS,
6900,2023-10-10 00:18:52,38.4981350118066,-112.064414139119,0.984252,,,9821.1206889478,2.296588,0.6263432,0.83362207392,1.68879926664,15,5,0,9821.1206889478,0.984252,0.9395148,0.83362207392,-0.447388,0.447388,-2.684328,329.5, -4.7, -1.4,0,0,1024,1024,1684,1024,0,0,100,0,0,0,0,99,3.825,3.834,3.847,3.852,3.854,3.856,0,32,9821.1206889478,0.984252,6,P-GPS,
7000,2023-10-10 00:18:52,38.4981344787532,-112.06441405518,1.64042,,,9821.7768569478,2.624672,0.4921268,0.96252955836,1.88475727816,15,5,0,9821.7768569478,1.64042,0.9395148,0.96252955836,-0.447388,0.223694,-3.131716,328.9, -5, -0.3,0,0,1024,1024,1684,989,0,0,100,-5,0,0,0,99,3.825,3.834,3.847,3.852,3.854,3.856,0,32,9821.7768569478,1.64042,6,P-GPS,
7100,2023-10-10 00:18:53,38.4981343295777,-112.064413950153,1.968504,,,9822.1049409478,3.28084,0.223694,1.0202264106,1.9468996686,15,5,0,9822.1049409478,1.968504,0.9395148,1.0202264106,-0.223694,0,-3.802798,328.3, -4, 0.8,0,0,1024,1024,1684,803,0,0,100,-33,0,0,0,99,3.825,3.834,3.847,3.852,3.854,3.856,0,32,9822.1049409478,1.968504,6,P-GPS,
7200,2023-10-10 00:18:53,38.4981346857154,-112.06441409518,2.624672,,,9822.7611089478,3.937008,0,0.90791341488,2.08327434488,15,5,0,9822.7611089478,2.624672,0.9395148,1.0202264106,0,0,-4.47388,327.6, -2.1, 1.4,0,0,1024,1024,1684,524,0,0,100,-76,0,0,0,99,3.825,3.834,3.847,3.852,3.854,3.856,0,32,9822.7611089478,2.624672,6,P-GPS,
7300,2023-10-10 00:18:53,38.4981346878122,-112.064414050567,3.608924,,,9823.7453609478,4.593176,0,0.91789044932,2.09603681248,15,5,0,9823.7453609478,3.608924,0.9395148,1.0202264106,0,0,-4.921268,326.8, -0.2, 1.4,0,0,1024,1024,1684,413,0,0,100,-93,0,0,0,99,3.825,3.834,3.847,3.852,3.854,3.856,0,32,9823.7453609478,3.608924,6,P-GPS,
7400,2023-10-10 00:18:53,38.4981348180378,-112.06441380277,4.265092,,,9824.4015289478,5.249344,0,0.9520669596,2.18126319316,15,5,0,9824.4015289478,4.265092,0.9395148,1.0202264106,0,0,-5.59235,324.5, 1, 1.2,0,0,1024,1024,1684,364,0,0,100,-100,0,0,0,99,3.825,3.834,3.847,3.852,3.854,3.856,0,32,9824.4015289478,4.265092,6,P-GPS,
7500,2023-10-10 00:18:53,38.4981348092419,-112.064413682136,5.249344,,,9825.3857809478,6.233596,0,0.98358270864,2.21585965096,15,5,0,9825.3857809478,5.249344,0.9395148,1.0202264106,0,0,-6.263432,319.3, 1.3, 1.1,0,0,1024,1024,1684,364,0,0,100,-100,0,0,0,99,3.825,3.834,3.847,3.852,3.854,3.856,0,32,9825.3857809478,5.249344,6,P-GPS,
7600,2023-10-10 00:18:53,38.4981346145025,-112.064413719102,6.233596,,,9826.3700329478,6.889764,0,1.0113353342,2.28769036192,15,5,0,9826.3700329478,6.233596,0.9395148,1.0202264106,0,0,-7.158208,312, 0.5, 1.2,0,0,1024,1024,1684,364,0,0,100,-100,0,0,0,99,3.825,3.834,3.847,3.852,3.854,3.856,0,32,9826.3700329478,6.233596,6,P-GPS,
7700,2023-10-10 00:18:53,38.4981345472328,-112.064413522432,7.545932,,,9827.6823689478,8.2021,0,1.0718340238,2.34897645312,15,5,0,9827.6823689478,7.545932,0.9395148,1.0718340238,0,0,-7.82929,303.6, -0.7, 1.3,0,0,1024,1024,1684,364,0,0,100,-100,0,0,0,99,3.825,3.834,3.847,3.852,3.854,3.856,0,32,9827.6823689478,7.545932,6,P-GPS,
7800,2023-10-10 00:18:53,38.4981341132791,-112.0644131862,8.530184,,,9828.6666209478,9.186352,0,1.24062339928,2.53414050104,15,5,0,9828.6666209478,8.530184,0.9395148,1.24062339928,0,0,-8.500372,294.7, -1.7, 1.6,0,0,1024,1024,1684,364,0,0,100,-100,0,0,0,99,3.825,3.834,3.847,3.852,3.854,3.856,0,32,9828.6666209478,8.530184,6,P-GPS,
7900,2023-10-10 00:18:53,38.4981340523698,-112.064412964718,9.84252,,,9829.9789569478,10.170604,0.223694,1.30489177404,2.60117134308,15,5,0,9829.9789569478,9.84252,0.9395148,1.30489177404,0,0.223694,-9.171454,285.5, -2.3, 1.7,0,0,1024,1024,1670,364,0,0,98,-100,0,0,0,99,3.825,3.834,3.847,3.852,3.854,3.856,0,32,9829.9789569478,9.84252,6,P-GPS,
8000,2023-10-10 00:18:53,38.4981342924315,-112.064412784267,11.48294,,,9831.6193769478,11.48294,0.223694,1.30000332244,2.70279208124,15,5,0,9831.6193769478,11.48294,0.9395148,1.30489177404,0,0.223694,-9.842536,276.3, -2.5, 1.4,0,0,1024,1024,1609,364,0,0,89,-100,0,0,0,99,3.825,3.834,3.847,3.852,3.854,3.856,0,32,9831.6193769478,11.48294,6,P-GPS,
8100,2023-10-10 00:18:54,38.4981343134466,-112.064412638631,12.795276,,,9832.9317129478,12.795276,0,1.33200135496,2.74507554716,15,5,0,9832.9317129478,12.795276,0.9395148,1.33200135496,0,0,-10.289924,266.9, -2.4, 0.8,0,0,1024,1024,1609,364,0,0,89,-100,0,0,0,99,3.825,3.834,3.847,3.852,3.854,3.856,0,32,9832.9317129478,12.795276,6,P-GPS,
8200,2023-10-10 00:18:54,38.4981346201696,-112.06441282619,14.435696,,,9834.5721329478,13.779528,0,1.23194885832,2.86914051176,15,5,0,9834.5721329478,14.435696,0.9395148,1.33200135496,0,0,-10.513618,257.6, -2.2, 0.3,0,0,1024,1024,1527,364,0,0,76,-100,0,0,0,99,3.825,3.834,3.847,3.852,3.854,3.856,0,32,9834.5721329478,14.435696,6,P-GPS,
8300,2023-10-10 00:18:54,38.498134651833,-112.064412783256,16.076116,,,9836.2125529478,15.091864,0,1.23786421284,2.88598434432,15,5,0,9836.2125529478,16.076116,0.9395148,1.33200135496,0,0,-10.737312,248.1, -1.9, 0.1,0,0,1024,1024,1467,364,0,0,67,-100,0,0,0,99,3.825,3.834,3.847,3.852,3.854,3.856,0,32,9836.2125529478,16.076116,6,P-GPS,
8400,2023-10-10 00:18:54,38.4981347640143,-112.06441261513,17.388452,,,9837.5248889478,16.076116,0,1.26461946304,2.94907161668,15,5,0,9837.5248889478,17.388452,0.9395148,1.33200135496,0,0,-10.737312,238.8, -1.6, 0.3,0,0,1024,1024,1438,364,0,0,63,-100,0,0,0,99,3.825,3.834,3.847,3.852,3.854,3.856,0,32,9837.5248889478,17.388452,6,P-GPS,
8500,2023-10-10 00:18:54,38.4981347807049,-112.06441259221,19.028872,,,9839.1653089478,17.388452,0,1.26826775712,2.95801190568,15,5,0,9839.1653089478,19.028872,0.9395148,1.33200135496,0,0,-10.513618,229.4, -1.3, 0.7,0,0,1024,1024,1398,364,0,0,57,-100,0,0,0,99,3.825,3.834,3.847,3.852,3.854,3.856,0,32,9839.1653089478,19.028872,6,P-GPS,
8600,2023-10-10 00:18:54,38.4981347391461,-112.064412460215,20.669292,,,9840.8057289478,19.028872,0,1.308891118,2.99863526656,15,5,0,9840.8057289478,20.669292,0.9395148,1.33200135496,0,0,-10.06623,220.3, -1, 1.2,0,0,1024,1024,1375,364,0,0,53,-100,0,0,0,99,3.825,3.834,3.847,3.852,3.854,3.856,0,32,9840.8057289478,20.669292,6,P-GPS,
8700,2023-10-10 00:18:54,38.4981347495115,-112.064412445601,21.981628,,,9842.1180649478,18.700788,0,1.3112861312,3.00426846884,15,5,0,9842.1180649478,21.981628,0.9395148,1.33200135496,0,0,-9.618842,211, -0.7, 1.5,0,0,1024,1024,1362,364,0,0,51,-100,0,0,0,99,3.825,3.834,3.847,3.852,3.854,3.856,0,32,9842.1180649478,21.981628,6,P-GPS,
8800,2023-10-10 00:18:54,38.4981345188855,-112.064412396356,23.293964,,,9843.4304009478,20.013124,0,1.3584482062,3.08957687052,15,5,0,9843.4304009478,23.293964,0.9395148,1.3584482062,0,0,-9.171454,201.9, -0.5, 1.7,0,0,1024,1024,1357,364,0,0,50,-100,0,0,0,99,3.825,3.834,3.847,3.852,3.854,3.856,0,32,9843.4304009478,23.293964,6,P-GPS,
8900,2023-10-10 00:18:54,38.4981345235791,-112.064412410439,24.6063,,,9844.7427369478,21.32546,0,1.354084689,3.09395023024,15,5,0,9844.7427369478,24.6063,0.9395148,1.3584482062,0,0,-8.724066,192.8, -0.2, 1.5,0,0,1024,1024,1344,364,0,0,48,-100,0,0,0,99,3.825,3.834,3.847,3.852,3.854,3.856,0,32,9844.7427369478,24.6063,6,P-GPS,
9000,2023-10-10 00:18:54,38.4981344610111,-112.064412426545,25.918636,,,9846.0550729478,22.637796,0,1.35998692016,3.11723435172,15,5,0,9846.0550729478,25.918636,0.9395148,1.35998692016,0,0,-8.052984,183.9, 0, 1.1,0,0,1024,1024,1286,477,0,0,40,-83,0,0,0,99,3.825,3.834,3.847,3.852,3.854,3.856,0,32,9846.0550729478,25.918636,6,P-GPS,
9100,2023-10-10 00:18:54,38.4981344736657,-112.0644124698,27.230972,,,9847.3674089478,23.622048,0,1.34687340268,3.13042332852,15,5,0,9847.3674089478,27.230972,0.9395148,1.35998692016,0,0,-7.158208,174.8, -0.1, 0.4,0,0,1024,1024,1200,662,0,0,27,-55,0,0,0,99,3.825,3.834,3.847,3.852,3.854,3.856,0,32,9847.3674089478,27.230972,6,P-GPS,
9200,2023-10-10 00:18:55,38.4981344815592,-112.06441233625,28.215224,,,9848.3516609478,24.278216,0,1.37981959796,3.16866479956,15,5,0,9848.3516609478,28.215224,0.9395148,1.37981959796,0,0,-6.487126,166.4, -0.4, -0.1,0,0,1093,1024,1024,1024,10,0,0,0,0,0,0,99,3.825,3.834,3.847,3.852,3.854,3.856,0,32,9848.3516609478,28.215224,6,P-GPS,
9300,2023-10-10 00:18:55,38.4981345056136,-112.064412360935,29.199476,,,9849.3359129478,24.278216,0,1.36966211732,3.1799213616,15,5,0,9849.3359129478,29.199476,0.9395148,1.37981959796,0,0,-5.59235,159.1, -0.6, -0.7,0,0,1204,1024,1024,1024,27,0,0,0,0,0,0,99,3.825,3.834,3.847,3.852,3.854,3.856,0,32,9849.3359129478,29.199476,6,P-GPS,
9400,2023-10-10 00:18:55,38.4981344406417,-112.064412472009,29.855644,,,9849.9920809478,24.278216,0,1.35175201176,3.21951781956,15,5,0,9849.9920809478,29.855644,0.9395148,1.37981959796,0,0,-4.921268,154.5, -0.7, -1.5,0,0,1407,1024,1024,1024,58,0,0,0,0,0,0,99,3.825,3.834,3.847,3.852,3.854,3.856,0,32,9849.9920809478,29.855644,6,P-GPS,
9500,2023-10-10 00:18:55,38.4981344525396,-112.064412456783,30.839896,,,9850.9763329478,24.278216,0,1.3536581798,3.22565955204,15,5,0,9850.9763329478,30.839896,0.9395148,1.37981959796,0,0,-4.026492,152.5, -0.8, -1.9,0,0,1576,1024,1024,1024,84,0,0,0,0,0,0,99,3.825,3.834,3.847,3.852,3.854,3.856,0,32,9850.9763329478,30.839896,6,P-GPS,
9600,2023-10-10 00:18:55,38.4981358118145,-112.064412118064,31.496064,,,9851.6325009478,24.278216,0,1.30973429388,3.7309384396,15,5,0,9851.6325009478,31.496064,0.9395148,1.37981959796,0,0,-3.131716,151.5, -2.3, -1.1,0,0,1646,1024,1024,1024,94,0,0,0,0,0,0,99,3.825,3.834,3.847,3.852,3.854,3.856,0,32,9851.6325009478,31.496064,6,P-GPS,
9700,2023-10-10 00:18:55,38.4981359312203,-112.064411995814,31.824148,,,9851.9605849478,24.278216,0,1.3414862634,3.786745528,15,5,0,9851.9605849478,31.824148,0.9395148,1.37981959796,0,0.223694,-2.23694,150.9, -5.8, 0.3,0,0,1646,1024,1024,1024,94,0,0,0,0,0,0,99,3.825,3.834,3.847,3.852,3.854,3.856,0,32,9851.9605849478,31.824148,6,P-GPS,
9800,2023-10-10 00:18:55,38.4981356196461,-112.064412031207,32.152232,,,9852.2886689478,24.278216,0.223694,1.34230319256,3.9008859516,15,5,0,9852.2886689478,32.152232,0.9395148,1.37981959796,0,0.223694,-1.565858,150.5, -10.6, 1.8,0,0,1642,1024,1024,1024,94,0,0,0,0,0,0,99,3.825,3.834,3.847,3.852,3.854,3.856,0,32,9852.2886689478,32.152232,6,P-GPS,
9900,2023-10-10 00:18:55,38.4981355609678,-112.064411839201,32.152232,,,9852.2886689478,24.278216,0.3131716,1.3996227482,3.9597442212,15,5,0,9852.2886689478,32.152232,0.9395148,1.3996227482,-0.223694,0.223694,-0.894776,150.1, -14.9, 2.7,0,0,1641,1024,1024,1024,93,0,0,0,0,0,0,99,3.825,3.834,3.847,3.852,3.854,3.856,0,32,9852.2886689478,32.152232,6,P-GPS,
10000,2023-10-10 00:18:55,38.4981351965499,-112.06441164016,32.480316,,,9852.6167529478,24.278216,1.006623,1.48058075604,4.10433084,15,5,0,9852.6167529478,32.480316,1.006623,1.48058075604,-0.894776,0.447388,-0.223694,149.8, -17.8, 2.9,0,0,1633,1024,1024,1024,92,0,0,0,0,0,0,99,3.825,3.834,3.847,3.852,3.854,3.856,0,32,9852.6167529478,32.480316,6,P-GPS,
10100,2023-10-10 00:18:56,38.4981347401342,-112.064411253536,32.480316,,,9852.6167529478,24.278216,1.4987498,1.63196199448,4.304133996,15,5,0,9852.6167529478,32.480316,1.4987498,1.63196199448,-1.342164,0.671082,0,149.7, -18.5, 2.5,0,0,1630,1024,1024,1024,92,0,0,0,0,0,0,99,3.825,3.834,3.847,3.852,3.854,3.856,0,32,9852.6167529478,32.480316,6,P-GPS,
10200,2023-10-10 00:18:56,38.4981333212071,-112.064410724679,32.480316,,,9852.6167529478,24.278216,2.3040482,1.98660767512,4.8434056668,15,5,0,9852.6167529478,32.480316,2.3040482,1.98660767512,-2.013246,1.11847,0,149.7, -17.2, 2,0,0,1650,1024,1024,1024,95,0,0,0,0,0,0,99,3.825,3.834,3.847,3.852,3.854,3.856,0,32,9852.6167529478,32.480316,6,P-GPS,
10300,2023-10-10 00:18:56,38.4981323412669,-112.064410059445,32.480316,,,9852.6167529478,24.278216,2.796175,2.342929865,5.2482613228,15,5,0,9852.6167529478,32.480316,2.796175,2.342929865,-2.460634,1.342164,0.223694,149.8, -15.3, 1.6,0,0,1646,1024,1024,1024,94,0,0,0,0,0,0,99,3.825,3.834,3.847,3.852,3.854,3.856,0,32,9852.6167529478,32.480316,6,P-GPS,
10400,2023-10-10 00:18:56,38.4981306544275,-112.064408968907,32.480316,,,9852.6167529478,24.278216,3.3106712,2.97385508204,5.937992316,15,5,0,9852.6167529478,32.480316,3.3106712,2.97385508204,-2.908022,1.565858,0.223694,149.8, -14, 1.4,0,0,1641,1024,1024,1024,93,0,0,0,0,0,0,99,3.825,3.834,3.847,3.852,3.854,3.856,0,32,9852.6167529478,32.480316,6,P-GPS,
10500,2023-10-10 00:18:56,38.4981292371399,-112.064408036511,32.480316,,,9852.6167529478,24.278216,3.802798,3.524278328,6.5196196312,15,5,0,9852.6167529478,32.480316,3.802798,3.524278328,-3.35541,1.789552,0.447388,149.9, -13.7, 1.4,0,0,1626,1024,1024,1024,91,0,0,0,0,0,0,99,3.825,3.834,3.847,3.852,3.854,3.856,0,32,9852.6167529478,32.480316,6,P-GPS,
10600,2023-10-10 00:18:56,38.4981276625238,-112.064406939275,32.152232,,,9852.2886689478,24.278216,4.2949248,4.1575132564,7.1739831692,15,5,0,9852.6167529478,32.480316,4.2949248,4.1575132564,-3.802798,2.013246,0.447388,149.9, -14.4, 1.4,0,0,1622,1024,1024,1024,91,0,0,0,0,0,0,99,3.825,3.834,3.847,3.852,3.854,3.856,0,32,9852.2886689478,32.152232,6,P-GPS,
10700,2023-10-10 00:18:56,38.4981258582303,-112.064405769816,32.152232,,,9852.2886689478,24.278216,5.0107456,4.8738846704,7.9121393608,15,5,0,9852.6167529478,32.480316,5.0107456,4.8738846704,-4.47388,2.23694,0.447388,150.1, -15.6, 1.2,0,0,1623,1024,1024,1024,91,0,0,0,0,0,0,99,3.825,3.834,3.847,3.852,3.854,3.856,0,32,9852.2886689478,32.152232,6,P-GPS,
10800,2023-10-10 00:18:56,38.4981239544175,-112.064404151053,32.152232,,,9852.2886689478,24.278216,5.5028724,5.7041668492,8.7464569728,15,5,0,9852.6167529478,32.480316,5.5028724,5.7041668492,-4.921268,2.460634,0.223694,150, -16.8, 0.9,0,0,1612,1024,1024,1024,89,0,0,0,0,0,0,99,3.825,3.834,3.847,3.852,3.854,3.856,0,32,9852.2886689478,32.152232,6,P-GPS,
10900,2023-10-10 00:18:56,38.4981217199508,-112.064402661513,32.152232,,,9852.2886689478,24.278216,6.3081708,6.608267928,9.666010808,15,5,0,9852.6167529478,32.480316,6.3081708,6.608267928,-5.59235,2.908022,0.223694,149.9, -17.3, 0.8,0,0,1599,1024,1024,1024,87,0,0,0,0,0,0,99,3.825,3.834,3.847,3.852,3.854,3.856,0,32,9852.2886689478,32.152232,6,P-GPS,
11000,2023-10-10 00:18:56,38.4981192112843,-112.064400938404,31.824148,,,9851.9605849478,24.278216,7.0016222,7.6362535252,10.7051512612,15,5,0,9852.6167529478,32.480316,7.0016222,7.6362535252,-6.263432,3.131716,0.223694,149.7, -17.4, 0.7,0,0,1591,1024,1024,1024,86,0,0,0,0,0,0,99,3.825,3.834,3.847,3.852,3.854,3.856,0,32,9851.9605849478,31.824148,6,P-GPS,
11100,2023-10-10 00:18:57,38.4981165124961,-112.064399119344,31.824148,,,9851.9605849478,24.278216,7.605596,8.7394031668,11.81840589,15,5,0,9852.6167529478,32.480316,7.605596,8.7394031668,-6.71082,3.579104,0,149.6, -17.1, 0.5,0,0,1580,1024,1024,1024,84,0,0,0,0,0,0,99,3.825,3.834,3.847,3.852,3.854,3.856,0,32,9851.9605849478,31.824148,6,P-GPS,
11200,2023-10-10 00:18:57,38.4981135634926,-112.06439703669,31.824148,,,9851.9605849478,24.278216,8.2990474,9.9626315524,13.047736638,15,5,0,9852.6167529478,32.480316,8.2990474,9.9626315524,-7.381902,3.802798,0,149.5, -16.5, 0.2,0,0,1581,1024,1024,1024,84,0,0,0,0,0,0,99,3.825,3.834,3.847,3.852,3.854,3.856,0,32,9851.9605849478,31.824148,6,P-GPS,
11300,2023-10-10 00:18:57,38.4981104405554,-112.064394891,31.824148,,,9851.9605849478,24.278216,8.8135436,11.2500331684,14.3414374668,15,5,0,9852.6167529478,32.480316,8.8135436,11.2500331684,-7.82929,4.026492,0,149.6, -16.3, -0.1,0,0,1577,1024,1024,1024,84,0,0,0,0,0,0,99,3.825,3.834,3.847,3.852,3.854,3.856,0,32,9851.9605849478,31.824148,6,P-GPS,
11400,2023-10-10 00:18:57,38.4981067679831,-112.064392242542,31.824148,,,9851.9605849478,24.278216,9.4175174,12.785105396,15.8800530016,15,5,0,9852.6167529478,32.480316,9.4175174,12.785105396,-8.276678,4.47388,0,149.7, -16.4, -0.5,0,0,1576,1024,1024,1024,84,0,0,0,0,0,0,99,3.825,3.834,3.847,3.852,3.854,3.856,0,32,9851.9605849478,31.824148,6,P-GPS,
11500,2023-10-10 00:18:57,38.4981032395613,-112.064389739431,31.824148,,,9851.9605849478,24.278216,9.4175174,14.2542327396,17.3524939936,15,5,0,9852.6167529478,32.480316,9.4175174,14.2542327396,-8.724066,4.697574,0,149.8, -16.7, -0.5,0,0,1574,1024,1024,1024,83,0,0,0,0,0,0,99,3.825,3.834,3.847,3.852,3.854,3.856,0,32,9851.9605849478,31.824148,6,P-GPS,
11600,2023-10-10 00:18:57,38.4980995790244,-112.064387149662,31.824148,,,9851.9605849478,24.278216,10.513618,15.7779860692,18.879101654,15,5,0,9852.6167529478,32.480316,10.513618,15.7779860692,-9.171454,5.144962,0,149.9, -17, 0,0,0,1564,1024,1024,1024,82,0,0,0,0,0,0,99,3.825,3.834,3.847,3.852,3.854,3.856,0,32,9851.9605849478,31.824148,6,P-GPS,
11700,2023-10-10 00:18:57,38.4980956861048,-112.064384322582,31.824148,,,9851.9605849478,24.278216,11.0057448,17.4100399272,20.512795932,15,5,0,9852.6167529478,32.480316,11.0057448,17.4100399272,-9.618842,5.368656,0,150, -17.4, 0.6,0,0,1552,1024,1024,1024,80,0,0,0,0,0,0,99,3.825,3.834,3.847,3.852,3.854,3.856,0,32,9851.9605849478,31.824148,6,P-GPS,
11800,2023-10-10 00:18:57,38.4980916913349,-112.064381178627,31.824148,,,9851.9605849478,24.278216,11.520241,19.1217853888,22.224574202,15,5,0,9852.6167529478,32.480316,11.520241,19.1217853888,-10.06623,5.59235,0,150.1, -17.8, 1.1,0,0,1559,1024,1024,1024,81,0,0,0,0,0,0,99,3.825,3.834,3.847,3.852,3.854,3.856,0,32,9851.9605849478,31.824148,6,P-GPS,
11900,2023-10-10 00:18:57,38.4980874171865,-112.064378051191,31.824148,,,9851.9605849478,24.278216,12.3255394,20.9175531628,24.0215886952,15,5,0,9852.6167529478,32.480316,12.3255394,20.9175531628,-10.737312,6.039738,0,150.2, -17.9, 1.3,0,0,1551,1024,1024,1024,80,0,0,0,0,0,0,99,3.825,3.834,3.847,3.852,3.854,3.856,0,32,9851.9605849478,31.824148,6,P-GPS,
12000,2023-10-10 00:18:57,38.4980829114712,-112.064374432018,31.824148,,,9851.9605849478,24.278216,12.3255394,22.8592855084,25.9633538492,15,5,0,9852.6167529478,32.480316,12.3255394,22.8592855084,-11.1847,6.263432,0,150.3, -17.9, 1.2,0,0,1556,1024,1024,1024,81,0,0,0,0,0,0,99,3.825,3.834,3.847,3.852,3.854,3.856,0,32,9851.9605849478,31.824148,6,P-GPS,
12100,2023-10-10 00:18:57,38.4980782371163,-112.064371007662,31.824148,,,9851.9605849478,24.278216,13.309793,24.823983734,27.9292003688,15,5,0,9852.6167529478,32.480316,13.309793,24.823983734,-11.632088,6.487126,0,150.4, -17.8, 0.9,0,0,1549,1024,1024,1024,80,0,0,0,0,0,0,99,3.825,3.834,3.847,3.852,3.854,3.856,0,32,9851.9605849478,31.824148,6,P-GPS,
12200,2023-10-10 00:18:58,38.49807338865,-112.06436773946,31.824148,,,9851.9605849478,24.278216,13.8242892,26.8197843228,29.9292332412,15,5,0,9852.6167529478,32.480316,13.8242892,26.8197843228,-12.079476,6.71082,0,150.2, -17.6, 0.6,0,0,1552,1024,1024,1024,80,0,0,0,0,0,0,99,3.825,3.834,3.847,3.852,3.854,3.856,0,32,9851.9605849478,31.824148,6,P-GPS,
12300,2023-10-10 00:18:58,38.4980683515967,-112.064364070242,31.824148,,,9851.9605849478,24.278216,13.8242892,28.9343185112,32.0446860648,15,5,0,9852.6167529478,32.480316,13.8242892,28.9343185112,-12.526864,6.934514,0,150.2, -17.3, 0.4,0,0,1559,1024,1024,1024,81,0,0,0,0,0,0,99,3.825,3.834,3.847,3.852,3.854,3.856,0,32,9851.9605849478,31.824148,6,P-GPS,
12400,2023-10-10 00:18:58,38.4980631421316,-112.064360295873,31.824148,,,9851.9605849478,24.278216,14.9203898,31.1183736992,34.229659888,15,5,0,9852.6167529478,32.480316,14.9203898,31.1183736992,-12.974252,7.381902,0,150, -17.1, 0.4,0,0,1537,1024,1024,1024,78,0,0,0,0,0,0,99,3.825,3.834,3.847,3.852,3.854,3.856,0,32,9851.9605849478,31.824148,6,P-GPS,
12500,2023-10-10 00:18:58,38.4980577789266,-112.064356361049,31.824148,,,9851.9605849478,24.278216,15.434886,33.3743449,36.485893556,15,5,0,9852.6167529478,32.480316,15.434886,33.3743449,-13.42164,7.605596,0,150, -17, 0.5,0,0,1539,1024,1024,1024,78,0,0,0,0,0,0,99,3.825,3.834,3.847,3.852,3.854,3.856,0,32,9851.9605849478,31.824148,6,P-GPS,
12600,2023-10-10 00:18:58,38.4980524327577,-112.06435204551,31.824148,,,9851.9605849478,24.278216,15.7256882,35.68077542,38.793308328,15,5,0,9852.6167529478,32.480316,15.7256882,35.68077542,-13.645334,7.82929,0,149.9, -17.1, 0.7,0,0,1538,1024,1024,1024,78,0,0,0,0,0,0,99,3.825,3.834,3.847,3.852,3.854,3.856,0,32,9851.9605849478,31.824148,6,P-GPS,
12700,2023-10-10 00:18:58,38.4980467732345,-112.064347841141,31.824148,,,9851.9605849478,24.278216,16.2401844,38.06922694,41.181759848,15,5,0,9852.6167529478,32.480316,16.2401844,38.06922694,-14.092722,8.052984,0,150, -17.1, 0.8,0,0,1542,1024,1024,1024,78,0,0,0,0,0,0,99,3.825,3.834,3.847,3.852,3.854,3.856,0,32,9851.9605849478,31.824148,6,P-GPS,
12800,2023-10-10 00:18:58,38.4980408180654,-112.064343533059,31.824148,,,9851.9605849478,24.278216,16.7323112,40.564961928,43.678479088,15,5,0,9852.6167529478,32.480316,16.7323112,40.564961928,-14.54011,8.276678,0,150, -17, 0.9,0,0,1572,1024,1024,1024,83,0,0,0,0,0,0,99,3.825,3.834,3.847,3.852,3.854,3.856,0,32,9851.9605849478,31.824148,6,P-GPS,
12900,2023-10-10 00:18:58,38.498034835606,-112.064339108091,31.824148,,,9851.9605849478,24.278216,16.7323112,43.086615552,46.200460796,15,5,0,9852.6167529478,32.480316,16.7323112,43.086615552,-14.987498,8.500372,0,150.2, -16.7, 1.1,0,0,1522,1024,1024,1024,75,0,0,0,0,0,0,99,3.825,3.834,3.847,3.852,3.854,3.856,0,32,9851.9605849478,31.824148,6,P-GPS,
13000,2023-10-10 00:18:58,38.4980288227052,-112.064334650567,31.824148,,,9851.9605849478,24.278216,17.5376096,45.622704872,48.7368782,15,5,0,9852.6167529478,32.480316,17.5376096,45.622704872,-15.211192,8.724066,0,150.2, -16.4, 1.3,0,0,1501,1024,1024,1024,72,0,0,0,0,0,0,99,3.825,3.834,3.847,3.852,3.854,3.856,0,32,9851.9605849478,31.824148,6,P-GPS,
13100,2023-10-10 00:18:58,38.4980225649627,-112.064330045363,31.824148,,,9851.9605849478,24.278216,17.9178894,48.257219392,51.371720804,15,5,0,9852.6167529478,32.480316,17.9178894,48.257219392,-15.65858,8.724066,0,150.4, -16.2, 1.4,0,0,1500,1024,1059,1024,72,0,5,0,0,0,0,99,3.825,3.834,3.847,3.852,3.854,3.856,0,32,9851.9605849478,31.824148,6,P-GPS,
13200,2023-10-10 00:18:59,38.4980162717436,-112.064325414829,31.824148,,,9851.9605849478,24.278216,18.231061,50.906497692,54.021327188,15,5,0,9852.6167529478,32.480316,18.231061,50.906497692,-15.882274,8.94776,0,150.4, -15.7, 1.4,0,0,1497,1024,1102,1024,72,0,12,0,0,0,0,99,3.825,3.834,3.847,3.852,3.854,3.856,0,32,9851.9605849478,31.824148,6,P-GPS,
13300,2023-10-10 00:18:59,38.4980097533435,-112.064320662928,32.152232,,,9852.2886689478,24.278216,18.7231878,53.644030588,56.759188168,15,5,0,9852.6167529478,32.480316,18.7231878,53.644030588,-16.329662,9.171454,0,150.6, -15.2, 1.1,0,0,1489,1024,1306,1024,70,0,43,0,0,0,0,99,3.825,3.834,3.847,3.852,3.854,3.856,0,32,9852.2886689478,32.152232,6,P-GPS,
13400,2023-10-10 00:18:59,38.4980033637737,-112.064315773545,32.152232,,,9852.2886689478,24.278216,18.9245124,56.361222276,59.47670794,15,5,0,9852.6167529478,32.480316,18.9245124,56.361222276,-16.553356,9.171454,0,150.6, -14.6, 0.8,0,0,1497,1024,1378,1024,72,0,54,0,0,0,0,99,3.825,3.834,3.847,3.852,3.854,3.856,0,32,9852.2886689478,32.152232,6,P-GPS,
13500,2023-10-10 00:18:59,38.497996639425,-112.064310869576,32.152232,,,9852.2886689478,24.278216,19.237684,59.185697432,62.30151118,15,5,0,9852.6167529478,32.480316,19.237684,59.185697432,-16.77705,9.395148,-0.223694,150.5, -13.6, 0.6,0,0,1524,1024,1393,1033,76,0,56,1,0,0,0,99,3.825,3.834,3.847,3.852,3.854,3.856,0,32,9852.2886689478,32.152232,6,P-GPS,
13600,2023-10-10 00:18:59,38.4979897741637,-112.064306099136,32.152232,,,9852.2886689478,24.278216,19.7298108,62.035106972,65.15256114,15,5,0,9852.6167529478,32.480316,19.7298108,62.035106972,-17.224438,9.618842,-0.671082,150.4, -12.4, 1,0,0,1486,1024,1418,1035,70,0,60,2,0,0,0,99,3.825,3.834,3.847,3.852,3.854,3.856,0,32,9852.2886689478,32.152232,6,P-GPS,
13700,2023-10-10 00:18:59,38.4979828295919,-112.064301065764,32.152232,,,9852.2886689478,24.278216,20.0429824,64.94750864,68.065618976,15,5,0,9852.6167529478,32.480316,20.0429824,64.94750864,-17.448132,9.842536,-1.11847,150.3, -11.5, 1.5,0,0,1463,1024,1418,1024,67,0,60,0,0,0,0,99,3.825,3.834,3.847,3.852,3.854,3.856,0,32,9852.2886689478,32.152232,6,P-GPS,
13800,2023-10-10 00:18:59,38.497975808681,-112.064296003376,32.480316,,,9852.6167529478,24.278216,20.2219376,67.888453616,71.006892036,15,5,0,9852.6167529478,32.480316,20.2219376,67.888453616,-17.671826,9.842536,-1.789552,150.2, -11.1, 1.8,0,0,1472,1024,1436,1024,68,0,62,0,0,0,0,99,3.825,3.834,3.847,3.852,3.854,3.856,0,32,9852.6167529478,32.480316,6,P-GPS,
13900,2023-10-10 00:18:59,38.497968678121,-112.064290908613,32.8084,,,9852.9448369478,24.278216,20.4232622,70.868440588,73.987535176,15,5,0,9852.9448369478,32.8084,20.4232622,70.868440588,-17.89552,9.842536,-2.460634,150.2, -10.5, 1.5,0,0,1465,1024,1453,1024,67,0,65,0,0,0,0,99,3.825,3.834,3.847,3.852,3.854,3.856,0,32,9852.9448369478,32.8084,6,P-GPS,
14000,2023-10-10 00:18:59,38.4979615966784,-112.064285758454,33.136484,,,9853.2729209478,24.278216,20.6245868,73.840881628,76.960632384,15,5,0,9853.2729209478,33.136484,20.6245868,73.840881628,-18.119214,9.842536,-3.131716,150.2, -10.1, 0.9,0,0,1468,1024,1476,1024,67,0,68,0,0,0,0,99,3.825,3.834,3.847,3.852,3.854,3.856,0,32,9853.2729209478,33.136484,6,P-GPS,
14100,2023-10-10 00:19:00,38.4979543386154,-112.064280599224,33.792652,,,9853.9290889478,24.278216,20.7364338,76.870409284,79.990816208,15,5,0,9853.9290889478,33.792652,20.7364338,76.870409284,-18.119214,10.06623,-3.802798,150.2, -10, 0.3,0,0,1471,1024,1488,1024,68,0,70,0,0,0,0,99,3.825,3.834,3.847,3.852,3.854,3.856,0,32,9853.9290889478,33.792652,6,P-GPS,
14200,2023-10-10 00:19:00,38.497947749151,-112.064276066265,34.44882,,,9854.5852569478,24.278216,20.915389,79.599083912,82.721131256,15,5,0,9854.5852569478,34.44882,20.915389,79.599083912,-18.342908,10.06623,-4.47388,149.9, -10, 0,0,0,1467,1024,1497,1024,67,0,72,0,0,0,0,99,3.825,3.834,3.847,3.852,3.854,3.856,0,32,9854.5852569478,34.44882,6,P-GPS,
14300,2023-10-10 00:19:00,38.4979404646627,-112.064270865021,35.104988,,,9855.2414249478,24.278216,21.027236,82.643047264,85.765750776,15,5,0,9855.2414249478,35.104988,21.027236,82.643047264,-18.342908,10.289924,-5.144962,149.8, -10.1, 0,0,0,1472,1024,1491,1024,68,0,71,0,0,0,0,99,3.825,3.834,3.847,3.852,3.854,3.856,0,32,9855.2414249478,35.104988,6,P-GPS,
14400,2023-10-10 00:19:00,38.4979326488405,-112.064265202742,36.08924,,,9856.2256769478,24.278216,21.2285606,85.920934508,89.043966104,15,5,0,9856.2256769478,36.08924,21.2285606,85.920934508,-18.566602,10.289924,-5.816044,149.7, -9.8, 0.4,0,0,1478,1024,1478,1038,69,0,69,2,0,0,0,99,3.825,3.834,3.847,3.852,3.854,3.856,0,32,9856.2256769478,36.08924,6,P-GPS,
14500,2023-10-10 00:19:00,38.4979252353249,-112.064259865475,36.745408,,,9856.8818449478,24.278216,21.2285606,89.025265316,92.148624996,15,5,0,9856.8818449478,36.745408,21.2285606,89.025265316,-18.566602,10.289924,-6.263432,149.7, -9.8, 0.7,0,0,1470,1024,1490,1088,68,0,71,10,0,0,0,99,3.825,3.834,3.847,3.852,3.854,3.856,0,32,9856.8818449478,36.745408,6,P-GPS,
14600,2023-10-10 00:19:00,38.4979179450822,-112.064254601406,37.72966,,,9857.8660969478,24.278216,21.5417322,92.080383524,95.203743204,15,5,0,9857.8660969478,37.72966,21.5417322,92.080383524,-18.790296,10.513618,-6.71082,149.8, -10, 0.7,0,0,1463,1024,1515,1093,67,0,74,10,0,0,0,99,3.825,3.834,3.847,3.852,3.854,3.856,0,32,9857.8660969478,37.72966,6,P-GPS,
14700,2023-10-10 00:19:00,38.4979104745542,-112.06424917919,38.713912,,,9858.8503489478,24.278216,21.5417322,95.21489806,98.33825774,15,5,0,9858.8503489478,38.713912,21.5417322,95.21489806,-18.790296,10.513618,-6.71082,150.1, -10.5, 0,0,0,1450,1024,1511,1120,65,0,74,15,0,0,0,99,3.825,3.834,3.847,3.852,3.854,3.856,0,32,9858.8503489478,38.713912,6,P-GPS,
14800,2023-10-10 00:19:00,38.4979030660052,-112.064243609081,39.698164,,,9859.8346009478,24.278216,21.6312098,98.351053016,101.474412696,15,5,0,9859.8346009478,39.698164,21.6312098,98.351053016,-18.790296,10.737312,-6.934514,150.1, -10.7, 0.4,0,0,1444,1024,1527,1121,64,0,76,15,0,0,0,99,3.825,3.834,3.847,3.852,3.854,3.856,0,32,9859.8346009478,39.698164,6,P-GPS,
14900,2023-10-10 00:19:00,38.4978955294907,-112.064238016071,41.0105,,,9861.1469369478,24.278216,21.9443814,101.530843144,104.654530908,15,5,0,9861.1469369478,41.0105,21.9443814,101.530843144,-19.01399,10.961006,-7.158208,150.2, -10.4, 2.9,0,0,1447,1024,1519,1110,64,0,75,13,0,0,0,99,3.825,3.834,3.847,3.852,3.854,3.856,0,32,9861.1469369478,41.0105,6,P-GPS,
15000,2023-10-10 00:19:00,38.4978879048459,-112.064232372207,41.994752,,,9862.1311889478,24.278216,21.9443814,104.74573826,107.869426024,15,5,0,9862.1311889478,41.994752,21.9443814,104.74573826,-19.237684,10.961006,-7.158208,150.7, -9.6, 6.1,0,0,1448,1024,1513,1083,64,0,74,9,0,0,0,99,3.825,3.834,3.847,3.852,3.854,3.856,0,32,9862.1311889478,41.994752,6,P-GPS,
15100,2023-10-10 00:19:00,38.4978802278641,-112.064226814647,42.979004,,,9863.1154409478,24.278216,22.033859,107.964898468,111.088586232,15,5,0,9863.1154409478,42.979004,22.033859,107.964898468,-19.237684,10.737312,-7.381902,151.4, -8.6, 8.9,0,0,1455,1024,1504,1085,65,0,73,9,0,0,0,99,3.825,3.834,3.847,3.852,3.854,3.856,0,32,9863.1154409478,42.979004,6,P-GPS,
15200,2023-10-10 00:19:01,38.4978731224451,-112.064221859495,44.29134,,,9864.4277769478,24.278216,22.0114896,110.917326384,114.0419984,15,5,0,9864.4277769478,44.29134,22.033859,110.917326384,-19.461378,10.289924,-7.605596,152.3, -8, 9.2,0,0,1454,1024,1479,1099,65,0,69,11,0,0,0,99,3.825,3.834,3.847,3.852,3.854,3.856,0,32,9864.4277769478,44.29134,6,P-GPS,
15300,2023-10-10 00:19:01,38.4978653583091,-112.064216654028,45.275592,,,9865.4120289478,24.278216,22.1009672,114.113520712,117.241145484,15,5,0,9865.4120289478,45.275592,22.1009672,114.113520712,-19.685072,10.06623,-7.605596,152.9, -8.2, 8.4,0,0,1451,1024,1482,1150,65,0,69,19,0,0,0,99,3.825,3.834,3.847,3.852,3.854,3.856,0,32,9865.4120289478,45.275592,6,P-GPS,
15400,2023-10-10 00:19:01,38.4978569897456,-112.064211481931,46.259844,,,9866.3962809478,24.278216,22.0114896,117.496066752,120.632549792,15,5,0,9866.3962809478,46.259844,22.1009672,117.496066752,-19.685072,9.842536,-7.605596,153.4, -9, 7.1,0,0,1421,1024,1450,1112,60,0,65,13,0,0,0,99,3.825,3.834,3.847,3.852,3.854,3.856,0,32,9866.3962809478,46.259844,6,P-GPS,
15500,2023-10-10 00:19:01,38.4978490911192,-112.064206506976,47.57218,,,9867.7086169478,24.278216,22.1009672,120.702759768,123.845476404,15,5,0,9867.7086169478,47.57218,22.1009672,120.702759768,-19.908766,9.618842,-7.381902,153.8, -10.3, 7.4,0,0,1467,1024,1234,1038,67,0,32,2,0,0,0,99,3.825,3.834,3.847,3.852,3.854,3.856,0,32,9867.7086169478,47.57218,6,P-GPS,
15600,2023-10-10 00:19:01,38.4978416136723,-112.064202518468,48.556432,,,9868.6928689478,24.278216,22.1009672,123.636486896,126.801841328,15,5,0,9868.6928689478,48.556432,22.1009672,123.636486896,-19.908766,9.618842,-7.381902,154.3, -10.7, 8.5,0,0,1461,1024,1024,1024,66,0,0,0,0,0,0,99,3.825,3.834,3.847,3.852,3.854,3.856,0,32,9868.6928689478,48.556432,6,P-GPS,
15700,2023-10-10 00:19:01,38.4978336150131,-112.064197840548,49.868768,,,9870.0052049478,24.278216,22.1233366,126.83399356,130.0114871,15,5,0,9870.0052049478,49.868768,22.1233366,126.83399356,-20.13246,9.171454,-7.158208,155.1, -10.6, 7.5,0,0,1463,1024,1024,1024,67,0,0,0,0,0,0,99,3.825,3.834,3.847,3.852,3.854,3.856,0,32,9870.0052049478,49.868768,6,P-GPS,
15800,2023-10-10 00:19:01,38.4978257079778,-112.064193432243,50.85302,,,9870.9894569478,24.278216,22.1233366,129.964899172,133.158796912,15,5,0,9870.9894569478,50.85302,22.1233366,129.964899172,-20.356154,8.94776,-6.934514,155.8, -11.2, 3.8,0,0,1468,1024,1024,1024,67,0,0,0,0,0,0,99,3.825,3.834,3.847,3.852,3.854,3.856,0,32,9870.9894569478,50.85302,6,P-GPS,
15900,2023-10-10 00:19:01,38.4978176663666,-112.064188947306,51.837272,,,9871.9737089478,24.278216,22.2351836,133.150266728,136.360240584,15,5,0,9871.9737089478,51.837272,22.2351836,133.150266728,-20.356154,8.94776,-6.263432,156.1, -12.3, 1,0,0,1462,1024,1024,1024,66,0,0,0,0,0,0,99,3.825,3.834,3.847,3.852,3.854,3.856,0,32,9871.9737089478,51.837272,6,P-GPS,
16000,2023-10-10 00:19:01,38.4978092422293,-112.064184560884,52.49344,,,9872.6298769478,24.278216,22.2351836,136.444558172,139.679138328,15,5,0,9872.6298769478,52.49344,22.2351836,136.444558172,-20.356154,8.94776,-5.59235,156.3, -13.6, -0.5,0,0,1447,1024,1024,1024,64,0,0,0,0,0,0,99,3.825,3.834,3.847,3.852,3.854,3.856,0,32,9872.6298769478,52.49344,6,P-GPS,
16100,2023-10-10 00:19:01,38.4978011703393,-112.064180040453,53.477692,,,9873.6141289478,24.278216,22.3246612,139.646001844,142.894689612,15,5,0,9873.6141289478,53.477692,22.3246612,139.646001844,-20.356154,9.171454,-4.921268,156.4, -14.7, -0.7,0,0,1467,1024,1024,1024,67,0,0,0,0,0,0,99,3.825,3.834,3.847,3.852,3.854,3.856,0,32,9873.6141289478,53.477692,6,P-GPS,
16200,2023-10-10 00:19:02,38.4977935279006,-112.064175702786,54.13386,,,9874.2702969478,24.278216,22.3246612,142.685700104,145.945542728,15,5,0,9874.2702969478,54.13386,22.3246612,142.685700104,-20.356154,9.171454,-4.250186,156.4, -15.1, 0,0,0,1465,1024,1024,1024,67,0,0,0,0,0,0,99,3.825,3.834,3.847,3.852,3.854,3.856,0,32,9874.2702969478,54.13386,6,P-GPS,
16300,2023-10-10 00:19:02,38.4977854668,-112.064171143316,54.790028,,,9874.9264649478,24.278216,22.3246612,145.890424616,149.162078264,15,5,0,9874.9264649478,54.790028,22.3246612,145.890424616,-20.356154,9.171454,-3.35541,156.4, -15, 0.9,0,0,1452,1024,1024,1024,65,0,0,0,0,0,0,99,3.825,3.834,3.847,3.852,3.854,3.856,0,32,9874.9264649478,54.790028,6,P-GPS,
16400,2023-10-10 00:19:02,38.4977764279766,-112.06416584454,55.118112,,,9875.2545489478,24.278216,22.5259858,149.509847304,152.79035922,15,5,0,9875.2545489478,55.118112,22.5259858,149.509847304,-20.579848,9.171454,-2.460634,156.4, -14.6, 1.5,0,0,1447,1024,1024,1024,64,0,0,0,0,0,0,99,3.825,3.834,3.847,3.852,3.854,3.856,0,32,9875.2545489478,55.118112,6,P-GPS,
16500,2023-10-10 00:19:02,38.497768250248,-112.064161208744,55.446196,,,9875.5826329478,24.278216,22.5259858,152.763128248,156.054466936,15,5,0,9875.5826329478,55.446196,22.5259858,152.763128248,-20.579848,9.171454,-1.789552,156.5, -13.9, 1.7,0,0,1446,1024,1024,1024,64,0,0,0,0,0,0,99,3.825,3.834,3.847,3.852,3.854,3.856,0,32,9875.5826329478,55.446196,6,P-GPS,
16600,2023-10-10 00:19:02,38.4977599414713,-112.064156455963,55.77428,,,9875.9107169478,24.278216,22.5259858,156.074808144,159.375989352,15,5,0,9875.9107169478,55.77428,22.5259858,156.074808144,-20.579848,9.171454,-1.11847,156.5, -13, 1.7,0,0,1456,1024,1024,1024,65,0,0,0,0,0,0,99,3.825,3.834,3.847,3.852,3.854,3.856,0,32,9875.9107169478,55.77428,6,P-GPS,
16700,2023-10-10 00:19:02,38.4977517239761,-112.064151798437,55.77428,,,9875.9107169478,24.278216,22.6154634,159.344821372,162.6558451,15,5,0,9875.9107169478,55.77428,22.6154634,159.344821372,-20.579848,9.395148,-0.671082,156.5, -11.8, 1.8,0,0,1453,1024,1024,1024,65,0,0,0,0,0,0,99,3.825,3.834,3.847,3.852,3.854,3.856,0,32,9875.9107169478,55.77428,6,P-GPS,
16800,2023-10-10 00:19:02,38.4977436225952,-112.064147063402,55.77428,,,9875.9107169478,24.278216,22.816788,162.588259796,165.906173288,15,5,0,9875.9107169478,55.77428,22.816788,162.588259796,-20.803542,9.395148,-0.223694,156.4, -10.6, 1.9,0,0,1439,1024,1024,1024,63,0,0,0,0,0,0,99,3.825,3.834,3.847,3.852,3.854,3.856,0,32,9875.9107169478,55.77428,6,P-GPS,
16900,2023-10-10 00:19:02,38.4977354062303,-112.0641424101,55.77428,,,9875.9107169478,24.278216,22.816788,165.85794494,169.185044784,15,5,0,9875.9107169478,55.77428,22.816788,165.85794494,-20.803542,9.395148,0,156.4, -9.7, 1.9,0,0,1460,1024,1024,1024,66,0,0,0,0,0,0,99,3.825,3.834,3.847,3.852,3.854,3.856,0,32,9875.9107169478,55.77428,6,P-GPS,
17000,2023-10-10 00:19:02,38.4977270964603,-112.064137774697,55.77428,,,9875.9107169478,24.278216,22.816788,169.155845308,172.493115756,15,5,0,9875.9107169478,55.77428,22.816788,169.155845308,-20.803542,9.395148,0,156.3, -9.2, 1.9,0,0,1444,1024,1024,1024,64,0,0,0,0,0,0,99,3.825,3.834,3.847,3.852,3.854,3.856,0,32,9875.9107169478,55.77428,6,P-GPS,
17100,2023-10-10 00:19:03,38.497718896879,-112.064133155116,55.77428,,,9875.9107169478,24.278216,22.6154634,172.4163441,175.7628009,15,5,0,9875.9107169478,55.77428,22.816788,172.4163441,-20.579848,9.395148,0.223694,156.3, -9.1, 2,0,0,1443,1024,1024,1024,63,0,0,0,0,0,0,99,3.825,3.834,3.847,3.852,3.854,3.856,0,32,9875.9107169478,55.77428,6,P-GPS,
17200,2023-10-10 00:19:03,38.4977114071699,-112.064129106497,55.77428,,,9875.9107169478,24.278216,22.6154634,175.372052856,178.729992596,15,5,0,9875.9107169478,55.77428,22.816788,175.372052856,-20.579848,9.395148,0.223694,156.3, -9.6, 2.1,0,0,1445,1024,1024,1024,64,0,0,0,0,0,0,99,3.825,3.834,3.847,3.852,3.854,3.856,0,32,9875.9107169478,55.77428,6,P-GPS,
17300,2023-10-10 00:19:03,38.4977032965751,-112.064124563264,55.77428,,,9875.9107169478,24.278216,22.6154634,178.59416582,181.960963828,15,5,0,9875.9107169478,55.77428,22.816788,178.59416582,-20.579848,9.395148,0.223694,156.3, -10.1, 2.3,0,0,1453,1024,1024,1024,65,0,0,0,0,0,0,99,3.825,3.834,3.847,3.852,3.854,3.856,0,32,9875.9107169478,55.77428,6,P-GPS,
17400,2023-10-10 00:19:03,38.4976944297995,-112.064119669121,55.77428,,,9875.9107169478,24.278216,22.6154634,182.107617376,185.484914072,15,5,0,9875.9107169478,55.77428,22.816788,182.107617376,-20.579848,9.171454,0.223694,156.3, -10.5, 2.4,0,0,1487,1024,1024,1024,70,0,0,0,0,0,0,99,3.825,3.834,3.847,3.852,3.854,3.856,0,32,9875.9107169478,55.77428,6,P-GPS,
17500,2023-10-10 00:19:03,38.4976862579964,-112.064115128514,55.77428,,,9875.9107169478,24.278216,22.5259858,185.350071548,188.735898428,15,5,0,9875.9107169478,55.77428,22.816788,185.350071548,-20.579848,9.171454,0.223694,156.3, -10.8, 2.2,0,0,1444,1024,1024,1024,64,0,0,0,0,0,0,99,3.825,3.834,3.847,3.852,3.854,3.856,0,32,9875.9107169478,55.77428,6,P-GPS,
