time(millisecond),datetime(utc),latitude,longitude,height_above_takeoff(feet),height_above_ground_at_drone_location(feet),ground_elevation_at_drone_location(feet),altitude_above_seaLevel(feet),height_sonar(feet),speed(mph),distance(feet),mileage(feet),satellites,gpslevel,voltage(v),max_altitude(feet),max_ascent(feet),max_speed(mph),max_distance(feet), xSpeed(mph), ySpeed(mph), zSpeed(mph), compass_heading(degrees), pitch(degrees), roll(degrees),isPhoto,isVideo,rc_elevator,rc_aileron,rc_throttle,rc_rudder,rc_elevator(percent),rc_aileron(percent),rc_throttle(percent),rc_rudder(percent),gimbal_heading(degrees),gimbal_pitch(degrees),gimbal_roll(degrees),battery_percent,voltageCell1,voltageCell2,voltageCell3,voltageCell4,voltageCell5,voltageCell6,current(A),battery_temperature(f),altitude(feet),ascent(feet),flycStateRaw,flycState,message
0,2023-10-10 21:09:18,38.4982156763671,-112.064421621963,0,Available with any HD 360 subscription,Available with any HD 360 subscription,9821.3315085083,0.656168,0,0,0,16,5,0,9821.3315085083,0,0,0,0,0,0,142, -5.6, -0.7,0,0,364,377,364,1684,-100,-98,-100,100,0,0,0,96,4.231,4.222,4.22,4.218,4.205,4.217,0,32,9821.3315085083,0,41,Motors_Started,
100,2023-10-10 21:09:18,38.4982158129394,-112.064421617446,0,,,9821.3315085083,0.656168,0,0.049845145952,0.049845145952,16,5,0,9821.3315085083,0,0,0.049845145952,0,0,0,142, -5.6, -0.7,0,0,364,383,364,1684,-100,-97,-100,100,0,0,0,96,4.231,4.222,4.22,4.218,4.205,4.217,0,32,9821.3315085083,0,41,Motors_Started,
200,2023-10-10 21:09:18,38.4982158349105,-112.064421619961,0,,,9821.3315085083,0.656168,0,0.057847442796,0.057893374556,16,5,0,9821.3315085083,0,0,0.057847442796,0,0,0,142, -5.6, -0.7,0,0,364,383,364,1684,-100,-97,-100,100,0,0,0,96,4.231,4.222,4.22,4.218,4.205,4.217,0,32,9821.3315085083,0,41,Motors_Started,
300,2023-10-10 21:09:18,38.4982157999606,-112.064421616633,0,,,9821.3315085083,0.656168,0,0.045118767848,0.070680120372,16,5,0,9821.3315085083,0,0,0.057847442796,0,0,0,142, -5.6, -0.7,0,0,364,379,364,1684,-100,-98,-100,100,0,0,0,96,4.231,4.222,4.22,4.218,4.205,4.217,0,32,9821.3315085083,0,41,Motors_Started,
400,2023-10-10 21:09:18,38.4982158182062,-112.064421618951,0,,,9821.3315085083,0.656168,0,0.051757219504,0.077369753132,16,5,0,9821.3315085083,0,0,0.057847442796,0,0,0,142, -5.6, -0.7,0,0,364,379,364,1684,-100,-98,-100,100,0,0,0,96,4.231,4.222,4.22,4.218,4.205,4.217,0,32,9821.3315085083,0,41,Motors_Started,
500,2023-10-10 21:09:19,38.4982157882025,-112.064421615556,0,,,9821.3315085083,0.656168,0,0.040844161412,0.08835958288,16,5,0,9821.3315085083,0,0,0.057847442796,0,0,0,142, -5.6, -0.8,0,0,364,375,364,1684,-100,-98,-100,100,0,0,0,96,4.231,4.222,4.22,4.218,4.205,4.217,0,32,9821.3315085083,0,41,Motors_Started,
600,2023-10-10 21:09:19,38.498215803868,-112.064421617811,0,,,9821.3315085083,0.656168,0,0.04653379414,0.094111223484,16,5,0,9821.3315085083,0,0,0.057847442796,0,0,0,142, -5.6, -0.8,0,0,364,368,364,1684,-100,-99,-100,100,0,0,0,96,4.231,4.222,4.22,4.218,4.205,4.217,0,32,9821.3315085083,0,41,Motors_Started,
700,2023-10-10 21:09:19,38.4982157783021,-112.064421462357,0,,,9821.3315085083,0.656168,0,0.058823164612,0.139469164568,16,5,0,9821.3315085083,0,0,0.058823164612,0,0,0,142, -5.6, -0.7,0,0,364,364,364,1684,-100,-100,-100,100,0,0,0,96,4.231,4.222,4.22,4.218,4.205,4.217,0,32,9821.3315085083,0,41,Motors_Started,
800,2023-10-10 21:09:19,38.498215791297,-112.064421449095,0,,,9821.3315085083,0.656168,0,0.064767390524,0.145536750064,16,5,0,9821.3315085083,0,0,0.064767390524,0,0,0,142, -5.6, -0.7,0,0,364,364,364,1684,-100,-100,-100,100,0,0,0,96,4.231,4.222,4.22,4.218,4.205,4.217,0,32,9821.3315085083,0,41,Motors_Started,
900,2023-10-10 21:09:19,38.4982157701464,-112.064421467257,0,,,9821.3315085083,0.656168,0,0.05587598604,0.15483432254,16,5,0,9821.3315085083,0,0,0.064767390524,0,0,0,142, -5.6, -0.7,0,0,617,613,443,1684,-62,-62,-88,100,0,0,0,96,4.231,4.222,4.22,4.218,4.205,4.217,0,32,9821.3315085083,0,41,Motors_Started,
1000,2023-10-10 21:09:19,38.498215780271,-112.064421456157,0,,,9821.3315085083,0.656168,0,0.060651576744,0.159701776764,16,5,0,9821.3315085083,0,0,0.064767390524,0,0,0,142, -5.6, -0.8,0,0,1024,1024,1024,1024,0,0,0,0,0,0,0,96,4.231,4.222,4.22,4.218,4.205,4.217,0,32,9821.3315085083,0,41,Motors_Started,
1100,2023-10-10 21:09:19,38.4982157626061,-112.064421626151,0,,,9821.3315085083,0.656168,0,0.0314869760732,0.208667657596,16,5,0,9821.3315085083,0,0,0.064767390524,0,0,0,142, -5.6, -0.8,0,0,1024,1024,1024,1024,0,0,0,0,0,0,0,96,4.231,4.222,4.22,4.218,4.205,4.217,0,32,9821.3315085083,0,41,Motors_Started,
1200,2023-10-10 21:09:19,38.4982157703075,-112.064421632386,0,,,9821.3315085083,0.656168,0,0.034403216324,0.211994429356,16,5,0,9821.3315085083,0,0,0.064767390524,0,0,0,142, -5.6, -0.8,0,0,1024,1024,1024,1024,0,0,0,0,0,0,0,96,4.231,4.222,4.22,4.218,4.205,4.217,0,32,9821.3315085083,0,41,Motors_Started,
1300,2023-10-10 21:09:19,38.4982157516904,-112.064421627738,0,,,9821.3315085083,0.656168,0,0.0275311032432,0.218915033252,16,5,0,9821.3315085083,0,0,0.064767390524,0,0,0,142.1, -5.6, -0.7,0,0,1024,1024,1024,1024,0,0,0,0,0,0,0,96,4.231,4.222,4.22,4.218,4.205,4.217,0,32,9821.3315085083,0,41,Motors_Started,
1400,2023-10-10 21:09:19,38.4982157550075,-112.064421633348,0,,,9821.3315085083,0.656168,0,0.02887549305,0.220922579248,16,5,0,9821.3315085083,0,0,0.064767390524,0,0,0,141.9, -5.6, -0.7,0,0,1024,1024,1024,1024,0,0,0,0,0,0,0,96,4.231,4.222,4.22,4.218,4.205,4.217,0,32,9821.3315085083,0,41,Motors_Started,
1500,2023-10-10 21:09:19,38.4982157438922,-112.064421630187,0,,,9821.3315085083,0.656168,0,0.0247481635216,0.225077435024,16,5,0,9821.3315085083,0,0,0.064767390524,0,0,0,142, -5.6, -0.8,0,0,1024,1024,1024,1024,0,0,0,0,0,0,0,96,4.231,4.222,4.22,4.218,4.205,4.217,0,32,9821.3315085083,0,41,Motors_Started,
1600,2023-10-10 21:09:20,38.4982157470482,-112.064421640508,0,,,9821.3315085083,0.656168,0,0.0263260179028,0.22824147712,16,5,25.313,9821.3315085083,0,0,0.064767390524,0,0,0,142, -5.5, -0.8,0,0,1024,1024,1024,1024,0,0,0,0,0,0,0,96,4.231,4.222,4.22,4.218,4.205,4.217,0,32,9821.3315085083,0,41,Motors_Started,
1700,2023-10-10 21:09:20,38.4982157450054,-112.064421636879,0,,,9821.3315085083,0.656168,0,0.025402231784,0.229518051964,16,5,25.313,9821.3315085083,0,0,0.064767390524,0,0,0,141.9, -5.6, -0.8,0,0,1024,1024,1024,1024,0,0,0,0,0,0,0,96,4.231,4.222,4.22,4.218,4.205,4.217,0,32,9821.3315085083,0,41,Motors_Started,
1800,2023-10-10 21:09:20,38.4982157488962,-112.064421645283,0,,,9821.3315085083,0.656168,0,0.0272871071724,0.232306109796,16,5,25.313,9821.3315085083,0,0,0.064767390524,0,0,0,141.9, -5.6, -0.8,0,0,1024,1024,1024,1024,0,0,0,0,0,0,0,96,4.231,4.222,4.22,4.218,4.205,4.217,0,32,9821.3315085083,0,41,Motors_Started,
1900,2023-10-10 21:09:20,38.498215754635,-112.064421631554,0,,,9821.3315085083,0.656168,0,0.0286870416004,0.23675033566,16,5,25.313,9821.3315085083,0,0,0.064767390524,0,0,0,141.9, -5.5, -0.7,0,0,1024,1024,1024,1024,0,0,0,0,0,0,0,96,4.231,4.222,4.22,4.218,4.205,4.217,0,32,9821.3315085083,0,41,Motors_Started,
2000,2023-10-10 21:09:20,38.4982157586388,-112.064421636136,0,,,9821.3315085083,0.656168,0,0.0302883539876,0.238711621812,16,5,25.313,9821.3315085083,0,0,0.064767390524,0,0,0,141.9, -5.5, -0.8,0,0,1024,1024,1024,1024,0,0,0,0,0,0,0,96,4.231,4.222,4.22,4.218,4.205,4.217,0,32,9821.3315085083,0,10,Assisted_Takeoff,
2100,2023-10-10 21:09:20,38.4982157533795,-112.064421620821,0,,,9821.3315085083,0.656168,0,0.0280998368572,0.243487212516,16,5,25.313,9821.3315085083,0,0,0.064767390524,0,0,0,141.9, -5.5, -0.8,0,0,1024,1024,1024,1024,0,0,0,0,0,0,0,96,4.231,4.222,4.22,4.218,4.205,4.217,0,32,9821.3315085083,0,10,Assisted_Takeoff,
2200,2023-10-10 21:09:20,38.4982157580613,-112.064421624094,0,,,9821.3315085083,0.656168,0,0.0298123041036,0.245434391056,16,5,25.313,9821.3315085083,0,0,0.064767390524,0,0,0,141.9, -5.5, -0.8,0,0,1024,1024,1024,1024,0,0,0,0,0,0,0,96,4.231,4.222,4.22,4.218,4.205,4.217,0,32,9821.3315085083,0,10,Assisted_Takeoff,
2300,2023-10-10 21:09:20,38.4982157500924,-112.064421761998,0,,,9821.3315085083,0.656168,0,0.048191274508,0.284918972372,16,5,25.313,9821.3315085083,0,0,0.064767390524,0,0,0,141.9, -5.5, -0.8,0,0,1024,1024,1024,1024,0,0,0,0,0,0,0,96,4.231,4.222,4.22,4.218,4.205,4.217,0,32,9821.3315085083,0,10,Assisted_Takeoff,
2400,2023-10-10 21:09:20,38.4982157511269,-112.064421777772,0,,,9821.3315085083,0.656168,0,0.052185369124,0.289438657556,16,5,25.313,9821.3315085083,0,0,0.064767390524,0,0,0,141.9, -5.6, -0.8,0,0,1024,1024,1024,1024,0,0,0,0,0,0,0,96,4.231,4.222,4.22,4.218,4.205,4.217,0,32,9821.3315085083,0,10,Assisted_Takeoff,
2500,2023-10-10 21:09:20,38.4982158944581,-112.064421752369,0,,,9821.3315085083,0.656168,0,0.087852036932,0.34223426292,16,5,25.313,9821.3315085083,0,0,0.087852036932,0,0,0,141.9, -5.5, -0.8,0,0,1024,1024,1024,1024,0,0,0,0,0,0,0,96,4.231,4.222,4.22,4.218,4.205,4.217,0,32,9821.3315085083,0,10,Assisted_Takeoff,
2600,2023-10-10 21:09:21,38.4982159092871,-112.064421765918,0,,,9821.3315085083,0.656168,0,0.094399937404,0.3488845256,16,5,25.673,9821.3315085083,0,0,0.094399937404,0,0,0,141.9, -5.6, -0.7,0,0,1024,1024,1024,1024,0,0,0,0,0,0,0,96,4.257,4.281,4.288,4.284,4.276,4.287,0,32,9821.3315085083,0,10,Assisted_Takeoff,
2700,2023-10-10 21:09:21,38.4982158835981,-112.064421742892,0,,,9821.3315085083,0.656168,0,0.083119753316,0.3603346572,16,5,25.673,9821.3315085083,0,0,0.094399937404,0,0,0,141.8, -5.6, -0.7,0,0,1024,1024,1024,1024,0,0,0,0,0,0,0,96,4.257,4.281,4.288,4.284,4.276,4.287,0,32,9821.3315085083,0,10,Assisted_Takeoff,
2800,2023-10-10 21:09:21,38.4982158968622,-112.064421753203,0,,,9821.3315085083,0.656168,0,0.088747706252,0.36599738704,16,5,25.673,9821.3315085083,0,0,0.094399937404,0,0,0,141.8, -5.5, -0.7,0,0,1024,1024,1024,1024,0,0,0,0,0,0,0,96,4.257,4.281,4.288,4.284,4.276,4.287,0,32,9821.3315085083,0,10,Assisted_Takeoff,
2900,2023-10-10 21:09:21,38.4982158775285,-112.064421731628,0,,,9821.3315085083,0.656168,0,0.079794621976,0.37536418524,16,5,25.673,9821.3315085083,0,0,0.094399937404,0,0,0,141.8, -5.5, -0.7,0,0,1024,1024,1024,1024,0,0,0,0,0,0,0,96,4.257,4.281,4.288,4.284,4.276,4.287,0,32,9821.3315085083,0,10,Assisted_Takeoff,
3000,2023-10-10 21:09:21,38.4982158884624,-112.064421739776,0,,,9821.3315085083,0.656168,0,0.084378611624,0.37998032712,16,5,25.673,9821.3315085083,0,0,0.094399937404,0,0,0,141.9, -5.5, -0.7,0,0,1024,1024,1024,1024,0,0,0,0,0,0,0,96,4.257,4.281,4.288,4.284,4.276,4.287,0,32,9821.3315085083,0,10,Assisted_Takeoff,
3100,2023-10-10 21:09:21,38.4982158758159,-112.064421727074,0,,,9821.3315085083,0.656168,0,0.078715225616,0.38584974988,16,5,25.673,9821.3315085083,0,0,0.094399937404,0,0,0,141.9, -5.5, -0.7,0,0,1024,1024,1024,1024,0,0,0,0,0,0,0,96,4.257,4.281,4.288,4.284,4.276,4.287,0,32,9821.3315085083,0,10,Assisted_Takeoff,
3200,2023-10-10 21:09:21,38.4982158862253,-112.064421731383,0,,,9821.3315085083,0.656168,0,0.082695868788,0.38984253216,16,5,25.673,9821.3315085083,0,0,0.094399937404,0,0,0,141.9, -5.5, -0.8,0,0,1024,1024,1024,1024,0,0,0,0,0,0,0,96,4.257,4.281,4.288,4.284,4.276,4.287,0,32,9821.3315085083,0,10,Assisted_Takeoff,
3300,2023-10-10 21:09:21,38.4982158736773,-112.064421719592,0,,,9821.3315085083,0.656168,0,0.077197509032,0.39552494704,16,5,25.673,9821.3315085083,0,0,0.094399937404,0,0,0,141.9, -5.5, -0.8,0,0,1024,1024,1024,1024,0,0,0,0,0,0,0,96,4.257,4.281,4.288,4.284,4.276,4.287,0,32,9821.3315085083,0,10,Assisted_Takeoff,
3400,2023-10-10 21:09:21,38.4982158831903,-112.06442172423,0,,,9821.3315085083,0.656168,0,0.080912404164,0.39924213876,16,5,25.673,9821.3315085083,0,0,0.094399937404,0,0,0,141.9, -5.5, -0.7,0,0,1024,1024,1024,1024,0,0,0,0,0,0,0,96,4.257,4.281,4.288,4.284,4.276,4.287,0,32,9821.3315085083,0,10,Assisted_Takeoff,
3500,2023-10-10 21:09:21,38.4982158673739,-112.0644217139,0,,,9821.3315085083,0.656168,0,0.074469162488,0.40572179776,16,5,25.673,9821.3315085083,0,0,0.094399937404,0,0,0,141.8, -5.5, -0.7,0,0,1024,1024,1024,1024,0,0,0,0,0,0,0,96,4.257,4.281,4.288,4.284,4.276,4.287,0,32,9821.3315085083,0,10,Assisted_Takeoff,
3600,2023-10-10 21:09:22,38.49821587549,-112.064421716263,0,,,9821.3315085083,0.656168,0,0.077479333188,0.4087598556,16,5,25.714,9821.3315085083,0,0,0.094399937404,0,0,0,141.9, -5.5, -0.8,0,0,1024,1024,1024,1024,0,0,0,0,0,0,0,96,4.292,4.283,4.29,4.285,4.276,4.288,0,32,9821.3315085083,0,10,Assisted_Takeoff,
3700,2023-10-10 21:09:22,38.4982160170096,-112.064421711166,0,,,9821.3315085083,0.656168,0,0.126866473876,0.46041340056,16,5,25.714,9821.3315085083,0,0,0.126866473876,0,0,0,141.9, -5.5, -0.8,0,0,1024,1024,1088,1024,0,0,10,0,0,0,0,96,4.292,4.283,4.29,4.285,4.276,4.288,0,32,9821.3315085083,0,10,Assisted_Takeoff,
3800,2023-10-10 21:09:22,38.4982160390695,-112.064421711487,0,,,9821.3315085083,0.656168,0,0.134778219536,0.46846130108,16,5,25.714,9821.3315085083,0,0,0.134778219536,0,0,0,141.9, -5.5, -0.8,0,0,1024,1024,1248,1024,0,0,34,0,0,0,0,96,4.292,4.283,4.29,4.285,4.276,4.288,0,32,9821.3315085083,0,10,Assisted_Takeoff,
3900,2023-10-10 21:09:22,38.4982160011306,-112.064421706667,0,,,9821.3315085083,0.656168,0,0.120933074736,0.48237206268,16,5,25.714,9821.3315085083,0,0,0.134778219536,0,0,0,141.9, -5.5, -0.8,0,0,1024,1024,1423,1024,0,0,60,0,0,0,0,96,4.292,4.283,4.29,4.285,4.276,4.288,0,32,9821.3315085083,0,10,Assisted_Takeoff,
4000,2023-10-10 21:09:22,38.4982160176716,-112.064421708398,0,,,9821.3315085083,0.656168,0,0.12694718254,0.48842521248,16,5,25.714,9821.3315085083,0,0,0.134778219536,0,0,0,141.9, -5.5, -0.8,0,0,1024,1024,1614,1024,0,0,89,0,0,0,0,96,4.292,4.283,4.29,4.285,4.276,4.288,0,32,9821.3315085083,0,10,Assisted_Takeoff,
4100,2023-10-10 21:09:22,38.4982158399862,-112.064421860299,0,,,9821.3315085083,0.656168,0,0.0905265777,0.56642718348,16,5,25.714,9821.3315085083,0,0,0.134778219536,0,0,0,141.9, -5.4, -0.7,0,0,1024,1024,1684,1024,0,0,100,0,0,0,0,96,4.292,4.283,4.29,4.285,4.276,4.288,0,32,9821.3315085083,0,10,Assisted_Takeoff,
4200,2023-10-10 21:09:22,38.4982158448971,-112.064421877152,0,,,9821.3315085083,0.656168,0,0.095343506988,0.57156169808,16,5,25.714,9821.3315085083,0,0,0.134778219536,0,0,0,141.9, -5.3, -0.7,0,0,1024,1024,1684,1024,0,0,100,0,0,0,0,96,4.292,4.283,4.29,4.285,4.276,4.288,0,32,9821.3315085083,0,10,Assisted_Takeoff,
4300,2023-10-10 21:09:22,38.4982158465219,-112.064421847107,0,,,9821.3315085083,0.656168,0,0.089369753516,0.58016077972,16,5,25.714,9821.3315085083,0,0,0.134778219536,0,0,0,141.9, -5.3, -0.8,0,0,1024,1024,1684,1024,0,0,100,0,0,0,0,96,4.292,4.283,4.29,4.285,4.276,4.288,0,32,9821.3315085083,0,10,Assisted_Takeoff,
4400,2023-10-10 21:09:22,38.498215844713,-112.064421857415,0,,,9821.3315085083,0.656168,0,0.091063323124,0.58317915252,16,5,25.714,9821.3315085083,0,0,0.134778219536,0,0,0,141.9, -5.3, -0.7,0,0,1024,1024,1684,1024,0,0,100,0,0,0,0,96,4.292,4.283,4.29,4.285,4.276,4.288,0,32,9821.3315085083,0,10,Assisted_Takeoff,
4500,2023-10-10 21:09:22,38.4982158333911,-112.064421832839,0,,,9821.3315085083,0.656168,0,0.08311351972,0.5913221974,16,5,25.714,9821.3315085083,0,0,0.134778219536,0,0,0,141.9, -5.2, -0.7,0,0,1024,1024,1684,1024,0,0,100,0,0,0,0,96,4.292,4.283,4.29,4.285,4.276,4.288,0,32,9821.3315085083,0,10,Assisted_Takeoff,
4600,2023-10-10 21:09:23,38.4982158314944,-112.064421842433,0,,,9821.3315085083,0.656168,0,0.084654858352,0.59414700064,16,5,25.743,9821.3315085083,0,0,0.134778219536,0,0,0,141.9, -5.1, -0.7,0,0,1024,1024,1684,1024,0,0,100,0,0,0,0,96,4.296,4.288,4.294,4.29,4.282,4.293,0,32,9821.3315085083,0,10,Assisted_Takeoff,
4700,2023-10-10 21:09:23,38.4982158268008,-112.064421832299,0,,,9821.3315085083,0.656168,0,0.081360894992,0.59750986164,16,5,25.743,9821.3315085083,0,0,0.134778219536,0,0,0,141.7, -5, -0.7,0,0,1024,1024,1684,1024,0,0,100,0,0,0,0,96,4.296,4.288,4.294,4.29,4.282,4.293,0,32,9821.3315085083,0,10,Assisted_Takeoff,
4800,2023-10-10 21:09:23,38.4982158283121,-112.064421836947,0,,,9821.3315085083,0.656168,0,0.082713913408,0.59894686956,16,5,25.743,9821.3315085083,0,0,0.134778219536,0,0,0,141.2, -4.4, -0.5,0,0,1024,1024,1684,1024,0,0,100,0,0,0,0,96,4.296,4.288,4.294,4.29,4.282,4.293,0,32,9821.3315085083,0,10,Assisted_Takeoff,
4900,2023-10-10 21:09:23,38.4982158429153,-112.064421807056,0,,,9821.3315085083,0.656168,0,0.080533467144,0.609005925,16,5,25.743,9821.3315085083,0,0,0.134778219536,0,0,0,139.9, -2.8, -0.4,0,0,1024,1024,1684,1024,0,0,100,0,0,0,0,96,4.296,4.288,4.294,4.29,4.282,4.293,0,32,9821.3315085083,0,10,Assisted_Takeoff,
5000,2023-10-10 21:09:23,38.4982158440113,-112.064421779968,0,,,9821.3315085083,0.656168,0,0.076004595608,0.61675198824,16,5,25.743,9821.3315085083,0,0,0.134778219536,0,0,-0.223694,138, 0.2, -0.3,0,0,1024,1024,1684,1024,0,0,100,0,0,0,0,96,4.296,4.288,4.294,4.29,4.282,4.293,0,32,9821.3315085083,0,10,Assisted_Takeoff,
5100,2023-10-10 21:09:23,38.4982158965796,-112.064421888202,0,,,9821.3315085083,0.656168,0,0.110609911676,0.65312666132,16,5,25.743,9821.3315085083,0,0,0.134778219536,0,0,-0.671082,136.6, 3.6, 0.1,0,0,1024,1024,1684,1024,0,0,100,0,0,0,0,96,4.296,4.288,4.294,4.29,4.282,4.293,0,32,9821.3315085083,0,6,P-GPS,
5200,2023-10-10 21:09:23,38.4982159821261,-112.064421941662,0,,,9821.3315085083,0.984252,0.223694,0.144146001988,0.68787075692,16,5,25.743,9821.3315085083,0,0.223694,0.144146001988,0.223694,0,-1.11847,135.8, 5.4, 1.3,0,0,1024,1024,1684,1024,0,0,100,0,0,0,0,96,4.296,4.288,4.294,4.29,4.282,4.293,0,32,9821.3315085083,0,6,P-GPS,
5300,2023-10-10 21:09:23,38.4982160713397,-112.064422240161,0.328084,,,9821.6595925083,0.984252,0.6263432,0.227872710704,0.77910763648,16,5,25.743,9821.6595925083,0.328084,0.6263432,0.227872710704,0.447388,-0.447388,-1.565858,135.5, 6.2, 2.9,0,0,1024,1024,1684,1024,0,0,100,0,0,0,0,96,4.296,4.288,4.294,4.29,4.282,4.293,0,32,9821.6595925083,0.328084,6,P-GPS,
5400,2023-10-10 21:09:23,38.498216288742,-112.064422630955,0.656168,,,9821.9876765083,1.312336,0.8052984,0.36458990668,0.91601380884,16,5,25.743,9821.9876765083,0.656168,0.8052984,0.36458990668,0.447388,-0.671082,-2.013246,135.7, 4, 3,0,0,1024,1024,1684,1024,0,0,100,0,0,0,0,96,4.296,4.288,4.294,4.29,4.282,4.293,0,32,9821.9876765083,0.656168,6,P-GPS,
5500,2023-10-10 21:09:23,38.4982166382991,-112.064423176988,0.984252,,,9822.3157605083,1.64042,0.8052984,0.5659777084,1.11744426148,16,5,25.743,9822.3157605083,0.984252,0.8052984,0.5659777084,0.671082,-0.894776,-2.460634,135.9, 0.6, 1.9,0,0,1024,1024,1684,1024,0,0,100,0,0,0,0,96,4.296,4.288,4.294,4.29,4.282,4.293,0,32,9822.3157605083,0.984252,6,P-GPS,
5600,2023-10-10 21:09:23,38.4982168906796,-112.064423810042,1.312336,,,9822.6438445083,2.296588,1.2974252,0.76592522136,1.32031172204,16,5,25.743,9822.6438445083,1.312336,1.2974252,0.76592522136,0.671082,-1.11847,-2.908022,136.3, -3.2, 0.1,0,0,1024,1024,1684,1024,0,0,100,0,0,0,0,96,4.296,4.288,4.294,4.29,4.282,4.293,0,32,9822.6438445083,1.312336,6,P-GPS,
5700,2023-10-10 21:09:24,38.4982168855289,-112.064424621992,1.64042,,,9822.9719285083,2.624672,1.006623,0.96355646128,1.55216212316,16,5,24.251,9822.9719285083,1.64042,1.2974252,0.96355646128,0.447388,-0.894776,-3.35541,136.8, -6.2, -1.3,0,0,1024,1024,1684,1024,0,0,100,0,0,0,0,96,4.033,4.008,4.063,4.03,4.025,4.092,0,32,9822.9719285083,1.64042,6,P-GPS,
5800,2023-10-10 21:09:24,38.498217038219,-112.064425147307,2.296588,,,9823.6280965083,3.28084,1.006623,1.12257877608,1.7121719708,16,5,24.251,9823.6280965083,2.296588,1.2974252,1.12257877608,0.447388,-0.894776,-4.026492,137, -7.4, -2,0,0,1024,1024,1684,1024,0,0,100,0,0,0,0,96,4.033,4.008,4.063,4.03,4.025,4.092,0,32,9823.6280965083,2.296588,6,P-GPS,
5900,2023-10-10 21:09:24,38.4982172567071,-112.064425193248,2.952756,,,9824.2842645083,3.608924,0.4921268,1.17146985376,1.79295937496,16,5,24.251,9824.2842645083,2.952756,1.2974252,1.17146985376,0.223694,-0.447388,-4.47388,137.1, -7, -1.7,0,0,1024,1024,1684,1024,0,0,100,0,0,0,0,96,4.033,4.008,4.063,4.03,4.025,4.092,0,32,9824.2842645083,2.952756,6,P-GPS,"Setting new Return-To-Home altitude to 152m (499 ft). Data Recorder File Index is 23. Setting new Maximum Flight Altitude to 244m (801 ft)"
6000,2023-10-10 21:09:24,38.4982173112615,-112.064425426376,3.608924,,,9824.9404325083,4.593176,0.3131716,1.23930778244,1.86244100448,16,5,24.251,9824.9404325083,3.608924,1.2974252,1.23930778244,0.223694,-0.223694,-5.144962,137.1, -5.6, -1.1,0,0,1024,1024,1684,1024,0,0,100,0,0,0,0,96,4.033,4.008,4.063,4.03,4.025,4.092,0,32,9824.9404325083,3.608924,6,P-GPS,
6100,2023-10-10 21:09:24,38.4982174002176,-112.064425355423,4.593176,,,9825.9246845083,5.249344,0.3131716,1.23775922596,1.90069887972,16,5,24.251,9825.9246845083,4.593176,1.2974252,1.23930778244,0.223694,0,-5.816044,137.1, -3.9, -0.8,0,0,1024,1024,1684,1024,0,0,100,0,0,0,0,96,4.033,4.008,4.063,4.03,4.025,4.092,0,32,9825.9246845083,4.593176,6,P-GPS,
6200,2023-10-10 21:09:24,38.4982174031745,-112.064425428932,5.577428,,,9826.9089365083,6.233596,0.223694,1.25642392472,1.9217192216,16,5,24.251,9826.9089365083,5.577428,1.2974252,1.25642392472,0.223694,0,-6.487126,137.1, -2.8, -0.3,0,0,1024,1024,1684,1024,0,0,100,0,0,0,0,96,4.033,4.008,4.063,4.03,4.025,4.092,0,32,9826.9089365083,5.577428,6,P-GPS,
6300,2023-10-10 21:09:24,38.4982170066477,-112.064425592722,6.56168,,,9827.8931885083,7.217848,0.223694,1.23333009196,2.07376318972,16,5,24.251,9827.8931885083,6.56168,1.2974252,1.25642392472,0.223694,0,-7.158208,137.4, -2.3, 0,0,0,1024,1024,1684,1024,0,0,100,0,0,0,0,96,4.033,4.008,4.063,4.03,4.025,4.092,0,32,9827.8931885083,6.56168,6,P-GPS,
6400,2023-10-10 21:09:24,38.4982169579826,-112.064425652375,7.545932,,,9828.8774405083,8.2021,0,1.24221460668,2.09836620888,16,5,24.251,9828.8774405083,7.545932,1.2974252,1.25642392472,0,0,-7.82929,137.7, -2.6, 0.2,0,0,1024,1024,1684,1024,0,0,100,0,0,0,0,96,4.033,4.008,4.063,4.03,4.025,4.092,0,32,9828.8774405083,7.545932,6,P-GPS,
6500,2023-10-10 21:09:24,38.4982171844766,-112.06442567761,8.858268,,,9830.1897765083,9.186352,0,1.28212602528,2.1813156866,16,5,24.251,9830.1897765083,8.858268,1.2974252,1.28212602528,0,0,-8.500372,138.1, -2.8, 0.3,0,0,1024,1024,1684,1024,0,0,100,0,0,0,0,96,4.033,4.008,4.063,4.03,4.025,4.092,0,32,9830.1897765083,8.858268,6,P-GPS,
6600,2023-10-10 21:09:25,38.4982171241519,-112.064425710265,10.170604,,,9831.5021125083,10.498688,0,1.28132550032,2.20521988684,16,5,24.251,9831.5021125083,10.170604,1.2974252,1.28212602528,0,0,-9.171454,138.4, -3, 0.2,0,0,1024,1024,1684,1024,0,0,100,0,0,0,0,96,4.033,4.008,4.063,4.03,4.025,4.092,0,32,9831.5021125083,10.170604,6,P-GPS,
6700,2023-10-10 21:09:25,38.4982169020089,-112.06442583635,11.48294,,,9832.8144485083,11.811024,0,1.28377956864,2.29390427288,17,5,23.456,9832.8144485083,11.48294,1.2974252,1.28377956864,0,0,-9.842536,138.6, -2.8, 0.2,0,0,1024,1024,1684,1024,0,0,100,0,0,0,0,96,3.912,3.913,3.904,3.905,3.897,3.925,0,32,9832.8144485083,11.48294,6,P-GPS,
6800,2023-10-10 21:09:25,38.4982167945567,-112.064425857664,13.12336,,,9834.4548685083,12.795276,0,1.27642064452,2.333579471,17,5,23.456,9834.4548685083,13.12336,1.2974252,1.28377956864,0,0,-10.289924,138.6, -2.7, 0.3,0,0,1024,1024,1684,1024,0,0,100,0,0,0,0,96,3.912,3.913,3.904,3.905,3.897,3.925,0,32,9834.4548685083,13.12336,6,P-GPS,
6900,2023-10-10 21:09:25,38.4982167530133,-112.064425571304,14.435696,,,9835.7672045083,14.107612,0,1.19415686236,2.41673892248,18,5,23.456,9835.7672045083,14.435696,1.2974252,1.28377956864,0,0,-10.737312,138.4, -2.8, 0,0,0,1212,1024,1684,1024,28,0,100,0,0,0,0,96,3.912,3.913,3.904,3.905,3.897,3.925,0,32,9835.7672045083,14.435696,6,P-GPS,
7000,2023-10-10 21:09:25,38.4982166300427,-112.064425556172,16.076116,,,9837.4076245083,15.748032,0,1.17603022136,2.4618111024,18,5,23.456,9837.4076245083,16.076116,1.2974252,1.28377956864,0,0,-11.1847,138.2, -3.2, -0.5,0,0,1281,1024,1684,1024,39,0,100,0,0,0,0,96,3.912,3.913,3.904,3.905,3.897,3.925,0,32,9837.4076245083,16.076116,6,P-GPS,
7100,2023-10-10 21:09:25,38.4982165557844,-112.064425634777,17.716536,,,9839.0480445083,17.060368,0,1.18989833204,2.49699483056,18,5,23.456,9839.0480445083,17.716536,1.2974252,1.28377956864,0,0,-11.408394,138, -3.7, -1,0,0,1415,1024,1684,1024,59,0,100,0,0,0,0,96,3.912,3.913,3.904,3.905,3.897,3.925,0,32,9839.0480445083,17.716536,6,P-GPS,
7200,2023-10-10 21:09:25,38.4982164339656,-112.064425537825,19.68504,,,9841.0165485083,18.372704,0.223694,1.15179793712,2.54935703696,18,5,23.456,9841.0165485083,19.68504,1.2974252,1.28377956864,0,0.223694,-11.632088,138, -5, -1.3,0,0,1588,1024,1684,1024,85,0,100,0,0,0,0,96,3.912,3.913,3.904,3.905,3.897,3.925,0,32,9841.0165485083,19.68504,6,P-GPS,
7300,2023-10-10 21:09:25,38.498216379225,-112.064425204282,21.32546,,,9842.6569685083,20.013124,0.223694,1.05455383952,2.6466700322,18,5,23.456,9842.6569685083,21.32546,1.2974252,1.28377956864,0,0.223694,-11.855782,138.1, -7.8, -0.7,0,0,1684,1024,1684,1024,100,0,100,0,0,0,0,96,3.912,3.913,3.904,3.905,3.897,3.925,0,32,9842.6569685083,21.32546,6,P-GPS,
7400,2023-10-10 21:09:25,38.4982162429138,-112.064424931618,22.96588,,,9844.2973885083,21.653544,0.4921268,0.96738520156,2.73905520576,18,5,23.456,9844.2973885083,22.96588,1.2974252,1.28377956864,-0.223694,0.447388,-11.855782,138.1, -11.8, 0.7,0,0,1684,1024,1684,1024,100,0,100,0,0,0,0,96,3.912,3.913,3.904,3.905,3.897,3.925,0,32,9844.2973885083,22.96588,6,P-GPS,
7500,2023-10-10 21:09:25,38.4982162472804,-112.064424565102,24.6063,,,9845.9378085083,23.293964,0.8052984,0.86581695684,2.84372056344,18,5,23.456,9845.9378085083,24.6063,1.2974252,1.28377956864,-0.447388,0.671082,-11.855782,138.1, -14.7, 1.4,0,0,1684,1024,1684,1024,100,0,100,0,0,0,0,96,3.912,3.913,3.904,3.905,3.897,3.925,0,32,9845.9378085083,24.6063,6,P-GPS,
7600,2023-10-10 21:09:26,38.4982158669639,-112.064424033765,26.574804,,,9847.9063125083,24.934384,1.4316416,0.69217193816,3.04932424456,18,5,23.456,9847.9063125083,26.574804,1.4316416,1.28377956864,-0.894776,1.11847,-11.855782,138.1, -15.6, 0.7,0,0,1684,1024,1684,1024,100,0,100,0,0,0,0,96,3.912,3.913,3.904,3.905,3.897,3.925,0,32,9847.9063125083,26.574804,6,P-GPS,
7700,2023-10-10 21:09:26,38.4982153350009,-112.064423309684,28.215224,,,9849.5467325083,26.574804,1.7448132,0.49774935976,3.3329069308,18,5,23.41,9849.5467325083,28.215224,1.7448132,1.28377956864,-1.11847,1.342164,-11.632088,137.9, -15.8, -0.4,0,0,1684,1026,1684,1024,100,0,100,0,0,0,0,96,3.941,3.911,3.887,3.886,3.871,3.914,0,32,9849.5467325083,28.215224,6,P-GPS,
7800,2023-10-10 21:09:26,38.4982147089365,-112.064422433901,30.183728,,,9851.5152365083,27.559056,2.23694,0.42229988228,3.671588044,18,5,23.41,9851.5152365083,30.183728,2.23694,1.28377956864,-1.342164,1.789552,-11.632088,137.8, -15.1, -0.8,0,0,1684,1039,1684,1024,100,2,100,0,0,0,0,96,3.941,3.911,3.887,3.886,3.871,3.914,0,32,9851.5152365083,30.183728,6,P-GPS,
7900,2023-10-10 21:09:26,38.4982141124091,-112.064421260799,31.824148,,,9853.1556565083,27.559056,2.23694,0.57985238076,4.0710631224,18,5,23.41,9853.1556565083,31.824148,2.23694,1.28377956864,-1.565858,2.013246,-11.632088,137.8, -14.4, -0.1,0,0,1684,1041,1684,1024,100,3,100,0,0,0,0,96,3.941,3.911,3.887,3.886,3.871,3.914,0,32,9853.1556565083,31.824148,6,P-GPS,
8000,2023-10-10 21:09:26,38.4982133243199,-112.064420052651,33.464568,,,9854.7960765083,27.559056,2.8632832,0.968093863,4.5201445016,18,5,23.41,9854.7960765083,33.464568,2.8632832,1.28377956864,-1.789552,2.23694,-11.632088,137.6, -14.3, 0.6,0,0,1684,1069,1684,1024,100,7,100,0,0,0,0,96,3.941,3.911,3.887,3.886,3.871,3.914,0,32,9854.7960765083,33.464568,6,P-GPS,
8100,2023-10-10 21:09:26,38.4982123694925,-112.064418932133,35.104988,,,9856.4364965083,27.559056,3.1764548,1.43023954708,4.9931432044,18,5,23.41,9856.4364965083,35.104988,3.1764548,1.43023954708,-2.013246,2.460634,-11.408394,137.6, -15.1, 1.3,0,0,1684,1087,1684,1024,100,10,100,0,0,0,0,96,3.941,3.911,3.887,3.886,3.871,3.914,0,32,9856.4364965083,35.104988,6,P-GPS,
8200,2023-10-10 21:09:26,38.498211386058,-112.064417518727,37.073492,,,9858.4050005083,27.559056,3.4896264,1.95523956388,5.5331694684,18,5,23.41,9858.4050005083,37.073492,3.4896264,1.95523956388,-2.23694,2.684328,-11.408394,137.7, -16.9, 1.4,0,0,1684,1091,1684,1024,100,10,100,0,0,0,0,96,3.941,3.911,3.887,3.886,3.871,3.914,0,32,9858.4050005083,37.073492,6,P-GPS,
8300,2023-10-10 21:09:26,38.4982102785799,-112.064415964988,38.713912,,,9860.0454205083,27.559056,3.9593838,2.54708669568,6.1332679128,18,5,23.41,9860.0454205083,38.713912,3.9593838,2.54708669568,-2.684328,2.908022,-11.1847,137.8, -18.8, 1.3,0,0,1684,1092,1639,1024,100,10,93,0,0,0,0,96,3.941,3.911,3.887,3.886,3.871,3.914,0,32,9860.0454205083,38.713912,6,P-GPS,
8400,2023-10-10 21:09:26,38.4982089407153,-112.064414578724,40.354332,,,9861.6858405083,27.559056,4.585727,3.175525036,6.7617128148,18,5,23.41,9861.6858405083,40.354332,4.585727,3.175525036,-3.131716,3.35541,-10.961006,137.9, -18.5, 0.9,0,0,1684,1093,1617,1024,100,10,90,0,0,0,0,96,3.941,3.911,3.887,3.886,3.871,3.914,0,32,9861.6858405083,40.354332,6,P-GPS,
8500,2023-10-10 21:09:26,38.4982073054408,-112.064412712099,41.994752,,,9863.3262605083,27.559056,4.8988986,3.9749673188,7.5617456488,18,5,23.41,9863.3262605083,41.994752,4.8988986,3.9749673188,-3.35541,3.579104,-10.737312,137.7, -17.7, 0.7,0,0,1684,1095,1606,1024,100,11,88,0,0,0,0,96,3.941,3.911,3.887,3.886,3.871,3.914,0,32,9863.3262605083,41.994752,6,P-GPS,
8600,2023-10-10 21:09:27,38.4982057866546,-112.064410695925,43.635172,,,9864.9666805083,27.559056,5.3910254,4.770013276,8.3607942308,18,5,23.796,9864.9666805083,43.635172,5.3910254,4.770013276,-3.579104,4.026492,-10.513618,137.4, -16.9, 0.8,0,0,1684,1100,1604,1024,100,12,88,0,0,0,0,96,3.984,3.972,3.966,3.963,3.949,3.962,0,32,9864.9666805083,43.635172,6,P-GPS,
8700,2023-10-10 21:09:27,38.4982036289317,-112.064408709547,44.947508,,,9866.2790165083,27.559056,5.704197,5.7371392912,9.3310698524,18,5,23.796,9866.2790165083,44.947508,5.704197,5.7371392912,-3.802798,4.250186,-10.289924,137.2, -16.4, 1.8,0,0,1684,1100,1612,1038,100,12,89,2,0,0,0,96,3.984,3.972,3.966,3.963,3.949,3.962,0,32,9866.2790165083,44.947508,6,P-GPS,
8800,2023-10-10 21:09:27,38.498201936627,-112.064406460768,46.587928,,,9867.9194365083,27.559056,6.0173686,6.623523834,10.2218835292,18,5,23.796,9867.9194365083,46.587928,6.0173686,6.623523834,-4.026492,4.47388,-9.842536,137.3, -16.2, 3.7,0,0,1684,1101,1608,1066,100,12,88,6,0,0,0,96,3.984,3.972,3.966,3.963,3.949,3.962,0,32,9867.9194365083,46.587928,6,P-GPS,
8900,2023-10-10 21:09:27,38.4982001538561,-112.064404383332,47.900264,,,9869.2317725083,27.559056,6.1739544,7.5035435472,11.102198518,18,5,23.796,9869.2317725083,47.900264,6.1739544,7.5035435472,-4.250186,4.47388,-9.842536,137.5, -16.9, 5.6,0,0,1684,1122,1595,1070,100,15,87,7,0,0,0,96,3.984,3.972,3.966,3.963,3.949,3.962,0,32,9869.2317725083,47.900264,6,P-GPS,
9000,2023-10-10 21:09:27,38.4981982195211,-112.064402026272,49.540684,,,9870.8721925083,27.559056,6.6437118,8.477854602,12.077428208,18,5,23.796,9870.8721925083,49.540684,6.6437118,8.477854602,-4.697574,4.697574,-9.618842,137.8, -18.2, 5.4,0,0,1684,1124,1567,1071,100,15,82,7,0,0,0,96,3.984,3.972,3.966,3.963,3.949,3.962,0,32,9870.8721925083,49.540684,6,P-GPS,
9100,2023-10-10 21:09:27,38.4981960756689,-112.064399573874,50.85302,,,9872.1845285083,27.559056,6.9568834,9.5276577852,13.1272641996,18,5,23.796,9872.1845285083,50.85302,6.9568834,9.5276577852,-4.921268,4.921268,-9.395148,138.1, -19, 4.5,0,0,1684,1130,1555,1073,100,16,80,7,0,0,0,96,3.984,3.972,3.966,3.963,3.949,3.962,0,32,9872.1845285083,50.85302,6,P-GPS,
9200,2023-10-10 21:09:27,38.4981938427287,-112.0643970308,52.165356,,,9873.4968645083,27.559056,7.4266408,10.6189635944,14.2186028172,18,5,23.796,9873.4968645083,52.165356,7.4266408,10.6189635944,-5.368656,5.144962,-9.171454,138, -19.7, 4.4,0,0,1684,1131,1547,1071,100,16,79,7,0,0,0,96,3.984,3.972,3.966,3.963,3.949,3.962,0,32,9873.4968645083,52.165356,6,P-GPS,
9300,2023-10-10 21:09:27,38.4981913809382,-112.064394357269,53.477692,,,9874.8092005083,27.559056,7.7621818,11.797572556,15.3973758208,18,5,23.796,9874.8092005083,53.477692,7.7621818,11.797572556,-5.816044,5.144962,-8.94776,137.8, -20.9, 4.4,0,0,1684,1132,1543,1071,100,16,79,7,0,0,0,96,3.984,3.972,3.966,3.963,3.949,3.962,0,32,9874.8092005083,53.477692,6,P-GPS,
9400,2023-10-10 21:09:27,38.4981888595235,-112.064391588758,54.790028,,,9876.1215365083,27.559056,8.2319392,13.0104334872,16.6103351772,18,5,23.796,9876.1215365083,54.790028,8.2319392,13.0104334872,-6.039738,5.59235,-8.724066,137.6, -22.5, 4.3,0,0,1684,1140,1543,1066,100,18,79,6,0,0,0,96,3.984,3.972,3.966,3.963,3.949,3.962,0,32,9876.1215365083,54.790028,6,P-GPS,
9500,2023-10-10 21:09:27,38.4981861238893,-112.064388658951,56.102364,,,9877.4338725083,27.559056,8.7016966,14.312500458,17.9126646152,18,5,23.796,9877.4338725083,56.102364,8.7016966,14.312500458,-6.487126,5.816044,-8.276678,137.3, -23.2, 4.6,0,0,1684,1142,1543,1067,100,18,79,7,0,0,0,96,3.984,3.972,3.966,3.963,3.949,3.962,0,32,9877.4338725083,56.102364,6,P-GPS,
9600,2023-10-10 21:09:28,38.4981832120479,-112.064385505576,57.4147,,,9878.7462085083,27.559056,9.506995,15.7049873792,19.30528277,18,5,23.796,9878.7462085083,57.4147,9.506995,15.7049873792,-7.158208,6.263432,-8.052984,137.2, -23.5, 5.2,0,0,1684,1141,1539,1074,100,18,78,8,0,0,0,96,3.984,3.972,3.966,3.963,3.949,3.962,0,32,9878.7462085083,57.4147,6,P-GPS,
9700,2023-10-10 21:09:28,38.498179779302,-112.064382157029,58.727036,,,9880.0585445083,27.559056,10.1333382,17.27772365,20.8809717968,18,5,23.698,9880.0585445083,58.727036,10.1333382,17.27772365,-7.605596,6.71082,-8.052984,137, -23.5, 5.6,0,0,1684,1140,1537,1083,100,18,78,9,0,0,0,96,3.972,3.956,3.938,3.951,3.939,3.942,0,32,9880.0585445083,58.727036,6,P-GPS,
9800,2023-10-10 21:09:28,38.4981763731529,-112.064378600572,59.711288,,,9881.0427965083,27.559056,10.1333382,18.8821200268,22.4858602996,18,5,23.698,9881.0427965083,59.711288,10.1333382,18.8821200268,-8.276678,7.158208,-7.82929,137, -23.1, 5.9,0,0,1684,1140,1539,1084,100,18,78,9,0,0,0,96,3.972,3.956,3.938,3.951,3.939,3.942,0,32,9881.0427965083,59.711288,6,P-GPS,
9900,2023-10-10 21:09:28,38.4981725497545,-112.064374856113,61.023624,,,9882.3551325083,27.559056,11.6097186,20.6373366184,24.243439096,18,5,23.698,9882.3551325083,61.023624,11.6097186,20.6373366184,-8.94776,7.381902,-7.82929,137.2, -22.8, 6,0,0,1684,1139,1533,1076,100,17,77,8,0,0,0,96,3.972,3.956,3.938,3.951,3.939,3.942,0,32,9882.3551325083,61.023624,6,P-GPS,
10000,2023-10-10 21:09:28,38.4981686041814,-112.064370906462,62.007876,,,9883.3393845083,27.559056,12.3926476,22.4647644984,26.0721465036,18,5,23.698,9883.3393845083,62.007876,12.3926476,22.4647644984,-9.618842,7.82929,-7.82929,137.6, -22.1, 6.1,0,0,1684,1135,1527,1064,100,17,76,6,0,0,0,96,3.972,3.956,3.938,3.951,3.939,3.942,0,32,9883.3393845083,62.007876,6,P-GPS,
10100,2023-10-10 21:09:28,38.4981644625241,-112.0643665974,63.320212,,,9884.6517205083,27.559056,13.197946,24.4131569492,28.0208014216,18,5,23.698,9884.6517205083,63.320212,13.197946,24.4131569492,-10.289924,8.276678,-7.82929,138.2, -21.2, 5.9,0,0,1684,1131,1527,1064,100,16,76,6,0,0,0,96,3.972,3.956,3.938,3.951,3.939,3.942,0,32,9884.6517205083,63.320212,6,P-GPS,
10200,2023-10-10 21:09:28,38.4981600043399,-112.06436227094,64.304464,,,9885.6359725083,27.559056,13.6900728,26.4533473032,30.0633539804,18,5,23.698,9885.6359725083,64.304464,13.6900728,26.4533473032,-10.737312,8.500372,-7.82929,138.9, -20.4, 5.2,0,0,1684,1074,1513,1049,100,8,74,4,0,0,0,96,3.972,3.956,3.938,3.951,3.939,3.942,0,32,9885.6359725083,64.304464,6,P-GPS,
10300,2023-10-10 21:09:28,38.498155319857,-112.064357652407,65.6168,,,9886.9483085083,27.559056,14.4953712,28.6106964536,32.222113892,18,5,23.698,9886.9483085083,65.6168,14.4953712,28.6106964536,-11.408394,8.94776,-7.82929,139.3, -20.1, 4.7,0,0,1684,1074,1513,1049,100,8,74,4,0,0,0,96,3.972,3.956,3.938,3.951,3.939,3.942,0,32,9886.9483085083,65.6168,6,P-GPS,
10400,2023-10-10 21:09:28,38.498150423183,-112.064352956732,66.601052,,,9887.9325605083,27.559056,14.987498,30.8419629292,34.455709764,18,5,23.698,9887.9325605083,66.601052,14.987498,30.8419629292,-11.855782,9.171454,-7.605596,139.3, -20.1, 5,0,0,1684,1070,1501,1024,100,7,72,0,0,0,0,96,3.972,3.956,3.938,3.951,3.939,3.942,0,32,9887.9325605083,66.601052,6,P-GPS,
10500,2023-10-10 21:09:28,38.4981456429487,-112.064347915808,67.913388,,,9889.2448965083,27.559056,14.987498,33.103347516,36.717192776,18,5,23.698,9889.2448965083,67.913388,14.987498,33.103347516,-12.30317,9.618842,-7.605596,139.1, -20.1, 4.8,0,0,1684,1049,1548,1024,100,4,79,0,0,0,0,96,3.972,3.956,3.938,3.951,3.939,3.942,0,32,9889.2448965083,67.913388,6,P-GPS,
10600,2023-10-10 21:09:29,38.4981403670366,-112.064342835468,68.89764,,,9890.2291485083,27.559056,16.4191396,35.511484076,39.127625924,18,5,23.694,9890.2291485083,68.89764,16.4191396,35.511484076,-12.974252,10.06623,-7.158208,138.9, -20.5, 3.8,0,0,1684,1024,1559,1024,100,0,81,0,0,0,0,96,3.967,3.953,3.954,3.939,3.934,3.947,0,32,9890.2291485083,68.89764,6,P-GPS,
10700,2023-10-10 21:09:29,38.4981348269859,-112.064337167479,69.881892,,,9891.2134005083,27.559056,17.0454828,38.100723004,41.716864852,18,5,23.694,9891.2134005083,69.881892,17.0454828,38.100723004,-13.42164,10.513618,-6.934514,138.8, -21, 2.6,0,0,1684,1024,1559,1024,100,0,81,0,0,0,0,96,3.967,3.953,3.954,3.939,3.934,3.947,0,32,9891.2134005083,69.881892,6,P-GPS,
10800,2023-10-10 21:09:29,38.498129163581,-112.064331579149,70.866144,,,9892.1976525083,27.559056,17.0454828,40.710631224,44.327757324,18,5,23.694,9892.1976525083,70.866144,17.0454828,40.710631224,-13.869028,10.961006,-6.934514,138.8, -20.2, 1.8,0,0,1684,1024,1560,1024,100,0,81,0,0,0,0,96,3.967,3.953,3.954,3.939,3.934,3.947,0,32,9892.1976525083,70.866144,6,P-GPS,
10900,2023-10-10 21:09:29,38.498123446623,-112.064325620525,71.850396,,,9893.1819045083,27.559056,18.454755,43.40223236,47.01935846,18,5,23.694,9893.1819045083,71.850396,18.454755,43.40223236,-14.316416,11.632088,-7.158208,138.7, -17.9, 2.4,0,0,1684,1024,1551,1024,100,0,80,0,0,0,0,96,3.967,3.953,3.954,3.939,3.934,3.947,0,32,9893.1819045083,71.850396,6,P-GPS,
11000,2023-10-10 21:09:29,38.4981174969913,-112.064319480877,73.162732,,,9894.4942405083,27.559056,18.902143,46.19258678,49.80971288,18,5,23.694,9894.4942405083,73.162732,18.902143,46.19258678,-14.54011,12.079476,-7.158208,138.8, -15.2, 4.5,0,0,1684,1024,1521,1024,100,0,75,0,0,0,0,96,3.967,3.953,3.954,3.939,3.934,3.947,0,32,9894.4942405083,73.162732,6,P-GPS,
11100,2023-10-10 21:09:29,38.4981114128177,-112.064313172787,74.146984,,,9895.4784925083,27.559056,18.902143,49.051182672,52.668308772,18,5,23.694,9895.4784925083,74.146984,18.902143,49.051182672,-14.763804,12.30317,-7.381902,138.9, -13.5, 6.3,0,0,1684,1024,1524,1024,100,0,76,0,0,0,0,96,3.967,3.953,3.954,3.939,3.934,3.947,0,32,9895.4784925083,74.146984,6,P-GPS,
11200,2023-10-10 21:09:29,38.4981052889289,-112.06430680709,75.131236,,,9896.4627445083,27.559056,19.3942698,51.931432108,55.548558208,18,5,23.694,9896.4627445083,75.131236,19.3942698,51.931432108,-14.987498,12.30317,-7.381902,139, -13.4, 6.9,0,0,1684,1024,1515,1024,100,0,74,0,0,0,0,96,3.967,3.953,3.954,3.939,3.934,3.947,0,32,9896.4627445083,75.131236,6,P-GPS,
11300,2023-10-10 21:09:29,38.4980986475438,-112.064299776357,76.115488,,,9897.4469965083,27.559056,19.5284862,55.078085752,58.695211852,18,5,23.694,9897.4469965083,76.115488,19.5284862,55.078085752,-14.987498,12.526864,-7.381902,139.2, -14.8, 6.5,0,0,1684,1024,1507,1024,100,0,73,0,0,0,0,96,3.967,3.953,3.954,3.939,3.934,3.947,0,32,9897.4469965083,76.115488,6,P-GPS,
11400,2023-10-10 21:09:29,38.4980923358257,-112.064293200248,77.427824,,,9898.7593325083,27.559056,19.8416578,58.04954254,61.66666864,18,5,23.694,9898.7593325083,77.427824,19.8416578,58.04954254,-15.211192,12.750558,-7.381902,139.2, -16.9, 5.9,0,0,1684,1024,1504,1024,100,0,73,0,0,0,0,96,3.967,3.953,3.954,3.939,3.934,3.947,0,32,9898.7593325083,77.427824,6,P-GPS,
11500,2023-10-10 21:09:30,38.4980864857045,-112.064287142233,78.412076,,,9899.7435845083,27.559056,20.1548294,60.796917956,64.414044056,18,5,23.694,9899.7435845083,78.412076,20.1548294,60.796917956,-15.434886,12.974252,-7.381902,139.1, -18.8, 4.9,0,0,1684,1024,1488,1024,100,0,70,0,0,0,0,96,3.967,3.953,3.954,3.939,3.934,3.947,0,32,9899.7435845083,78.412076,6,P-GPS,
11600,2023-10-10 21:09:30,38.4980800153225,-112.064280354091,79.396328,,,9900.7278365083,27.559056,20.6469562,63.851379996,67.468506096,18,5,23.694,9900.7278365083,79.396328,20.6469562,63.851379996,-15.882274,13.197946,-7.158208,138.8, -20.3, 4.3,0,0,1684,1024,1489,1024,100,0,70,0,0,0,0,96,3.967,3.953,3.954,3.939,3.934,3.947,0,32,9900.7278365083,79.396328,6,P-GPS,
11700,2023-10-10 21:09:30,38.4980735340056,-112.064273199742,80.708664,,,9902.0401725083,27.559056,20.6469562,66.97506776,70.593506196,18,5,23.356,9902.0401725083,80.708664,20.6469562,66.97506776,-16.105968,13.645334,-7.158208,138.4, -21.1, 4,0,0,1684,1024,1472,1024,100,0,68,0,0,0,0,96,3.921,3.886,3.897,3.899,3.889,3.864,0,32,9902.0401725083,80.708664,6,P-GPS,
11800,2023-10-10 21:09:30,38.4980668652703,-112.064265965982,81.692916,,,9903.0244245083,27.559056,21.5641016,70.166012744,73.785107348,18,5,23.356,9903.0244245083,81.692916,21.5641016,70.166012744,-16.329662,14.092722,-6.934514,138, -21.3, 4.9,0,0,1684,1024,1445,1024,100,0,64,0,0,0,0,96,3.921,3.886,3.897,3.899,3.889,3.864,0,32,9903.0244245083,81.692916,6,P-GPS,
11900,2023-10-10 21:09:30,38.4980601992324,-112.064258417602,82.677168,,,9904.0086765083,27.559056,22.033859,73.413388176,77.034779368,18,5,23.356,9904.0086765083,82.677168,22.033859,73.413388176,-16.553356,14.54011,-6.71082,137.8, -20.4, 6.4,0,0,1684,1024,1445,1024,100,0,64,0,0,0,0,96,3.921,3.886,3.897,3.899,3.889,3.864,0,32,9904.0086765083,82.677168,6,P-GPS,
12000,2023-10-10 21:09:30,38.4980533221679,-112.06425076993,83.66142,,,9904.9929285083,27.559056,22.3470306,76.738519516,80.36089496,18,5,23.356,9904.9929285083,83.66142,22.3470306,76.738519516,-16.77705,14.763804,-6.487126,137.7, -18.9, 8,0,0,1684,1024,1420,1024,100,0,60,0,0,0,0,96,3.921,3.886,3.897,3.899,3.889,3.864,0,32,9904.9929285083,83.66142,6,P-GPS,
12100,2023-10-10 21:09:30,38.4980463203918,-112.064243051621,84.645672,,,9905.9771805083,27.559056,22.6602022,80.11155112,83.734910816,18,5,23.356,9905.9771805083,84.645672,22.6602022,80.11155112,-17.000744,14.987498,-6.263432,137.9, -17.6, 9,0,0,1684,1024,1381,1027,100,0,54,0,0,0,0,96,3.921,3.886,3.897,3.899,3.889,3.864,0,32,9905.9771805083,84.645672,6,P-GPS,
12200,2023-10-10 21:09:30,38.4980392560888,-112.064235227509,85.629924,,,9906.9614325083,27.559056,22.9733738,83.521328132,87.14567208,18,5,23.356,9906.9614325083,85.629924,22.9733738,83.521328132,-17.224438,15.211192,-6.263432,138.2, -17.7, 9.3,0,0,1684,1024,1375,1052,100,0,53,4,0,0,0,96,3.921,3.886,3.897,3.899,3.889,3.864,0,32,9906.9614325083,85.629924,6,P-GPS,
12300,2023-10-10 21:09:30,38.4980321299952,-112.064227294574,86.286092,,,9907.6176005083,27.559056,23.152329,86.96850672,90.594163004,18,5,23.356,9907.6176005083,86.286092,23.152329,86.96850672,-17.448132,15.211192,-6.039738,138.4, -19, 8.7,0,0,1684,1024,1370,1062,100,0,52,6,0,0,0,96,3.921,3.886,3.897,3.899,3.889,3.864,0,32,9907.6176005083,86.286092,6,P-GPS,
12400,2023-10-10 21:09:30,38.498024922827,-112.064219326015,87.270344,,,9908.6018525083,27.559056,23.4655006,90.445212868,94.07152532,18,5,23.356,9908.6018525083,87.270344,23.4655006,90.445212868,-17.671826,15.434886,-5.59235,138.3, -20.9, 7.6,0,0,1684,1024,1363,1071,100,0,51,7,0,0,0,96,3.921,3.886,3.897,3.899,3.889,3.864,0,32,9908.6018525083,87.270344,6,P-GPS,
12500,2023-10-10 21:09:30,38.4980172948218,-112.064211488467,88.254596,,,9909.5861045083,27.559056,23.7786722,94.016079124,97.64271966,18,5,23.356,9909.5861045083,88.254596,23.7786722,94.016079124,-17.89552,15.65858,-5.144962,138.2, -22.3, 7.2,0,0,1684,1024,1305,1096,100,0,43,11,0,0,0,96,3.921,3.886,3.897,3.899,3.889,3.864,0,32,9909.5861045083,88.254596,6,P-GPS,
12600,2023-10-10 21:09:31,38.4980098917494,-112.06420326981,88.910764,,,9910.2422725083,27.559056,24.2484296,97.593178976,101.220803764,18,5,23.356,9910.2422725083,88.910764,24.2484296,97.593178976,-18.119214,16.105968,-4.921268,137.9, -22.9, 7.7,0,0,1684,1024,1256,1097,100,0,35,11,0,0,0,96,3.921,3.886,3.897,3.899,3.889,3.864,0,32,9910.2422725083,88.910764,6,P-GPS,
12700,2023-10-10 21:09:31,38.4980024363056,-112.064195017257,89.566932,,,9910.8984405083,27.559056,24.5616012,101.191276204,104.81955716,18,5,23.577,9910.8984405083,89.566932,24.5616012,101.191276204,-18.342908,16.329662,-4.697574,137.9, -23, 8.8,0,0,1684,1024,1214,1087,100,0,29,10,0,0,0,96,3.924,3.951,3.952,3.896,3.932,3.922,0,32,9910.8984405083,89.566932,6,P-GPS,
12800,2023-10-10 21:09:31,38.4979947978364,-112.064186570341,90.2231,,,9911.5546085083,27.559056,24.8971422,104.876315692,108.505252816,18,5,23.577,9911.5546085083,90.2231,24.8971422,104.876315692,-18.790296,16.329662,-4.250186,138.1, -22.2, 10.5,0,0,1684,1024,1181,1053,100,0,24,4,0,0,0,96,3.924,3.951,3.952,3.896,3.932,3.922,0,32,9911.5546085083,90.2231,6,P-GPS,
12900,2023-10-10 21:09:31,38.4979867094671,-112.064178140363,90.879268,,,9912.2107765083,27.559056,25.2103138,108.68438668,112.313651888,18,5,23.577,9912.2107765083,90.879268,25.2103138,108.68438668,-19.01399,16.553356,-3.802798,138.4, -21.1, 11.8,0,0,1684,1024,1177,1067,100,0,23,7,0,0,0,96,3.924,3.951,3.952,3.896,3.932,3.922,0,32,9912.2107765083,90.879268,6,P-GPS,
13000,2023-10-10 21:09:31,38.4979788283053,-112.064169624758,91.535436,,,9912.8669445083,27.559056,25.389269,112.449806748,116.07940004,18,5,23.577,9912.8669445083,91.535436,25.389269,112.449806748,-19.237684,16.553356,-3.35541,138.6, -20.8, 11.1,0,0,1684,1024,1180,1073,100,0,24,7,0,0,0,96,3.924,3.951,3.952,3.896,3.932,3.922,0,32,9912.8669445083,91.535436,6,P-GPS,
13100,2023-10-10 21:09:31,38.4979709195536,-112.064161014138,91.86352,,,9913.1950285083,27.559056,25.5458548,116.240489284,119.87041066,18,5,23.577,9913.1950285083,91.86352,25.5458548,116.240489284,-19.461378,16.553356,-2.684328,138.5, -21.9, 9.2,0,0,1684,1024,1189,1081,100,0,25,9,0,0,0,96,3.924,3.951,3.952,3.896,3.932,3.922,0,32,9913.1950285083,91.86352,6,P-GPS,
13200,2023-10-10 21:09:31,38.497962870557,-112.064152426867,92.191604,,,9913.5231125083,27.559056,25.8590264,120.066276808,123.696198184,18,5,23.577,9913.5231125083,92.191604,25.8590264,120.066276808,-19.685072,16.77705,-2.23694,138, -23.4, 7.3,0,0,1684,1024,1187,1107,100,0,25,13,0,0,0,96,3.924,3.951,3.952,3.896,3.932,3.922,0,32,9913.5231125083,92.191604,6,P-GPS,
13300,2023-10-10 21:09:31,38.4979547336013,-112.064143702283,92.519688,,,9913.8511965083,27.559056,26.172198,123.9419331,127.571526392,18,5,23.577,9913.8511965083,92.519688,26.172198,123.9419331,-19.908766,17.000744,-1.789552,137.7, -24.9, 5.9,0,0,1684,1024,1186,1120,100,0,25,15,0,0,0,96,3.924,3.951,3.952,3.896,3.932,3.922,0,32,9913.8511965083,92.519688,6,P-GPS,
13400,2023-10-10 21:09:31,38.4979470584139,-112.064135627679,92.847772,,,9914.1792805083,27.559056,26.6419554,127.569229804,131.198823096,18,5,23.577,9914.1792805083,92.847772,26.6419554,127.569229804,-20.13246,17.448132,-1.565858,137.4, -25.6, 6.2,0,0,1684,1024,1185,1134,100,0,24,17,0,0,0,96,3.924,3.951,3.952,3.896,3.932,3.922,0,32,9914.1792805083,92.847772,6,P-GPS,
13500,2023-10-10 21:09:31,38.4979379089863,-112.064125891852,93.175856,,,9914.5073645083,27.559056,27.1117128,131.913390048,135.54298334,18,5,23.577,9914.5073645083,93.175856,27.1117128,131.913390048,-20.356154,17.89552,-1.342164,137.4, -24.8, 8.4,0,0,1684,1024,1185,1134,100,0,24,17,0,0,0,96,3.924,3.951,3.952,3.896,3.932,3.922,0,32,9914.5073645083,93.175856,6,P-GPS,
13600,2023-10-10 21:09:32,38.4979293994888,-112.064116603263,93.175856,,,9914.5073645083,27.559056,27.5814702,135.996395428,139.626316804,18,5,23.577,9914.5073645083,93.175856,27.5814702,135.996395428,-20.803542,18.119214,-1.11847,137.6, -22.1, 12.6,0,0,1684,1024,1187,1146,100,0,25,18,0,0,0,96,3.924,3.951,3.952,3.896,3.932,3.922,0,32,9914.5073645083,93.175856,6,P-GPS,
13700,2023-10-10 21:09:32,38.4979206944808,-112.064107220206,93.50394,,,9914.8354485083,27.559056,27.9170112,140.151579288,143.781500664,18,5,23.815,9914.8354485083,93.50394,27.9170112,140.151579288,-21.25093,18.119214,-0.894776,138.5, -18.3, 16.9,0,0,1684,1024,1195,1162,100,0,26,21,0,0,0,96,3.992,3.975,3.959,3.937,3.954,3.998,0,32,9914.8354485083,93.50394,6,P-GPS,
13800,2023-10-10 21:09:32,38.4979118886179,-112.064097930435,93.50394,,,9914.8354485083,27.559056,27.96175,144.317918004,147.94783938,18,5,23.815,9914.8354485083,93.50394,27.96175,144.317918004,-21.474624,17.89552,-0.894776,140.2, -14.2, 20.8,0,0,1684,1024,1195,1191,100,0,26,25,0,0,0,96,3.992,3.975,3.959,3.937,3.954,3.998,0,32,9914.8354485083,93.50394,6,P-GPS,
13900,2023-10-10 21:09:32,38.4979024073912,-112.064088086179,93.832024,,,9915.1635325083,27.559056,28.0288582,148.77461106,152.405188604,18,5,23.815,9915.1635325083,93.832024,28.0288582,148.77461106,-21.922012,17.448132,-0.894776,142.1, -10.7, 23.4,0,0,1684,1024,1193,1173,100,0,26,23,0,0,0,95,3.992,3.975,3.959,3.937,3.954,3.998,0,32,9915.1635325083,93.832024,6,P-GPS,
14000,2023-10-10 21:09:32,38.4978932612861,-112.064079253887,93.832024,,,9915.1635325083,27.559056,27.96175,152.953088884,156.58793152,18,5,23.815,9915.1635325083,93.832024,28.0288582,152.953088884,-22.3694,16.77705,-0.894776,143.9, -8.4, 24.7,0,0,1684,1024,1194,1186,100,0,26,25,0,0,0,95,3.992,3.975,3.959,3.937,3.954,3.998,0,32,9915.1635325083,93.832024,6,P-GPS,
14100,2023-10-10 21:09:32,38.4978847182901,-112.064071914695,94.160108,,,9915.4916165083,27.559056,27.738056,156.689965644,160.343837152,18,5,23.815,9915.4916165083,94.160108,28.0288582,156.689965644,-22.593094,16.105968,-0.894776,145.1, -7.9, 24.7,0,0,1684,1024,1188,1196,100,0,25,26,0,0,0,95,3.992,3.975,3.959,3.937,3.954,3.998,0,32,9915.4916165083,94.160108,6,P-GPS,
14200,2023-10-10 21:09:32,38.4978754104128,-112.064063963926,94.160108,,,9915.4916165083,27.559056,27.5367314,160.754270236,164.428811036,18,5,23.815,9915.4916165083,94.160108,28.0288582,160.754270236,-22.816788,15.434886,-1.11847,145.7, -8.9, 23.5,0,0,1684,1024,1184,1182,100,0,24,24,0,0,0,95,3.992,3.975,3.959,3.937,3.954,3.998,0,32,9915.4916165083,94.160108,6,P-GPS,
14300,2023-10-10 21:09:32,38.4978660821212,-112.064056506874,93.832024,,,9915.1635325083,27.559056,27.2459292,164.736225744,168.443574944,18,5,23.815,9915.4916165083,94.160108,28.0288582,164.736225744,-23.040482,14.54011,-1.11847,145.6, -11, 21.7,0,0,1684,1024,1190,1175,100,0,25,23,0,0,0,95,3.992,3.975,3.959,3.937,3.954,3.998,0,32,9915.1635325083,93.832024,6,P-GPS,
14400,2023-10-10 21:09:32,38.4978566033264,-112.064049285237,94.160108,,,9915.4916165083,27.559056,27.2011904,168.720149756,172.470149876,18,5,23.815,9915.4916165083,94.160108,28.0288582,168.720149756,-23.264176,14.092722,-1.11847,145.5, -13.4, 19.4,0,0,1684,1024,1177,1150,100,0,23,19,0,0,0,95,3.992,3.975,3.959,3.937,3.954,3.998,0,32,9915.4916165083,94.160108,6,P-GPS,
14500,2023-10-10 21:09:32,38.4978469073055,-112.064042094979,93.832024,,,9915.1635325083,27.559056,27.3577762,172.761816552,176.56004502,18,5,23.815,9915.4916165083,94.160108,28.0288582,172.761816552,-23.711564,13.645334,-1.11847,145.9, -15.2, 15.2,0,0,1684,1024,1162,1073,100,0,21,7,0,0,0,95,3.992,3.975,3.959,3.937,3.954,3.998,0,32,9915.1635325083,93.832024,6,P-GPS,
14600,2023-10-10 21:09:33,38.4978372296778,-112.064035208015,94.160108,,,9915.4916165083,27.559056,27.4472538,176.746396732,180.601711816,18,5,23.815,9915.4916165083,94.160108,28.0288582,176.746396732,-23.935258,13.42164,-1.11847,146.5, -16.2, 10.2,0,0,1684,1024,1157,1024,100,0,20,0,0,0,0,95,3.992,3.975,3.959,3.937,3.954,3.998,0,32,9915.4916165083,94.160108,6,P-GPS,
14700,2023-10-10 21:09:33,38.4978274981718,-112.064028311028,94.160108,,,9915.4916165083,27.559056,27.626209,180.750990036,184.6620794,18,5,23.429,9915.4916165083,94.160108,28.0288582,180.750990036,-24.158952,13.42164,-1.11847,147.3, -18.1, 1.8,0,0,1684,1024,1145,1024,100,0,18,0,0,0,0,95,3.927,3.888,3.912,3.924,3.888,3.89,0,32,9915.4916165083,94.160108,6,P-GPS,
14800,2023-10-10 21:09:33,38.4978177902654,-112.064021339947,94.488192,,,9915.8197005083,27.559056,27.6709478,184.764113524,188.724743572,18,5,23.429,9915.8197005083,94.488192,28.0288582,184.764113524,-23.935258,13.869028,-1.11847,147.6, -21.3, -4.8,0,0,1684,1024,1140,1024,100,0,18,0,0,0,0,95,3.927,3.888,3.912,3.924,3.888,3.89,0,32,9915.8197005083,94.488192,6,P-GPS,
14900,2023-10-10 21:09:33,38.4978082400552,-112.064013750593,94.488192,,,9915.8197005083,27.559056,28.0064888,188.842853812,192.82809016,18,5,23.429,9915.8197005083,94.488192,28.0288582,188.842853812,-23.935258,14.54011,-1.11847,147.5, -24.8, -6.6,0,0,1684,1024,1141,1024,100,0,18,0,0,0,0,95,3.927,3.888,3.912,3.924,3.888,3.89,0,32,9915.8197005083,94.488192,6,P-GPS,
15000,2023-10-10 21:09:33,38.4977986373024,-112.064006040796,94.488192,,,9915.8197005083,27.559056,27.9841194,192.958995676,196.965885568,18,5,23.429,9915.8197005083,94.488192,28.0288582,192.958995676,-23.48787,15.211192,-1.11847,146.3, -26.9, -3.1,0,0,1684,1024,1146,1024,100,0,18,0,0,0,0,95,3.927,3.888,3.912,3.924,3.888,3.89,0,32,9915.8197005083,94.488192,6,P-GPS,
15100,2023-10-10 21:09:33,38.4977888049243,-112.063997996456,94.816276,,,9916.1477845083,27.559056,28.0959664,197.200793712,201.225728224,18,5,23.429,9916.1477845083,94.816276,28.0959664,197.200793712,-23.48787,15.434886,-0.894776,144.7, -26.9, 3.1,0,0,1684,1024,1146,1024,100,0,18,0,0,0,0,95,3.927,3.888,3.912,3.924,3.888,3.89,0,32,9916.1477845083,94.816276,6,P-GPS,
15200,2023-10-10 21:09:33,38.497779030706,-112.063989737054,94.816276,,,9916.1477845083,27.559056,28.5433544,201.464245292,205.500990828,18,5,23.429,9916.1477845083,94.816276,28.5433544,201.464245292,-23.711564,15.882274,-0.671082,143.7, -25.4, 8.4,0,0,1684,1024,1143,1024,100,0,18,0,0,0,0,95,3.927,3.888,3.912,3.924,3.888,3.89,0,32,9916.1477845083,94.816276,6,P-GPS,
15300,2023-10-10 21:09:33,38.4977691267069,-112.063981322065,94.816276,,,9916.1477845083,27.559056,29.0354812,205.792657504,209.840557896,18,5,23.429,9916.1477845083,94.816276,29.0354812,205.792657504,-24.158952,16.105968,-0.447388,143.9, -23.6, 10.8,0,0,1684,1024,1142,1024,100,0,18,0,0,0,0,95,3.927,3.888,3.912,3.924,3.888,3.89,0,32,9916.1477845083,94.816276,6,P-GPS,
15400,2023-10-10 21:09:33,38.4977599503573,-112.063973297814,95.14436,,,9916.4758685083,27.559056,29.0354812,209.843182568,213.89764464,18,5,23.429,9916.4758685083,95.14436,29.0354812,209.843182568,-24.60634,16.105968,-0.447388,144.5, -21.8, 10.9,0,0,1684,1024,1119,1024,100,0,14,0,0,0,0,95,3.927,3.888,3.912,3.924,3.888,3.89,0,32,9916.4758685083,95.14436,6,P-GPS,
15500,2023-10-10 21:09:33,38.4977488814136,-112.063964564564,95.14436,,,9916.4758685083,27.559056,29.5947162,214.564967496,218.644035868,18,5,23.429,9916.4758685083,95.14436,29.5947162,214.564967496,-24.830034,16.105968,-0.447388,145.3, -20.6, 9.4,0,0,1684,1024,1113,1024,100,0,13,0,0,0,0,95,3.927,3.888,3.912,3.924,3.888,3.89,0,32,9916.4758685083,95.14436,6,P-GPS,
15600,2023-10-10 21:09:33,38.4977386314351,-112.063956080995,95.14436,,,9916.4758685083,27.559056,29.5947162,219.006896772,223.099744672,18,5,23.429,9916.4758685083,95.14436,29.5947162,219.006896772,-25.277422,16.329662,-0.447388,145.8, -20.4, 7.3,0,0,1684,1024,1113,1024,100,0,13,0,0,0,0,95,3.927,3.888,3.912,3.924,3.888,3.89,0,32,9916.4758685083,95.14436,6,P-GPS,
15700,2023-10-10 21:09:34,38.4977284280735,-112.063947544208,95.14436,,,9916.4758685083,27.559056,30.086843,223.445217124,227.549547964,18,5,23.429,9916.4758685083,95.14436,30.086843,223.445217124,-25.277422,16.329662,-0.447388,146.1, -21, 5.4,0,0,1684,1024,1091,1024,100,0,10,0,0,0,0,95,3.927,3.888,3.912,3.924,3.888,3.89,0,32,9916.4758685083,95.14436,6,P-GPS,
15800,2023-10-10 21:09:34,38.4977181216477,-112.063938924791,95.14436,,,9916.4758685083,27.559056,30.4000146,227.9281569,232.043642596,18,5,23.388,9916.4758685083,95.14436,30.4000146,227.9281569,-25.501116,16.553356,-0.447388,146.1, -22.2, 4.6,0,0,1684,1024,1086,1024,100,0,9,0,0,0,0,95,3.914,3.895,3.892,3.896,3.872,3.919,0,32,9916.4758685083,95.14436,6,P-GPS,
15900,2023-10-10 21:09:34,38.4977076993474,-112.063930250755,95.14436,,,9916.4758685083,27.559056,30.534231,232.454731848,236.581700484,18,5,23.388,9916.4758685083,95.14436,30.534231,232.454731848,-25.501116,16.77705,-0.447388,145.8, -23.2, 4.7,0,0,1684,1024,1068,1024,100,0,7,0,0,0,0,95,3.914,3.895,3.892,3.896,3.872,3.919,0,32,9916.4758685083,95.14436,6,P-GPS,
16000,2023-10-10 21:09:34,38.4976973142791,-112.063921378331,95.14436,,,9916.4758685083,27.559056,30.9592496,237.004928844,241.139443412,18,5,23.388,9916.4758685083,95.14436,30.9592496,237.004928844,-25.72481,17.224438,-0.447388,145.5, -23.9, 5.7,0,0,1684,1024,1043,1024,100,0,3,0,0,0,0,95,3.914,3.895,3.892,3.896,3.872,3.919,0,32,9916.4758685083,95.14436,6,P-GPS,
16100,2023-10-10 21:09:34,38.4976868805044,-112.063912375311,95.14436,,,9916.4758685083,27.559056,30.9592496,241.592199332,245.732947496,18,5,23.388,9916.4758685083,95.14436,30.9592496,241.592199332,-25.948504,17.448132,-0.223694,145, -24.1, 6.7,0,0,1684,1024,1033,1024,100,0,1,0,0,0,0,95,3.914,3.895,3.892,3.896,3.872,3.919,0,32,9916.4758685083,95.14436,6,P-GPS,
16200,2023-10-10 21:09:34,38.4976772414787,-112.06390397017,95.14436,,,9916.4758685083,27.559056,31.3842682,245.845152224,249.990821648,18,5,23.388,9916.4758685083,95.14436,31.3842682,245.845152224,-25.948504,17.671826,0,144.7, -23.8, 7.9,0,0,1684,1024,1024,1024,100,0,0,0,0,0,0,95,3.914,3.895,3.892,3.896,3.872,3.919,0,32,9916.4758685083,95.14436,6,P-GPS,
16300,2023-10-10 21:09:34,38.497666760539,-112.063894825656,95.14436,,,9916.4758685083,27.559056,31.6974398,250.47080854,254.62107114,18,5,23.388,9916.4758685083,95.14436,31.6974398,250.47080854,-26.172198,17.89552,0,144.7, -23, 8.7,0,0,1684,1024,1024,1024,100,0,0,0,0,0,0,95,3.914,3.895,3.892,3.896,3.872,3.919,0,32,9916.4758685083,95.14436,6,P-GPS,
16400,2023-10-10 21:09:34,38.4976560845684,-112.0638856116,95.14436,,,9916.4758685083,27.559056,31.6974398,255.16569058,259.321530608,18,5,23.388,9916.4758685083,95.14436,31.6974398,255.16569058,-26.172198,17.89552,0,144.8, -22.2, 9.2,0,0,1684,1024,1024,1024,100,0,0,0,0,0,0,95,3.914,3.895,3.892,3.896,3.872,3.919,0,32,9916.4758685083,95.14436,6,P-GPS,
16500,2023-10-10 21:09:34,38.4976437266536,-112.063874804264,95.14436,,,9916.4758685083,27.559056,31.6974398,260.624352172,264.785441544,18,5,23.388,9916.4758685083,95.14436,31.6974398,260.624352172,-26.395892,18.119214,0,144.9, -21.8, 9.3,0,0,1684,1024,1024,1024,100,0,0,0,0,0,0,95,3.914,3.895,3.892,3.896,3.872,3.919,0,32,9916.4758685083,95.14436,6,P-GPS,
16600,2023-10-10 21:09:34,38.4976329137435,-112.063865394707,95.14436,,,9916.4758685083,27.559056,32.211936,265.392725028,269.558407576,18,5,23.388,9916.4758685083,95.14436,32.211936,265.392725028,-26.619586,18.119214,0,145.1, -21.9, 9.2,0,0,1684,1024,1024,1024,100,0,0,0,0,0,0,95,3.914,3.895,3.892,3.896,3.872,3.919,0,32,9916.4758685083,95.14436,6,P-GPS,
16700,2023-10-10 21:09:35,38.4976231936434,-112.06385679074,95.14436,,,9916.4758685083,27.559056,32.211936,269.704404956,273.872712176,18,5,23.388,9916.4758685083,95.14436,32.211936,269.704404956,-26.619586,18.119214,0,145.2, -22.3, 8.9,0,0,1684,1024,1024,1024,100,0,0,0,0,0,0,95,3.914,3.895,3.892,3.896,3.872,3.919,0,32,9916.4758685083,95.14436,6,P-GPS,
16800,2023-10-10 21:09:35,38.4976123886455,-112.063847372474,95.14436,,,9916.4758685083,27.559056,32.5027382,274.472449728,278.64502204,18,5,23.388,9916.4758685083,95.14436,32.5027382,274.472449728,-26.84328,18.342908,0,145.2, -22.7, 8.8,0,0,1684,1024,1024,1024,100,0,0,0,0,0,0,95,3.914,3.895,3.892,3.896,3.872,3.919,0,32,9916.4758685083,95.14436,6,P-GPS,
16900,2023-10-10 21:09:35,38.4976016677021,-112.063837770744,95.14436,,,9916.4758685083,27.559056,32.5027382,279.24705618,283.421596996,18,5,23.388,9916.4758685083,95.14436,32.5027382,279.24705618,-26.84328,18.342908,0,145.2, -22.9, 8.8,0,0,1684,1024,1024,1024,100,0,0,0,0,0,0,95,3.914,3.895,3.892,3.896,3.872,3.919,0,32,9916.4758685083,95.14436,6,P-GPS,
