time(millisecond),datetime(utc),latitude,longitude,height_above_takeoff(feet),height_above_ground_at_drone_location(feet),ground_elevation_at_drone_location(feet),altitude_above_seaLevel(feet),height_sonar(feet),speed(mph),distance(feet),mileage(feet),satellites,gpslevel,voltage(v),max_altitude(feet),max_ascent(feet),max_speed(mph),max_distance(feet), xSpeed(mph), ySpeed(mph), zSpeed(mph), compass_heading(degrees), pitch(degrees), roll(degrees),isPhoto,isVideo,rc_elevator,rc_aileron,rc_throttle,rc_rudder,rc_elevator(percent),rc_aileron(percent),rc_throttle(percent),rc_rudder(percent),gimbal_heading(degrees),gimbal_pitch(degrees),gimbal_roll(degrees),battery_percent,voltageCell1,voltageCell2,voltageCell3,voltageCell4,voltageCell5,voltageCell6,current(A),battery_temperature(f),altitude(feet),ascent(feet),flycStateRaw,flycState,message
0,2023-10-08 21:43:33,38.4982698833558,-112.064352142617,0,Available with any HD 360 subscription,Available with any HD 360 subscription,9821.5373621894,0.656168,0,0,0,16,5,0,9821.5373621894,0,0,0,0,0,0,293.9, 5.2, 1.6,0,0,364,402,364,1656,-100,-94,-100,96,0,0,0,99,,,,,,,0,32,9821.5373621894,0,6,P-GPS,
100,2023-10-08 21:43:34,38.4982698789475,-112.064352138628,0,,,9821.5373621894,0.656168,0,0.0019708169922,0.0019708169922,16,5,0,9821.5373621894,0,0,0.0019708169922,0,0,0,293.9, 5.2, 1.6,0,0,364,400,364,1664,-100,-95,-100,97,0,0,0,99,,,,,,,0,32,9821.5373621894,0,41,Motors_Started,
200,2023-10-08 21:43:34,38.4982698827436,-112.064352142371,0,,,9821.5373621894,0.656168,0,0.000234109915628,0.0037202757096,16,5,0,9821.5373621894,0,0,0.0019708169922,0,0,0,293.9, 5.2, 1.6,0,0,364,371,364,1675,-100,-99,-100,99,0,0,0,99,,,,,,,0,32,9821.5373621894,0,41,Motors_Started,
300,2023-10-08 21:43:34,38.4982698780884,-112.064352138207,0,,,9821.5373621894,0.656168,0,0.00229763130712,0.0057936025476,16,5,0,9821.5373621894,0,0,0.00229763130712,0,0,0,293.9, 5.2, 1.6,0,0,364,364,364,1679,-100,-100,-100,99,0,0,0,99,,,,,,,0,32,9821.5373621894,0,41,Motors_Started,
400,2023-10-08 21:43:34,38.4982698835575,-112.064352142717,0,,,9821.5373621894,0.656168,0,7.8924871292E-5,0.00816847139,16,5,0,9821.5373621894,0,0,0.00229763130712,0,0,0,293.9, 5.2, 1.6,0,0,364,364,364,1679,-100,-100,-100,99,0,0,0,99,,,,,,,0,32,9821.5373621894,0,41,Motors_Started,"Setting new Return-To-Home altitude to 90m (295 ft). Data Recorder File Index is 16. Setting new Maximum Flight Altitude to 120m (394 ft)"
500,2023-10-08 21:43:34,38.4982698787505,-112.064352138279,0,,,9821.5373621894,0.656168,0,0.00208750334764,0.0103322181784,16,5,0,9821.5373621894,0,0,0.00229763130712,0,0,0,293.8, 5.2, 1.6,0,0,364,364,364,1682,-100,-100,-100,100,0,0,0,99,,,,,,,0,32,9821.5373621894,0,41,Motors_Started,
600,2023-10-08 21:43:34,38.4982698822522,-112.064352141762,0,,,9821.5373621894,0.656168,0,0.00047087271848,0.0119513127184,16,5,0,9821.5373621894,0,0,0.00229763130712,0,0,0,293.8, 5.2, 1.6,0,0,364,364,364,1682,-100,-100,-100,100,0,0,0,99,,,,,,,0,32,9821.5373621894,0,41,Motors_Started,
700,2023-10-08 21:43:34,38.498269877022,-112.064352138312,0,,,9821.5373621894,0.656168,0,0.00261739181604,0.014098753732,16,5,0,9821.5373621894,0,0,0.00261739181604,0,0,0,293.8, 5.2, 1.6,0,0,364,364,364,1684,-100,-100,-100,100,0,0,0,99,,,,,,,0,32,9821.5373621894,0,41,Motors_Started,
800,2023-10-08 21:43:34,38.4982698810894,-112.064351979342,0,,,9821.5373621894,0.656168,0,0.0466289385,0.059515421852,16,5,0,9821.5373621894,0,0,0.0466289385,0,0,0,293.9, 5.2, 1.6,0,0,850,978,1011,1284,-26,-7,-2,39,0,0,0,99,,,,,,,0,32,9821.5373621894,0,41,Motors_Started,
900,2023-10-08 21:43:34,38.4982698754163,-112.064351959271,0,,,9821.5373621894,0.656168,0,0.05243274446,0.065608925984,16,5,0,9821.5373621894,0,0,0.05243274446,0,0,0,293.8, 5.2, 1.6,0,0,1024,1024,1024,1024,0,0,0,0,0,0,0,99,,,,,,,0,32,9821.5373621894,0,41,Motors_Started,
1000,2023-10-08 21:43:34,38.4982698770283,-112.064351986389,0,,,9821.5373621894,0.656168,0,0.044669292768,0.07337434618,16,5,0,9821.5373621894,0,0,0.05243274446,0,0,0,293.8, 5.2, 1.6,0,0,1024,1024,1024,1024,0,0,0,0,0,0,0,99,,,,,,,0,32,9821.5373621894,0,41,Motors_Started,
1100,2023-10-08 21:43:35,38.4982698712614,-112.064351970604,0,,,9821.5373621894,0.656168,0,0.04931430604,0.078348427704,16,5,0,9821.5373621894,0,0,0.05243274446,0,0,0,293.8, 5.2, 1.6,0,0,1024,1024,1024,1024,0,0,0,0,0,0,0,99,,,,,,,0,32,9821.5373621894,0,41,Motors_Started,
1200,2023-10-08 21:43:35,38.4982698752858,-112.064351996809,0,,,9821.5373621894,0.656168,0,0.041737862228,0.085973756032,16,5,0,9821.5373621894,0,0,0.05243274446,0,0,0,293.9, 5.2, 1.6,0,0,1024,1024,1024,1024,0,0,0,0,0,0,0,99,,,,,,,0,32,9821.5373621894,0,41,Motors_Started,
1300,2023-10-08 21:43:35,38.4982698680775,-112.064351982132,0,,,9821.5373621894,0.656168,0,0.046162731136,0.090921590836,16,5,0,9821.5373621894,0,0,0.05243274446,0,0,0,293.9, 5.2, 1.6,0,0,1024,1024,1024,1024,0,0,0,0,0,0,0,99,,,,,,,0,32,9821.5373621894,0,41,Motors_Started,
1400,2023-10-08 21:43:35,38.4982700382485,-112.064352005112,0,,,9821.5373621894,0.656168,0,0.068813322412,0.153354335616,16,5,0,9821.5373621894,0,0,0.068813322412,0,0,0,293.9, 5.2, 1.6,0,0,1024,1024,1024,1024,0,0,0,0,0,0,0,99,,,,,,,0,32,9821.5373621894,0,41,Motors_Started,
1500,2023-10-08 21:43:35,38.4982700437036,-112.06435199187,0,,,9821.5373621894,0.656168,0,0.072631892088,0.157627301632,16,5,0,9821.5373621894,0,0,0.072631892088,0,0,0,293.9, 5.2, 1.6,0,0,1024,1024,1024,1024,0,0,0,0,0,0,0,99,,,,,,,0,32,9821.5373621894,0,41,Motors_Started,
1600,2023-10-08 21:43:35,38.4982698660283,-112.064352013754,0,,,9821.5373621894,0.656168,0,0.037334974948,0.2227526318,16,5,0,9821.5373621894,0,0,0.072631892088,0,0,0,293.9, 5.2, 1.6,0,0,1024,1024,1024,1024,0,0,0,0,0,0,0,99,,,,,,,0,32,9821.5373621894,0,41,Motors_Started,
1700,2023-10-08 21:43:35,38.4982698557761,-112.064352003553,0,,,9821.5373621894,0.656168,0,0.040963583988,0.2274934456,16,5,0,9821.5373621894,0,0,0.072631892088,0,0,0,293.9, 5.2, 1.6,0,0,1024,1024,1024,1024,0,0,0,0,0,0,0,99,,,,,,,0,32,9821.5373621894,0,41,Motors_Started,
1800,2023-10-08 21:43:35,38.4982700279267,-112.064352017913,0,,,9821.5373621894,0.656168,0,0.063640750068,0.290436032916,16,5,0,9821.5373621894,0,0,0.072631892088,0,0,0,293.9, 5.2, 1.6,0,0,1024,1024,1024,1024,0,0,0,0,0,0,0,99,,,,,,,0,32,9821.5373621894,0,41,Motors_Started,
1900,2023-10-08 21:43:35,38.4982700331982,-112.064352007552,0,,,9821.5373621894,0.656168,0,0.066904201616,0.293964576336,16,5,0,9821.5373621894,0,0,0.072631892088,0,0,0,293.9, 5.2, 1.6,0,0,1024,1024,1024,1024,0,0,0,0,0,0,0,99,,,,,,,0,32,9821.5373621894,0,41,Motors_Started,
2000,2023-10-08 21:43:35,38.4982700231521,-112.064352026287,0,,,9821.5373621894,0.656168,0,0.060867456016,0.30044948468,16,5,0,9821.5373621894,0,0,0.072631892088,0,0,0,293.9, 5.2, 1.6,0,0,1024,1024,1024,1024,0,0,0,0,0,0,0,99,,,,,,,0,32,9821.5373621894,0,41,Motors_Started,
2100,2023-10-08 21:43:36,38.4982700275623,-112.064352021102,0,,,9821.5373621894,0.656168,0,0.063024608316,0.30263616454,16,5,0,9821.5373621894,0,0,0.072631892088,0,0,0,293.9, 5.2, 1.6,0,0,1024,1024,1024,1024,0,0,0,0,0,0,0,99,,,,,,,0,32,9821.5373621894,0,10,Assisted_Takeoff,
2200,2023-10-08 21:43:36,38.4982700167688,-112.064352039453,0,,,9821.5373621894,0.656168,0,0.056895343028,0.309190626692,16,5,0,9821.5373621894,0,0,0.072631892088,0,0,0,293.9, 5.2, 1.6,0,0,1024,1024,1024,1024,0,0,0,0,0,0,0,99,,,,,,,0,32,9821.5373621894,0,10,Assisted_Takeoff,
2300,2023-10-08 21:43:36,38.4982700200656,-112.064352034963,0,,,9821.5373621894,0.656168,0,0.058589896888,0.310948500764,16,5,0,9821.5373621894,0,0,0.072631892088,0,0,0,293.9, 5.2, 1.6,0,0,1024,1024,1024,1024,0,0,0,0,0,0,0,99,,,,,,,0,32,9821.5373621894,0,10,Assisted_Takeoff,
2400,2023-10-08 21:43:36,38.4982700080163,-112.064352045494,0,,,9821.5373621894,0.656168,0,0.053270342912,0.31627461642,16,5,0,9821.5373621894,0,0,0.072631892088,0,0,0,293.9, 5.2, 1.6,0,0,1024,1024,1024,1024,0,0,0,0,0,0,0,99,,,,,,,0,32,9821.5373621894,0,10,Assisted_Takeoff,
2500,2023-10-08 21:43:36,38.4982700084565,-112.06435204406,0,,,9821.5373621894,0.656168,0,0.053621392792,0.316714577064,16,5,0,9821.5373621894,0,0,0.072631892088,0,0,0,293.9, 5.2, 1.6,0,0,1024,1024,1024,1024,0,0,0,0,0,0,0,99,,,,,,,0,32,9821.5373621894,0,10,Assisted_Takeoff,
2600,2023-10-08 21:43:36,38.4982700034995,-112.064352216823,0,,,9821.5373621894,0.656168,0,0.048687009432,0.36607940804,16,5,0,9821.5373621894,0,0,0.072631892088,0,0,0,293.9, 5.2, 1.6,0,0,1024,1024,1024,1024,0,0,0,0,0,0,0,99,,,,,,,0,32,9821.5373621894,0,10,Assisted_Takeoff,
2700,2023-10-08 21:43:36,38.4982700034916,-112.064352230962,0,,,9821.5373621894,0.656168,0,0.050572180096,0.37011484124,16,5,0,9821.5373621894,0,0,0.072631892088,0,0,0,293.9, 5.2, 1.6,0,0,1024,1024,1024,1024,0,0,0,0,0,0,0,99,,,,,,,0,32,9821.5373621894,0,10,Assisted_Takeoff,
2800,2023-10-08 21:43:36,38.4982699987862,-112.064352049146,0,,,9821.5373621894,0.656168,0,0.049859909732,0.42206038096,16,5,0,9821.5373621894,0,0,0.072631892088,0,0,0,293.9, 5.2, 1.6,0,0,1024,1024,1024,1024,0,0,0,0,0,0,0,99,,,,,,,0,32,9821.5373621894,0,10,Assisted_Takeoff,
2900,2023-10-08 21:43:36,38.4982699987141,-112.064352048039,0,,,9821.5373621894,0.656168,0,0.050007547532,0.42237862244,16,5,0,9821.5373621894,0,0,0.072631892088,0,0,0,293.9, 5.2, 1.6,0,0,1024,1024,1024,1024,0,0,0,0,0,0,0,99,,,,,,,0,32,9821.5373621894,0,10,Assisted_Takeoff,
3000,2023-10-08 21:43:36,38.4982699996907,-112.064352212014,0,,,9821.5373621894,0.656168,0,0.046842521184,0.46919949008,16,5,0,9821.5373621894,0,0,0.072631892088,0,0,0,293.8, 5.2, 1.6,0,0,1024,1024,1024,1024,0,0,0,0,0,0,0,99,,,,,,,0,32,9821.5373621894,0,10,Assisted_Takeoff,
3100,2023-10-08 21:43:37,38.4982700005712,-112.064352226299,0,,,9821.5373621894,0.656168,0,0.048988518628,0.47329069756,16,5,0,9821.5373621894,0,0,0.072631892088,0,0,0,293.8, 5.2, 1.6,0,0,1024,1024,1024,1024,0,0,0,0,0,0,0,99,,,,,,,0,32,9821.5373621894,0,10,Assisted_Takeoff,
3200,2023-10-08 21:43:37,38.4982699997501,-112.064352206615,0,,,9821.5373621894,0.656168,0,0.046231300692,0.478920619,16,5,0,9821.5373621894,0,0,0.072631892088,0,0,0,293.9, 5.1, 1.6,0,0,1024,1024,1024,1024,0,0,0,0,0,0,0,99,,,,,,,0,32,9821.5373621894,0,10,Assisted_Takeoff,
3300,2023-10-08 21:43:37,38.4982700003487,-112.064352219821,0,,,9821.5373621894,0.656168,0,0.04804134012,0.48269686584,16,5,0,9821.5373621894,0,0,0.072631892088,0,0,0,293.9, 5.1, 1.6,0,0,1024,1024,1024,1024,0,0,0,0,0,0,0,99,,,,,,,0,32,9821.5373621894,0,10,Assisted_Takeoff,
3400,2023-10-08 21:43:37,38.498270000804,-112.06435219934,0,,,9821.5373621894,0.656168,0,0.045809712752,0.48854660356,16,5,0,9821.5373621894,0,0,0.072631892088,0,0,0,293.8, 5.1, 1.7,0,0,1024,1024,1024,1024,0,0,0,0,0,0,0,99,,,,,,,0,32,9821.5373621894,0,10,Assisted_Takeoff,
3500,2023-10-08 21:43:37,38.4982700032738,-112.064352209982,0,,,9821.5373621894,0.656168,0,0.0477936367,0.491715895,16,5,0,9821.5373621894,0,0,0.072631892088,0,0,0,293.8, 5.1, 1.7,0,0,1024,1024,1024,1024,0,0,0,0,0,0,0,99,,,,,,,0,32,9821.5373621894,0,10,Assisted_Takeoff,
3600,2023-10-08 21:43:37,38.4982700002706,-112.064352191868,0,,,9821.5373621894,0.656168,0,0.0449146996,0.49700460908,16,5,0,9821.5373621894,0,0,0.072631892088,0,0,0,293.9, 5.1, 1.6,0,0,1024,1024,1024,1024,0,0,0,0,0,0,0,99,,,,,,,0,32,9821.5373621894,0,10,Assisted_Takeoff,
3700,2023-10-08 21:43:37,38.4982700011563,-112.064352201373,0,,,9821.5373621894,0.656168,0,0.046138124836,0.4997375488,16,5,0,9821.5373621894,0,0,0.072631892088,0,0,0,293.9, 5.1, 1.6,0,0,1024,1024,1024,1024,0,0,0,0,0,0,0,99,,,,,,,0,32,9821.5373621894,0,10,Assisted_Takeoff,
3800,2023-10-08 21:43:37,38.4982700043664,-112.064352185167,0,,,9821.5373621894,0.656168,0,0.045791996216,0.504511171,16,5,0,9821.5373621894,0,0,0.072631892088,0,0,0,293.8, 5.1, 1.7,0,0,1024,1024,1024,1024,0,0,0,0,0,0,0,99,,,,,,,0,32,9821.5373621894,0,10,Assisted_Takeoff,
3900,2023-10-08 21:43:37,38.4982700057344,-112.06435219298,0,,,9821.5373621894,0.656168,0,0.046908466068,0.50679791648,16,5,0,9821.5373621894,0,0,0.072631892088,0,0,0,293.9, 5.1, 1.7,0,0,1024,1024,1039,1024,0,0,2,0,0,0,0,99,,,,,,,0,32,9821.5373621894,0,10,Assisted_Takeoff,
4000,2023-10-08 21:43:37,38.498270000593,-112.064352179437,0,,,9821.5373621894,0.656168,0,0.044047245504,0.51109581688,16,5,0,9821.5373621894,0,0,0.072631892088,0,0,0,293.9, 5.1, 1.6,0,0,1024,1024,1052,1024,0,0,4,0,0,0,0,99,,,,,,,0,32,9821.5373621894,0,10,Assisted_Takeoff,
4100,2023-10-08 21:43:38,38.4982700052729,-112.064352184118,0,,,9821.5373621894,0.656168,0,0.046032809872,0.51326445212,16,5,0,9821.5373621894,0,0,0.072631892088,0,0,0,293.8, 5.1, 1.7,0,0,1024,1024,1058,1024,0,0,5,0,0,0,0,99,,,,,,,0,32,9821.5373621894,0,10,Assisted_Takeoff,
4200,2023-10-08 21:43:38,38.4982700061771,-112.064352167361,0,,,9821.5373621894,0.656168,0,0.045364830848,0.51805775936,16,5,0,9821.5373621894,0,0,0.072631892088,0,0,0,293.8, 5.1, 1.7,0,0,1024,1024,1058,1024,0,0,5,0,0,0,0,99,,,,,,,0,32,9821.5373621894,0,10,Assisted_Takeoff,
4300,2023-10-08 21:43:38,38.4982700082997,-112.064352171345,0,,,9821.5373621894,0.656168,0,0.046317914868,0.51943571216,16,5,0,9821.5373621894,0,0,0.072631892088,0,0,0,293.9, 5.1, 1.6,0,0,1024,1024,1073,1024,0,0,7,0,0,0,0,99,,,,,,,0,32,9821.5373621894,0,10,Assisted_Takeoff,
4400,2023-10-08 21:43:38,38.4982700081686,-112.064352162977,0,,,9821.5373621894,0.656168,0,0.045907481784,0.52182416368,16,5,0,9821.5373621894,0,0,0.072631892088,0,0,0,293.8, 5.1, 1.6,0,0,1024,1024,1145,1024,0,0,18,0,0,0,0,99,,,,,,,0,32,9821.5373621894,0,10,Assisted_Takeoff,
4500,2023-10-08 21:43:38,38.4982700122807,-112.064352165468,0,,,9821.5373621894,0.656168,0,0.04748851858,0.52348426872,16,5,0,9821.5373621894,0,0,0.072631892088,0,0,0,293.8, 5.1, 1.7,0,0,1024,1024,1174,1024,0,0,23,0,0,0,0,99,,,,,,,0,32,9821.5373621894,0,10,Assisted_Takeoff,
4600,2023-10-08 21:43:38,38.4982700035318,-112.064352157022,0,,,9821.5373621894,0.656168,0,0.04403871532,0.52748689352,16,5,0,9821.5373621894,0,0,0.072631892088,0,0,0,293.8, 5.1, 1.7,0,0,1024,1024,1245,1024,0,0,33,0,0,0,0,99,,,,,,,0,32,9821.5373621894,0,10,Assisted_Takeoff,
4700,2023-10-08 21:43:38,38.4982700062399,-112.064352159124,0,,,9821.5373621894,0.656168,0,0.045081366272,0.5286417492,16,5,0,9821.5373621894,0,0,0.072631892088,0,0,0,293.8, 5.1, 1.7,0,0,1024,1024,1302,1024,0,0,42,0,0,0,0,99,,,,,,,0,32,9821.5373621894,0,10,Assisted_Takeoff,
4800,2023-10-08 21:43:38,38.4982700021353,-112.064352154278,0,,,9821.5373621894,0.656168,0,0.043464240236,0.53068243168,16,5,0,9821.5373621894,0,0,0.072631892088,0,0,0,293.8, 5.1, 1.6,0,0,1024,1024,1430,1024,0,0,62,0,0,0,0,99,,,,,,,0,32,9821.5373621894,0,10,Assisted_Takeoff,
4900,2023-10-08 21:43:38,38.4982700026855,-112.064352149648,0,,,9821.5373621894,0.656168,0,0.043583662812,0.53201773356,16,5,0,9821.5373621894,0,0,0.072631892088,0,0,0,293.8, 5.2, 1.7,0,0,1024,1024,1430,1024,0,0,62,0,0,0,0,99,,,,,,,0,32,9821.5373621894,0,10,Assisted_Takeoff,
5000,2023-10-08 21:43:38,38.4982699954798,-112.06435214648,0,,,9821.5373621894,0.656168,0,0.040923229656,0.53479988588,16,5,0,9821.5373621894,0,0,0.072631892088,0,0,0,293.8, 5.2, 1.7,0,0,1024,1024,1473,1024,0,0,68,0,0,0,0,99,,,,,,,0,32,9821.5373621894,0,10,Assisted_Takeoff,
5100,2023-10-08 21:43:39,38.4982699966957,-112.064352143626,0,,,9821.5373621894,0.656168,0,0.041353019696,0.5357283636,16,5,0,9821.5373621894,0,0,0.072631892088,0,0,0,293.8, 5.2, 1.7,0,0,1024,1024,1496,1024,0,0,72,0,0,0,0,99,,,,,,,0,32,9821.5373621894,0,10,Assisted_Takeoff,
5200,2023-10-08 21:43:39,38.4982699927002,-112.064352297063,0,,,9821.5373621894,0.656168,0,0.059467849672,0.57956366684,16,5,0,9821.5373621894,0,0,0.072631892088,0,0,0,293.8, 5.3, 1.7,0,0,1024,1024,1511,1024,0,0,74,0,0,0,0,99,,,,,,,0,32,9821.5373621894,0,10,Assisted_Takeoff,
5300,2023-10-08 21:43:39,38.4982699906708,-112.06435229587,0,,,9821.5373621894,0.656168,0,0.058719161984,0.580380596,16,5,0,9821.5373621894,0,0,0.072631892088,0,0,0,293.8, 5.6, 1.8,0,0,1024,1024,1528,1024,0,0,76,0,0,0,0,99,,,,,,,0,32,9821.5373621894,0,10,Assisted_Takeoff,
5400,2023-10-08 21:43:39,38.4982699832685,-112.064352233842,0,,,9821.5373621894,0.656168,0,0.044803479124,0.5982939824,16,5,0,9821.5373621894,0,0,0.072631892088,0,0,0,293.9, 6.2, 1.9,0,0,1024,1024,1583,1024,0,0,85,0,0,0,0,99,,,,,,,0,32,9821.5373621894,0,10,Assisted_Takeoff,
5500,2023-10-08 21:43:39,38.4982699627269,-112.064352173888,0,,,9821.5373621894,0.656168,0,0.0303039051692,0.61698164704,16,5,0,9821.5373621894,0,0,0.072631892088,0,0,0,293.9, 7.5, 2,0,0,1024,1024,1602,1024,0,0,88,0,0,0,0,99,,,,,,,0,32,9821.5373621894,0,10,Assisted_Takeoff,
5600,2023-10-08 21:43:39,38.498269927067,-112.064351865672,0,,,9821.5373621894,0.656168,0.223694,0.080671262424,0.70594818532,16,5,0,9821.5373621894,0,0.223694,0.080671262424,0,0.223694,0,293.8, 9, 2.2,0,0,1024,1024,1628,1024,0,0,92,0,0,0,0,99,,,,,,,0,32,9821.5373621894,0,10,Assisted_Takeoff,
5700,2023-10-08 21:43:39,38.4982698638102,-112.064351590139,0,,,9821.5373621894,0.656168,0.447388,0.157916015552,0.78793965776,16,5,0,9821.5373621894,0,0.447388,0.157916015552,0,0.447388,0,293.4, 10.2, 2.8,0,0,1024,1024,1657,1024,0,0,96,0,0,0,0,99,,,,,,,0,32,9821.5373621894,0,10,Assisted_Takeoff,
5800,2023-10-08 21:43:39,38.4982697706725,-112.064351176291,0,,,9821.5373621894,0.656168,0.9171454,0.278971793704,0.91089897928,16,5,0,9821.5373621894,0,0.9171454,0.278971793704,-0.223694,0.894776,-0.223694,292.7, 10.8, 3.2,0,0,1024,1024,1684,1024,0,0,100,0,0,0,0,99,,,,,,,0,32,9821.5373621894,0,6,P-GPS,
5900,2023-10-08 21:43:39,38.4982696384695,-112.064350471388,0,,,9821.5373621894,0.984252,1.3645334,0.48549542236,1.11787733236,16,5,0,9821.5373621894,0,1.3645334,0.48549542236,-0.223694,1.342164,-0.671082,292.1, 8.2, 3.3,0,0,1024,1024,1684,1024,0,0,100,0,0,0,0,99,,,,,,,0,32,9821.5373621894,0,6,P-GPS,
6000,2023-10-08 21:43:39,38.498269544568,-112.06434943964,0,,,9821.5373621894,0.984252,1.3645334,0.78164700664,1.4144685492,16,5,0,9821.5373621894,0,1.3645334,0.78164700664,-0.223694,1.789552,-1.11847,291.7, 2.7, 1.8,0,0,1024,1024,1684,1024,0,0,100,0,0,0,0,99,,,,,,,0,32,9821.5373621894,0,6,P-GPS,
6100,2023-10-08 21:43:40,38.4982694120863,-112.064348428156,0.328084,,,9821.8654461894,1.312336,1.8119214,1.07447838084,1.70730320424,16,5,0,9821.8654461894,0.328084,1.8119214,1.07447838084,-0.223694,1.789552,-1.342164,291.5, -3.7, -0.1,0,0,1024,1024,1684,1024,0,0,100,0,0,0,0,99,,,,,,,0,32,9821.8654461894,0.328084,6,P-GPS,
6200,2023-10-08 21:43:40,38.4982692495555,-112.064347477519,0.656168,,,9822.1935301894,1.64042,1.8119214,1.35199807476,1.98515098216,16,5,0,9822.1935301894,0.656168,1.8119214,1.35199807476,-0.223694,1.565858,-1.789552,291.5, -8.5, -1.9,0,0,1024,1024,1684,1024,0,0,100,0,0,0,0,99,,,,,,,0,32,9822.1935301894,0.656168,6,P-GPS,
6300,2023-10-08 21:43:40,38.4982691258555,-112.064346746899,0.984252,,,9822.5216141894,1.968504,1.1408394,1.56529204484,2.19859915172,16,5,0,9822.5216141894,0.984252,1.8119214,1.56529204484,-0.223694,1.11847,-2.23694,291.4, -10.4, -2.4,0,0,1024,1024,1684,1024,0,0,100,0,0,0,0,99,,,,,,,0,32,9822.5216141894,0.984252,6,P-GPS,
6400,2023-10-08 21:43:40,38.4982688426093,-112.06434610026,1.312336,,,9822.8496981894,2.296588,1.1408394,1.76663063396,2.41019364668,16,5,0,9822.8496981894,1.312336,1.8119214,1.76663063396,-0.223694,0.671082,-2.684328,291.2, -9, -1.6,0,0,1024,1024,1684,1024,0,0,100,0,0,0,0,99,,,,,,,0,32,9822.8496981894,1.312336,6,P-GPS,
6500,2023-10-08 21:43:40,38.4982687336485,-112.06434587033,1.64042,,,9823.1777821894,2.952756,0.223694,1.83946200112,2.48694561764,16,5,0,9823.1777821894,1.64042,1.8119214,1.83946200112,0,0.223694,-3.131716,291, -5.3, 0,0,0,1024,1024,1684,1024,0,0,100,0,0,0,0,99,,,,,,,0,32,9823.1777821894,1.64042,6,P-GPS,
6600,2023-10-08 21:43:40,38.4982689194705,-112.064346094346,2.296588,,,9823.8339501894,3.28084,0,1.76247052884,2.58015756288,16,5,0,9823.8339501894,2.296588,1.8119214,1.83946200112,0,0,-3.802798,290.9, -0.2, 1.6,0,0,1024,1024,1684,1024,0,0,100,0,0,0,0,99,,,,,,,0,32,9823.8339501894,2.296588,6,P-GPS,
6700,2023-10-08 21:43:40,38.4982688708103,-112.064345999849,2.952756,,,9824.4901181894,3.937008,0,1.79249349568,2.61245743268,16,5,0,9824.4901181894,2.952756,1.8119214,1.83946200112,0,0,-4.250186,291, 3, 2.1,0,0,1024,1024,1684,1024,0,0,100,0,0,0,0,99,,,,,,,0,32,9824.4901181894,2.952756,6,P-GPS,
6800,2023-10-08 21:43:40,38.4982689998125,-112.064345800386,3.608924,,,9825.1462861894,4.593176,0.223694,1.83943247356,2.68634194948,16,5,0,9825.1462861894,3.608924,1.8119214,1.83946200112,0,0.223694,-4.921268,291.2, 4.1, 1.6,0,0,1024,1024,1684,1009,0,0,100,-2,0,0,0,99,,,,,,,0,32,9825.1462861894,3.608924,6,P-GPS,
6900,2023-10-08 21:43:40,38.4982689458111,-112.064345449726,4.593176,,,9826.1305381894,5.249344,0.447388,1.94146659756,2.78838919684,16,5,0,9826.1305381894,4.593176,1.8119214,1.94146659756,0,0.447388,-5.59235,291.3, 2.4, 0.6,0,0,1024,1024,1684,958,0,0,100,-10,0,0,0,99,,,,,,,0,32,9826.1305381894,4.593176,6,P-GPS,
7000,2023-10-08 21:43:40,38.4982685979953,-112.064345093173,5.577428,,,9827.1147901894,6.233596,0.447388,2.06681108976,2.9510827716,16,5,0,9827.1147901894,5.577428,1.8119214,2.06681108976,-0.223694,0.671082,-6.263432,291.3, -1, -0.1,0,0,1024,1024,1684,944,0,0,100,-12,0,0,0,99,,,,,,,0,32,9827.1147901894,5.577428,6,P-GPS,
7100,2023-10-08 21:43:41,38.4982684767396,-112.064344685719,6.56168,,,9828.0990421894,7.217848,0.7158208,2.1902231672,3.07555456036,16,5,0,9828.0990421894,6.56168,1.8119214,2.1902231672,-0.223694,0.671082,-6.934514,290.7, -4.2, -0.3,0,0,1024,1024,1684,683,0,0,100,-52,0,0,0,99,,,,,,,0,32,9828.0990421894,6.56168,6,P-GPS,
7200,2023-10-08 21:43:41,38.498268393533,-112.06434392833,7.545932,,,9829.0832941894,8.2021,0.4921268,2.40767396156,3.2939305516,16,5,0,9829.0832941894,7.545932,1.8119214,2.40767396156,-0.223694,0.447388,-7.82929,289.6, -5.7, 0,0,0,1024,1024,1684,598,0,0,100,-65,0,0,0,99,,,,,,,0,32,9829.0832941894,7.545932,6,P-GPS,
7300,2023-10-08 21:43:41,38.4982682907226,-112.064343752999,8.858268,,,9830.3956301894,9.186352,0,2.46504601064,3.3564961704,16,5,0,9830.3956301894,8.858268,1.8119214,2.46504601064,0,0,-8.500372,287.6, -5.1, 0.6,0,0,1024,1024,1684,482,0,0,100,-82,0,0,0,99,,,,,,,0,32,9830.3956301894,8.858268,6,P-GPS,
7400,2023-10-08 21:43:41,38.4982683179461,-112.064343705621,10.170604,,,9831.7079661894,10.498688,0,2.47588262516,3.3732940712,16,5,0,9831.7079661894,10.170604,1.8119214,2.47588262516,0,0,-9.171454,284.1, -2.9, 1.5,0,0,1024,1024,1684,432,0,0,100,-90,0,0,0,99,,,,,,,0,32,9831.7079661894,10.170604,6,P-GPS,
7500,2023-10-08 21:43:41,38.4982682501764,-112.064343732627,11.48294,,,9833.0203021894,11.48294,0,2.47421923928,3.3991798988,16,5,0,9833.0203021894,11.48294,1.8119214,2.47588262516,0,0,-9.842536,279, -0.2, 2.2,0,0,1024,1024,1684,386,0,0,100,-97,0,0,0,99,,,,,,,0,32,9833.0203021894,11.48294,6,P-GPS,
7600,2023-10-08 21:43:41,38.4982680753491,-112.064343999883,13.12336,,,9834.6607221894,12.795276,0,2.4168471902,3.4986549676,16,5,0,9834.6607221894,13.12336,1.8119214,2.47588262516,0,0,-10.289924,272.6, 1.9, 2.2,0,0,1024,1024,1684,386,0,0,100,-97,0,0,0,99,,,,,,,0,32,9834.6607221894,13.12336,6,P-GPS,
7700,2023-10-08 21:43:41,38.4982680213055,-112.064343947869,14.76378,,,9836.3011421894,14.107612,0,2.4365650386,3.5233268844,16,5,0,9836.3011421894,14.76378,1.8119214,2.47588262516,0,0,-10.737312,265.2, 2.3, 1.7,0,0,1024,1024,1679,368,0,0,99,-99,0,0,0,99,,,,,,,0,32,9836.3011421894,14.76378,6,P-GPS,
7800,2023-10-08 21:43:41,38.4982678794848,-112.064343993959,16.4042,,,9837.9415621894,15.748032,0.223694,2.43893708592,3.5767061512,16,5,0,9837.9415621894,16.4042,1.8119214,2.47588262516,0,0.223694,-11.1847,257.1, 1, 1.7,0,0,1024,1024,1676,364,0,0,99,-100,0,0,0,99,,,,,,,0,32,9837.9415621894,16.4042,6,P-GPS,
7900,2023-10-08 21:43:41,38.4982678395403,-112.064343839182,18.04462,,,9839.5819821894,17.060368,0.223694,2.48546923964,3.6232612708,16,5,0,9839.5819821894,18.04462,1.8119214,2.48546923964,0,0.223694,-11.408394,248.4, -0.9, 2.5,0,0,1024,1024,1671,364,0,0,98,-100,0,0,0,99,,,,,,,0,32,9839.5819821894,18.04462,6,P-GPS,
8000,2023-10-08 21:43:41,38.4982681018179,-112.064343767197,19.68504,,,9841.2224021894,18.700788,0.223694,2.47828420004,3.721128728,16,5,0,9841.2224021894,19.68504,1.8119214,2.48546923964,0,0.223694,-11.632088,239.3, -2.5, 3.4,0,0,1024,1024,1662,370,0,0,97,-99,0,0,0,99,,,,,,,0,32,9841.2224021894,19.68504,6,P-GPS,
8100,2023-10-08 21:43:42,38.4982681198547,-112.064343687462,21.32546,,,9842.8628221894,20.341208,0,2.4985565104,3.7448163928,16,5,0,9842.8628221894,21.32546,1.8119214,2.4985565104,0,0,-11.632088,230, -3.2, 4,0,0,1024,1024,1615,364,0,0,90,-100,0,0,0,99,,,,,,,0,32,9842.8628221894,21.32546,6,P-GPS,
8200,2023-10-08 21:43:42,38.4982682728576,-112.064343476925,22.96588,,,9844.5032421894,21.981628,0,2.54321858532,3.8268702012,16,5,0,9844.5032421894,22.96588,1.8119214,2.54321858532,0,0,-11.632088,221.1, -3, 3.4,0,0,1024,1024,1599,367,0,0,87,-100,0,0,0,99,,,,,,,0,32,9844.5032421894,22.96588,6,P-GPS,
8300,2023-10-08 21:43:42,38.4982682997368,-112.064343536943,24.934384,,,9846.4717461894,23.293964,0,2.52428485768,3.846620858,16,5,0,9846.4717461894,24.934384,1.8119214,2.54321858532,0,0,-11.632088,212.1, -2.6, 1.8,0,0,1024,1024,1557,423,0,0,81,-91,0,0,0,99,,,,,,,0,32,9846.4717461894,24.934384,6,P-GPS,
8400,2023-10-08 21:43:42,38.4982682528624,-112.064343314504,26.574804,,,9848.1121661894,24.934384,0,2.59002961044,3.9124017,16,5,0,9848.1121661894,26.574804,1.8119214,2.59002961044,0,0,-11.1847,203.2, -2, 0.2,0,0,1180,1024,1514,464,24,0,74,-85,0,0,0,99,,,,,,,0,32,9848.1121661894,26.574804,6,P-GPS,
8500,2023-10-08 21:43:42,38.4982682095341,-112.064343385139,28.215224,,,9849.7525861894,26.574804,0,2.57411097476,3.9380250604,16,5,0,9849.7525861894,28.215224,1.8119214,2.59002961044,0,0,-10.961006,194.5, -1.2, -0.5,0,0,1463,1024,1404,613,67,0,58,-62,0,0,0,99,,,,,,,0,32,9849.7525861894,28.215224,6,P-GPS,
8600,2023-10-08 21:43:42,38.4982679375066,-112.064343406446,29.52756,,,9851.0649221894,27.559056,0.223694,2.59359260268,4.0374673208,16,5,0,9851.0649221894,29.52756,1.8119214,2.59359260268,-0.223694,0,-10.289924,186.7, -0.6, -0.8,0,0,1629,1024,1300,836,92,0,42,-28,0,0,0,99,,,,,,,0,32,9851.0649221894,29.52756,6,P-GPS,
8700,2023-10-08 21:43:42,38.498267841535,-112.064343443475,31.16798,,,9852.7053421894,27.559056,0.223694,2.59326451868,4.0740158784,16,5,0,9852.7053421894,31.16798,1.8119214,2.59359260268,-0.223694,0,-9.842536,180.1, -0.9, -0.6,0,0,1684,1024,1289,860,100,0,40,-25,0,0,0,99,,,,,,,0,32,9852.7053421894,31.16798,6,P-GPS,
8800,2023-10-08 21:43:42,38.4982674668604,-112.064343309545,32.480316,,,9854.0176781894,27.559056,0.223694,2.67186032172,4.2159778252,16,5,0,9854.0176781894,32.480316,1.8119214,2.67186032172,-0.223694,0,-9.171454,175.3, -2.2, 0,0,0,1684,1024,1291,879,100,0,40,-22,0,0,0,99,,,,,,,0,32,9854.0176781894,32.480316,6,P-GPS,
8900,2023-10-08 21:43:42,38.4982673209377,-112.064343304011,33.792652,,,9855.3300141894,27.559056,0.223694,2.69137803888,4.2692258584,16,5,0,9855.3300141894,33.792652,1.8119214,2.69137803888,-0.223694,0,-8.500372,172.4, -5.6, 0.7,0,0,1684,1024,1304,865,100,0,42,-24,0,0,0,99,,,,,,,0,32,9855.3300141894,33.792652,6,P-GPS,
9000,2023-10-08 21:43:42,38.4982671977773,-112.06434295729,35.104988,,,9856.6423501894,27.559056,0.447388,2.7998360476,4.377952896,16,5,0,9856.6423501894,35.104988,1.8119214,2.7998360476,-0.447388,0,-7.82929,170.4, -10.4, 0.8,0,0,1684,1024,1307,867,100,0,43,-24,0,0,0,99,,,,,,,0,32,9856.6423501894,35.104988,6,P-GPS,
9100,2023-10-08 21:43:43,38.4982669023808,-112.064342889359,36.08924,,,9857.6266021894,27.559056,0.671082,2.85727699432,4.4874673352,16,5,0,9857.6266021894,36.08924,1.8119214,2.85727699432,-0.671082,0,-6.934514,168.9, -15, 0.5,0,0,1684,1024,1299,896,100,0,42,-19,0,0,0,99,,,,,,,0,32,9857.6266021894,36.08924,6,P-GPS,
9200,2023-10-08 21:43:43,38.4982662429563,-112.064342689868,37.073492,,,9858.6108541894,27.559056,1.1408394,3.00823828524,4.7347114376,16,5,0,9858.6108541894,37.073492,1.8119214,3.00823828524,-1.11847,0.223694,-6.039738,167.5, -18.7, 0.1,0,0,1684,1024,1211,1024,100,0,28,0,0,0,0,99,,,,,,,0,32,9858.6108541894,37.073492,6,P-GPS,
9300,2023-10-08 21:43:43,38.4982655975904,-112.064342494304,38.057744,,,9859.5951061894,27.559056,1.5882274,3.16780521948,4.976706196,16,5,0,9859.5951061894,38.057744,1.8119214,3.16780521948,-1.565858,0.223694,-5.144962,166.5, -21.5, 0,0,0,1684,1024,1198,1024,100,0,26,0,0,0,0,99,,,,,,,0,32,9859.5951061894,38.057744,6,P-GPS,
9400,2023-10-08 21:43:43,38.4982647076955,-112.064341983624,38.713912,,,9860.2512741894,27.559056,2.0579848,3.4612862,5.3326117192,16,5,0,9860.2512741894,38.713912,2.0579848,3.4612862,-2.013246,0.447388,-4.47388,165.9, -23.2, 0.4,0,0,1684,1024,1196,1024,100,0,26,0,0,0,0,99,,,,,,,0,32,9860.2512741894,38.713912,6,P-GPS,
9500,2023-10-08 21:43:43,38.4982636381649,-112.064341589317,39.37008,,,9860.9074421894,27.559056,2.0579848,3.77788726,5.7387469028,16,5,0,9860.9074421894,39.37008,2.0579848,3.77788726,-2.684328,0.671082,-3.579104,165.7, -24.2, 1,0,0,1684,1024,1205,1024,100,0,27,0,0,0,0,99,,,,,,,0,32,9860.9074421894,39.37008,6,P-GPS,
9600,2023-10-08 21:43:43,38.4982620831668,-112.064340582683,40.026248,,,9861.5636101894,27.559056,3.2659324,4.358267856,6.3747705452,16,5,0,9861.5636101894,40.026248,3.2659324,4.358267856,-3.131716,0.894776,-2.684328,165.5, -24.2, 1.6,0,0,1684,1024,1235,1136,100,0,32,17,0,0,0,99,,,,,,,0,32,9861.5636101894,40.026248,6,P-GPS,
9700,2023-10-08 21:43:43,38.4982604914292,-112.064339966076,40.354332,,,9861.8916941894,27.559056,3.9593838,4.8816602612,6.9815947116,16,5,0,9861.8916941894,40.354332,3.9593838,4.8816602612,-3.802798,1.11847,-2.23694,165.4, -23.4, 2.1,0,0,1684,1024,1245,1160,100,0,33,21,0,0,0,99,,,,,,,0,32,9861.8916941894,40.354332,6,P-GPS,
9800,2023-10-08 21:43:43,38.4982583105935,-112.06433887705,40.682416,,,9862.2197781894,27.559056,4.6752046,5.6723755096,7.8358926392,16,5,0,9862.2197781894,40.682416,4.6752046,5.6723755096,-4.47388,1.342164,-1.789552,165.5, -22.3, 3.2,0,0,1684,1024,1245,1137,100,0,33,17,0,0,0,99,,,,,,,0,32,9862.2197781894,40.682416,6,P-GPS,
9900,2023-10-08 21:43:43,38.4982561020598,-112.064338052408,41.0105,,,9862.5478621894,27.559056,4.6752046,6.439632752,8.67536117,16,5,0,9862.5478621894,41.0105,4.6752046,6.439632752,-5.368656,1.565858,-1.565858,165.9, -20.7, 4.4,0,0,1684,1024,1243,1139,100,0,33,17,0,0,0,99,,,,,,,0,32,9862.5478621894,41.0105,6,P-GPS,
10000,2023-10-08 21:43:43,38.4982533411151,-112.064336600963,41.0105,,,9862.5478621894,27.559056,6.2410626,7.4913388224,9.7646328584,16,5,0,9862.5478621894,41.0105,6.2410626,7.4913388224,-6.039738,1.565858,-1.342164,166.4, -19.1, 5.2,0,0,1684,1024,1238,1119,100,0,32,14,0,0,0,99,,,,,,,0,32,9862.5478621894,41.0105,6,P-GPS,
10100,2023-10-08 21:43:43,38.498250519811,-112.064335665982,41.338584,,,9862.8759461894,27.559056,6.2410626,8.4879923976,10.8280515276,16,5,0,9862.8759461894,41.338584,6.2410626,8.4879923976,-6.934514,1.565858,-1.342164,166.8, -18, 5.4,0,0,1684,1024,1225,1102,100,0,30,12,0,0,0,99,,,,,,,0,32,9862.8759461894,41.338584,6,P-GPS,
10200,2023-10-08 21:43:44,38.4982466652922,-112.064334727563,41.338584,,,9862.8759461894,27.559056,7.8069206,9.8228021516,12.2596460616,16,5,0,9862.8759461894,41.338584,7.8069206,9.8228021516,-7.605596,1.789552,-1.342164,167.1, -17.6, 5,0,0,1684,1024,1226,1107,100,0,31,13,0,0,0,99,,,,,,,0,32,9862.8759461894,41.338584,6,P-GPS,
10300,2023-10-08 21:43:44,38.498243246872,-112.064333779417,41.666668,,,9863.2040301894,27.559056,8.4780026,11.0426184636,13.53592563,16,5,0,9863.2040301894,41.666668,8.4780026,11.0426184636,-8.276678,1.789552,-1.342164,167.3, -17.8, 4.4,0,0,1684,1024,1217,1082,100,0,29,9,0,0,0,99,,,,,,,0,32,9863.2040301894,41.666668,6,P-GPS,
10400,2023-10-08 21:43:44,38.4982396730697,-112.064332683656,41.994752,,,9863.5321141894,27.559056,9.1267152,12.343504332,14.8768377464,16,5,0,9863.5321141894,41.994752,9.1267152,12.343504332,-8.94776,1.789552,-1.342164,167.2, -18.6, 4,0,0,1684,1024,1212,1051,100,0,28,4,0,0,0,99,,,,,,,0,32,9863.5321141894,41.994752,6,P-GPS,
10500,2023-10-08 21:43:44,38.4982357260298,-112.064331670611,41.994752,,,9863.5321141894,27.559056,9.8201666,13.7651579208,16.3456698144,16,5,0,9863.5321141894,41.994752,9.8201666,13.7651579208,-9.618842,2.013246,-1.342164,167.2, -19.3, 3.5,0,0,1684,1024,1188,1043,100,0,25,3,0,0,0,99,,,,,,,0,32,9863.5321141894,41.994752,6,P-GPS,
10600,2023-10-08 21:43:44,38.498231621557,-112.064331299938,42.322836,,,9863.8601981894,27.559056,10.7149426,15.1754926116,17.8469165816,16,5,0,9863.8601981894,42.322836,10.7149426,15.1754926116,-10.513618,2.013246,-1.342164,167, -19.6, 2.4,0,0,1684,1024,1157,1024,100,0,20,0,0,0,0,99,,,,,,,0,32,9863.8601981894,42.322836,6,P-GPS,
10700,2023-10-08 21:43:44,38.4982271140239,-112.064330239658,42.322836,,,9863.8601981894,27.559056,11.408394,16.8110569684,19.5191279212,16,5,0,9863.8601981894,42.322836,11.408394,16.8110569684,-11.1847,2.23694,-1.342164,166.7, -19.7, 0.7,0,0,1684,1024,1123,1024,100,0,15,0,0,0,0,99,,,,,,,0,32,9863.8601981894,42.322836,6,P-GPS,
10800,2023-10-08 21:43:44,38.4982226833822,-112.064328968529,42.65092,,,9864.1882821894,27.559056,12.1018454,18.4484585956,21.1758865044,16,5,0,9864.1882821894,42.65092,12.1018454,18.4484585956,-11.855782,2.460634,-1.11847,166.3, -19.5, -1.1,0,0,1684,1024,1104,1024,100,0,12,0,0,0,0,99,,,,,,,0,32,9864.1882821894,42.65092,6,P-GPS,
10900,2023-10-08 21:43:44,38.4982176946685,-112.06432764378,42.65092,,,9864.1882821894,27.559056,12.5939722,20.2853681032,23.0349088736,16,5,0,9864.1882821894,42.65092,12.5939722,20.2853681032,-12.30317,2.684328,-1.11847,165.9, -19.2, -2.4,0,0,1684,1024,1078,1024,100,0,8,0,0,0,0,99,,,,,,,0,32,9864.1882821894,42.65092,6,P-GPS,
11000,2023-10-08 21:43:44,38.4982122935694,-112.064326214244,42.979004,,,9864.5163661894,27.559056,12.5939722,22.2778222352,25.0473105128,16,5,0,9864.5163661894,42.979004,12.5939722,22.2778222352,-12.974252,3.131716,-0.894776,165.5, -18.7, -2.7,0,0,1684,1024,1024,1024,100,0,0,0,0,0,0,99,,,,,,,0,32,9864.5163661894,42.979004,6,P-GPS,
11100,2023-10-08 21:43:45,38.498206855568,-112.06432453299,42.979004,,,9864.5163661894,27.559056,13.8913974,24.3095152136,27.0886163524,16,5,0,9864.5163661894,42.979004,13.8913974,24.3095152136,-13.42164,3.579104,-0.671082,165.1, -18.4, -1.9,0,0,1684,1024,1024,1024,100,0,0,0,0,0,0,99,,,,,,,0,32,9864.5163661894,42.979004,6,P-GPS,
11200,2023-10-08 21:43:45,38.498201370941,-112.064322632009,42.979004,,,9864.5163661894,27.559056,14.3835242,26.3788066184,29.1620088072,16,5,0,9864.5163661894,42.979004,14.3835242,26.3788066184,-13.869028,3.802798,-0.447388,164.7, -18.2, -0.3,0,0,1684,1024,1024,1024,100,0,0,0,0,0,0,99,,,,,,,0,32,9864.5163661894,42.979004,6,P-GPS,
11300,2023-10-08 21:43:45,38.4981955432247,-112.064320659898,43.307088,,,9864.8444501894,27.559056,15.0322368,28.5738854288,31.36154956,16,5,0,9864.8444501894,43.307088,15.0322368,28.5738854288,-14.54011,3.802798,-0.223694,164.4, -18.2, 1.2,0,0,1684,1024,1024,1024,100,0,0,0,0,0,0,99,,,,,,,0,32,9864.8444501894,43.307088,6,P-GPS,
11400,2023-10-08 21:43:45,38.4981897457828,-112.064318589659,43.307088,,,9864.8444501894,27.559056,15.5243636,30.7678487536,33.557743856,16,5,0,9864.8444501894,43.307088,15.5243636,30.7678487536,-14.987498,4.026492,0,164.2, -18.2, 2.3,0,0,1684,1024,1024,1024,100,0,0,0,0,0,0,99,,,,,,,0,32,9864.8444501894,43.307088,6,P-GPS,
11500,2023-10-08 21:43:45,38.4981835175279,-112.064316443523,43.307088,,,9864.8444501894,27.559056,15.9493822,33.11843938,35.911418472,16,5,0,9864.8444501894,43.307088,15.9493822,33.11843938,-15.434886,4.026492,0,164.2, -18, 2.6,0,0,1684,1024,1024,1024,100,0,0,0,0,0,0,99,,,,,,,0,32,9864.8444501894,43.307088,6,P-GPS,
11600,2023-10-08 21:43:45,38.4981769354241,-112.064313880303,43.307088,,,9864.8444501894,27.559056,16.665203,35.628610064,38.42191724,16,5,0,9864.8444501894,43.307088,16.665203,35.628610064,-16.105968,4.250186,0,164.1, -17.7, 2.5,0,0,1669,1024,1024,1024,98,0,0,0,0,0,0,99,,,,,,,0,32,9864.8444501894,43.307088,6,P-GPS,
11700,2023-10-08 21:43:45,38.4981702817936,-112.06431156971,42.979004,,,9864.5163661894,27.559056,17.0902216,38.141733504,40.937665352,16,5,0,9864.8444501894,43.307088,17.0902216,38.141733504,-16.553356,4.250186,0,164.2, -17.4, 2,0,0,1641,1024,1024,1024,93,0,0,0,0,0,0,99,,,,,,,0,32,9864.5163661894,42.979004,6,P-GPS,
11800,2023-10-08 21:43:45,38.4981634543,-112.064309369325,42.979004,,,9864.5163661894,27.559056,17.5823484,40.706038048,43.506563072,16,5,0,9864.8444501894,43.307088,17.5823484,40.706038048,-17.000744,4.47388,0,164.1, -17.8, 1.3,0,0,1576,1024,1024,1024,84,0,0,0,0,0,0,99,,,,,,,0,32,9864.5163661894,42.979004,6,P-GPS,
11900,2023-10-08 21:43:45,38.4981564133223,-112.064306926727,42.979004,,,9864.5163661894,27.559056,18.0744752,43.36614312,46.168308564,16,5,0,9864.8444501894,43.307088,18.0744752,43.36614312,-17.448132,4.697574,0,164, -18.6, 0.9,0,0,1548,1024,1024,1024,79,0,0,0,0,0,0,99,,,,,,,0,32,9864.5163661894,42.979004,6,P-GPS,
12000,2023-10-08 21:43:45,38.4981496091628,-112.064304811813,42.979004,,,9864.5163661894,27.559056,18.7679266,45.916011968,48.723426756,16,5,0,9864.8444501894,43.307088,18.7679266,45.916011968,-18.119214,4.921268,0,163.9, -19.1, 0.7,0,0,1511,1024,1024,1024,74,0,0,0,0,0,0,99,,,,,,,0,32,9864.5163661894,42.979004,6,P-GPS,
12100,2023-10-08 21:43:46,38.4981421723004,-112.064302200653,42.979004,,,9864.5163661894,27.559056,19.2600534,48.7286761,51.53707514,16,5,0,9864.8444501894,43.307088,19.2600534,48.7286761,-18.566602,5.144962,0.223694,163.7, -18.4, 1,0,0,1511,1024,1024,1024,74,0,0,0,0,0,0,99,,,,,,,0,32,9864.5163661894,42.979004,6,P-GPS,
12200,2023-10-08 21:43:46,38.4981337145488,-112.064299395355,42.979004,,,9864.5163661894,27.559056,19.908766,51.914043656,54.725395452,16,5,0,9864.8444501894,43.307088,19.908766,51.914043656,-19.237684,5.144962,0,163.5, -16.4, 1.6,0,0,1403,1024,1024,1024,57,0,0,0,0,0,0,99,,,,,,,0,32,9864.5163661894,42.979004,6,P-GPS,
12300,2023-10-08 21:43:46,38.4981258076463,-112.064296607563,42.65092,,,9864.1882821894,27.559056,20.4008928,54.905841652,57.717849616,16,5,0,9864.8444501894,43.307088,20.4008928,54.905841652,-19.685072,5.368656,0,163.6, -13.7, 2.1,0,0,1356,1024,1024,1024,50,0,0,0,0,0,0,99,,,,,,,0,32,9864.1882821894,42.65092,6,P-GPS,
12400,2023-10-08 21:43:46,38.4981178704737,-112.064293895995,42.65092,,,9864.1882821894,27.559056,20.6245868,57.90190474,60.715553124,16,5,0,9864.8444501894,43.307088,20.6245868,57.90190474,-19.908766,5.368656,0,163.8, -10.7, 2.1,0,0,1327,1024,1024,1024,46,0,0,0,0,0,0,99,,,,,,,0,32,9864.1882821894,42.65092,6,P-GPS,
12500,2023-10-08 21:43:46,38.4981097469617,-112.064291071249,42.65092,,,9864.1882821894,27.559056,20.8259114,60.972442896,63.787075532,16,5,0,9864.8444501894,43.307088,20.8259114,60.972442896,-20.13246,5.368656,0,164.1, -8, 2,0,0,1284,1024,1024,1024,39,0,0,0,0,0,0,99,,,,,,,0,32,9864.1882821894,42.65092,6,P-GPS,
12600,2023-10-08 21:43:46,38.4981018390147,-112.064287980715,42.65092,,,9864.1882821894,27.559056,20.8259114,63.989831444,66.80446408,16,5,0,9864.8444501894,43.307088,20.8259114,63.989831444,-20.13246,5.368656,0,164.3, -5.7, 1.8,0,0,1253,1024,1024,1024,35,0,0,0,0,0,0,99,,,,,,,0,32,9864.1882821894,42.65092,6,P-GPS,
12700,2023-10-08 21:43:46,38.4980936846588,-112.064285147539,42.65092,,,9864.1882821894,27.559056,20.8259114,67.07185254,69.887469428,16,5,0,9864.8444501894,43.307088,20.8259114,67.07185254,-20.13246,5.368656,0,164.4, -3.7, 1.5,0,0,1245,1024,1024,1024,33,0,0,0,0,0,0,99,,,,,,,0,32,9864.1882821894,42.65092,6,P-GPS,
12800,2023-10-08 21:43:46,38.4980854521571,-112.06428281209,42.65092,,,9864.1882821894,27.559056,20.8259114,70.141406444,72.96424118,16,5,0,9864.8444501894,43.307088,20.8259114,70.141406444,-20.13246,5.368656,0,164.5, -1.5, 1.4,0,0,1249,1024,1024,1024,34,0,0,0,0,0,0,99,,,,,,,0,32,9864.1882821894,42.65092,6,P-GPS,
12900,2023-10-08 21:43:46,38.4980773876615,-112.064280056204,42.65092,,,9864.1882821894,27.559056,20.6245868,73.186025964,76.009844952,16,5,0,9864.8444501894,43.307088,20.8259114,73.186025964,-19.908766,5.368656,0,164.8, 0.2, 1.6,0,0,1263,1024,1024,1024,36,0,0,0,0,0,0,99,,,,,,,0,32,9864.1882821894,42.65092,6,P-GPS,
13000,2023-10-08 21:43:46,38.4980695814088,-112.064277546727,42.65092,,,9864.1882821894,27.559056,20.6245868,76.121065428,78.94685292,16,5,0,9864.8444501894,43.307088,20.8259114,76.121065428,-19.685072,5.368656,0,165.1, 0.8, 2.1,0,0,1286,1024,1024,1024,40,0,0,0,0,0,0,99,,,,,,,0,32,9864.1882821894,42.65092,6,P-GPS,
13100,2023-10-08 21:43:46,38.4980617792492,-112.064274890823,42.65092,,,9864.1882821894,27.559056,19.908766,79.065947412,81.892719156,16,5,0,9864.8444501894,43.307088,20.8259114,79.065947412,-19.237684,5.144962,-0.223694,165.4, 0, 2.5,0,0,1305,1024,1024,1024,43,0,0,0,0,0,0,99,,,,,,,0,32,9864.1882821894,42.65092,6,P-GPS,
13200,2023-10-08 21:43:47,38.4980542115959,-112.064272370455,42.65092,,,9864.1882821894,27.559056,19.7074414,81.918309708,84.746065704,16,5,0,9864.8444501894,43.307088,20.8259114,81.918309708,-19.01399,5.144962,-0.223694,165.7, -2.3, 2.8,0,0,1301,1024,1024,1024,42,0,0,0,0,0,0,99,,,,,,,0,32,9864.1882821894,42.65092,6,P-GPS,
13300,2023-10-08 21:43:47,38.4980466083719,-112.064269811644,42.65092,,,9864.1882821894,27.559056,19.4166392,84.786091952,87.6148322,16,5,0,9864.8444501894,43.307088,20.8259114,84.786091952,-18.790296,4.921268,0,165.6, -4.8, 2.3,0,0,1334,1024,1024,1024,47,0,0,0,0,0,0,99,,,,,,,0,32,9864.1882821894,42.65092,6,P-GPS,
13400,2023-10-08 21:43:47,38.4980388882286,-112.064267065566,42.65092,,,9864.1882821894,27.559056,19.4166392,87.709648476,90.538388724,16,5,0,9864.8444501894,43.307088,20.8259114,87.709648476,-18.790296,4.921268,0,165.3, -6, 1.2,0,0,1336,1024,1024,1024,47,0,0,0,0,0,0,98,,,,,,,0,32,9864.1882821894,42.65092,6,P-GPS,
13500,2023-10-08 21:43:47,38.4980313249253,-112.064264500141,42.65092,,,9864.1882821894,27.559056,19.4166392,90.56430736,93.393703776,16,5,0,9864.8444501894,43.307088,20.8259114,90.56430736,-18.790296,4.921268,0,164.8, -6, 0.1,0,0,1355,1024,1024,1024,50,0,0,0,0,0,0,98,,,,,,,0,32,9864.1882821894,42.65092,6,P-GPS,
13600,2023-10-08 21:43:47,38.4980239721176,-112.064262124549,42.65092,,,9864.1882821894,27.559056,19.2600534,93.33005548,96.160764232,16,5,0,9864.8444501894,43.307088,20.8259114,93.33005548,-18.566602,5.144962,0,164.4, -5.1, -0.2,0,0,1359,1024,1024,1024,51,0,0,0,0,0,0,98,,,,,,,0,32,9864.1882821894,42.65092,6,P-GPS,
13700,2023-10-08 21:43:47,38.4980165028017,-112.064259509379,42.322836,,,9863.8601981894,27.559056,19.0587288,96.155514888,98.98622364,16,5,0,9864.8444501894,43.307088,20.8259114,96.155514888,-18.342908,5.144962,0,164, -4.2, 0,0,0,1366,1024,1024,1024,52,0,0,0,0,0,0,98,,,,,,,0,32,9863.8601981894,42.322836,6,P-GPS,
13800,2023-10-08 21:43:47,38.4980090965781,-112.064256883065,42.322836,,,9863.8601981894,27.559056,19.0587288,98.959648836,101.790685672,16,5,0,9864.8444501894,43.307088,20.8259114,98.959648836,-18.342908,5.144962,0,163.7, -3.8, 1.1,0,0,1384,1024,1024,1024,55,0,0,0,0,0,0,98,,,,,,,0,32,9863.8601981894,42.322836,6,P-GPS,
13900,2023-10-08 21:43:47,38.4980017404308,-112.064254254153,42.322836,,,9863.8601981894,27.559056,18.8350348,101.746394332,104.577431168,16,5,0,9864.8444501894,43.307088,20.8259114,101.746394332,-18.119214,5.144962,0,163.5, -4.2, 2.1,0,0,1369,1024,1024,1024,52,0,0,0,0,0,0,98,,,,,,,0,32,9863.8601981894,42.322836,6,P-GPS,
14000,2023-10-08 21:43:47,38.4979943392593,-112.064251591235,42.322836,,,9863.8601981894,27.559056,18.7679266,104.551840616,107.382877452,16,5,0,9864.8444501894,43.307088,20.8259114,104.551840616,-18.119214,4.921268,0,163.4, -5.1, 2.5,0,0,1379,1024,1024,1024,54,0,0,0,0,0,0,98,,,,,,,0,32,9863.8601981894,42.322836,6,P-GPS,
14100,2023-10-08 21:43:48,38.497987051479,-112.064248996974,42.322836,,,9863.8601981894,27.559056,18.566602,107.312011308,110.143048144,16,5,0,9864.8444501894,43.307088,20.8259114,107.312011308,-17.89552,4.921268,0,163.4, -6.6, 2.3,0,0,1378,1024,1024,1024,54,0,0,0,0,0,0,98,,,,,,,0,32,9863.8601981894,42.322836,6,P-GPS,
14200,2023-10-08 21:43:48,38.4979800662637,-112.064246587272,42.322836,,,9863.8601981894,27.559056,18.566602,109.951447088,112.782812008,16,5,0,9864.8444501894,43.307088,20.8259114,109.951447088,-17.89552,4.921268,0,163.5, -8.1, 1.9,0,0,1378,1024,1024,1024,54,0,0,0,0,0,0,98,,,,,,,0,32,9863.8601981894,42.322836,6,P-GPS,
14300,2023-10-08 21:43:48,38.4979728364207,-112.064243999117,42.322836,,,9863.8601981894,27.559056,18.566602,112.690620404,115.522313408,16,5,0,9864.8444501894,43.307088,20.8259114,112.690620404,-17.89552,4.921268,0,163.7, -8.9, 1.7,0,0,1387,1024,1024,1024,55,0,0,0,0,0,0,98,,,,,,,0,32,9863.8601981894,42.322836,6,P-GPS,
14400,2023-10-08 21:43:48,38.4979655877047,-112.064241429999,42.322836,,,9863.8601981894,27.559056,18.6113408,115.435371148,118.266736068,16,5,0,9864.8444501894,43.307088,20.8259114,115.435371148,-17.89552,5.144962,0,163.8, -9.1, 1.9,0,0,1381,1024,1024,1024,54,0,0,0,0,0,0,98,,,,,,,0,32,9863.8601981894,42.322836,6,P-GPS,
14500,2023-10-08 21:43:48,38.4979583353581,-112.064238819556,42.322836,,,9863.8601981894,27.559056,18.6113408,118.1840589,121.015751904,16,5,0,9864.8444501894,43.307088,20.8259114,118.1840589,-17.89552,5.144962,0,163.9, -8.7, 2.3,0,0,1364,1024,1024,957,52,0,0,-10,0,0,0,98,,,,,,,0,32,9863.8601981894,42.322836,6,P-GPS,
14600,2023-10-08 21:43:48,38.4979511154823,-112.064236149975,42.322836,,,9863.8601981894,27.559056,18.6113408,120.926513056,123.757877976,16,5,0,9864.8444501894,43.307088,20.8259114,120.926513056,-17.89552,5.144962,0,164.1, -8, 2.7,0,0,1402,1024,1024,976,57,0,0,-7,0,0,0,98,,,,,,,0,32,9863.8601981894,42.322836,6,P-GPS,
14700,2023-10-08 21:43:48,38.4979438607723,-112.064233558449,42.322836,,,9863.8601981894,27.559056,18.566602,123.674872724,126.506237644,16,5,0,9864.8444501894,43.307088,20.8259114,123.674872724,-17.89552,4.921268,-0.223694,164.3, -7.9, 2.4,0,0,1391,1024,1024,958,56,0,0,-10,0,0,0,98,,,,,,,0,32,9863.8601981894,42.322836,6,P-GPS,
14800,2023-10-08 21:43:48,38.4979365302284,-112.064231139327,42.65092,,,9864.1882821894,27.559056,18.566602,126.436355752,129.268704924,16,5,0,9864.8444501894,43.307088,20.8259114,126.436355752,-17.89552,4.921268,-0.223694,164.4, -8.6, 1.3,0,0,1392,1024,1024,962,56,0,0,-9,0,0,0,98,,,,,,,0,32,9864.1882821894,42.65092,6,P-GPS,
14900,2023-10-08 21:43:48,38.497929268942,-112.064228567134,42.65092,,,9864.1882821894,27.559056,18.566602,129.185371588,132.01772076,16,5,0,9864.8444501894,43.307088,20.8259114,129.185371588,-17.89552,4.921268,-0.223694,164.4, -9.7, -0.1,0,0,1411,1024,1024,959,59,0,0,-10,0,0,0,98,,,,,,,0,32,9864.1882821894,42.65092,6,P-GPS,
15000,2023-10-08 21:43:48,38.4979219696016,-112.064225972611,42.65092,,,9864.1882821894,27.559056,18.8350348,131.949807372,134.782156544,16,5,0,9864.8444501894,43.307088,20.8259114,131.949807372,-18.119214,5.144962,-0.223694,164.3, -10.5, -0.9,0,0,1390,1024,1024,966,55,0,0,-9,0,0,0,98,,,,,,,0,32,9864.1882821894,42.65092,6,P-GPS,
15100,2023-10-08 21:43:49,38.4979146761183,-112.064223301082,42.65092,,,9864.1882821894,27.559056,18.8350348,134.71785208,137.550201252,16,5,0,9864.8444501894,43.307088,20.8259114,134.71785208,-18.119214,5.144962,-0.223694,164.2, -11, -1.3,0,0,1414,1024,1024,944,59,0,0,-12,0,0,0,98,,,,,,,0,32,9864.1882821894,42.65092,6,P-GPS,
15200,2023-10-08 21:43:49,38.4979073826008,-112.064220676623,42.65092,,,9864.1882821894,27.559056,18.902143,137.482287864,140.31496512,16,5,0,9864.8444501894,43.307088,20.8259114,137.482287864,-18.119214,5.368656,-0.223694,163.8, -10.9, -1.2,0,0,1420,1024,1024,876,60,0,0,-22,0,0,0,98,,,,,,,0,32,9864.1882821894,42.65092,6,P-GPS,
15300,2023-10-08 21:43:49,38.4979000611336,-112.064217903033,42.65092,,,9864.1882821894,27.559056,18.902143,140.268377192,143.101054448,16,5,0,9864.8444501894,43.307088,20.8259114,140.268377192,-18.119214,5.368656,-0.223694,163.5, -10.2, -1.5,0,0,1424,1024,1003,843,61,0,-3,-27,0,0,0,98,,,,,,,0,32,9864.1882821894,42.65092,6,P-GPS,
15400,2023-10-08 21:43:49,38.4978920903171,-112.064214787734,42.65092,,,9864.1882821894,27.559056,18.902143,143.309059704,146.142065044,16,5,0,9864.8444501894,43.307088,20.8259114,143.309059704,-18.119214,5.368656,-0.223694,163.2, -9.8, -3.9,0,0,1423,1024,1024,843,60,0,0,-27,0,0,0,98,,,,,,,0,32,9864.1882821894,42.65092,6,P-GPS,
15500,2023-10-08 21:43:49,38.4978847139097,-112.064211854302,42.979004,,,9864.5163661894,27.559056,18.9692512,146.126645096,148.960634688,16,5,0,9864.8444501894,43.307088,20.8259114,146.126645096,-18.119214,5.59235,0,162.6, -9.9, -8.3,0,0,1429,1024,1024,863,61,0,0,-24,0,0,0,98,,,,,,,0,32,9864.5163661894,42.979004,6,P-GPS,
15600,2023-10-08 21:43:49,38.4978779939419,-112.064209061871,42.979004,,,9864.5163661894,27.559056,19.1034676,148.703088748,151.539046844,16,5,0,9864.8444501894,43.307088,20.8259114,148.703088748,-18.119214,6.039738,0,161.5, -10.1, -11.8,0,0,1418,1024,1024,855,60,0,0,-26,0,0,0,98,,,,,,,0,32,9864.5163661894,42.979004,6,P-GPS,
15700,2023-10-08 21:43:49,38.4978707423146,-112.064205706322,42.979004,,,9864.5163661894,27.559056,19.1034676,151.510503536,154.353023312,16,5,0,9864.8444501894,43.307088,20.8259114,151.510503536,-17.89552,6.71082,0,160.2, -10.1, -13.8,0,0,1444,1024,1024,896,64,0,0,-19,0,0,0,98,,,,,,,0,32,9864.5163661894,42.979004,6,P-GPS,
15800,2023-10-08 21:43:49,38.4978639719964,-112.064202199639,42.979004,,,9864.5163661894,27.559056,19.2824228,154.161422256,157.018377728,16,5,0,9864.8444501894,43.307088,20.8259114,154.161422256,-17.89552,7.158208,0,158.8, -10, -13.6,0,0,1444,1024,1024,869,64,0,0,-23,0,0,0,98,,,,,,,0,32,9864.5163661894,42.979004,6,P-GPS,
15900,2023-10-08 21:43:49,38.4978568808055,-112.064198268334,42.979004,,,9864.5163661894,27.559056,19.3271616,156.958994524,159.838587792,16,5,0,9864.8444501894,43.307088,20.8259114,156.958994524,-17.671826,7.82929,0,157.4, -10, -10.6,0,0,1425,1024,1013,861,61,0,-2,-25,0,0,0,98,,,,,,,0,32,9864.5163661894,42.979004,6,P-GPS,
16000,2023-10-08 21:43:49,38.4978500415037,-112.064193980198,42.979004,,,9864.5163661894,27.559056,19.3271616,159.697839756,162.61811544,16,5,0,9864.8444501894,43.307088,20.8259114,159.697839756,-17.671826,8.276678,0,156.4, -10, -7.5,0,0,1425,1024,1013,861,61,0,-2,-25,0,0,0,98,,,,,,,0,32,9864.5163661894,42.979004,6,P-GPS,
16100,2023-10-08 21:43:50,38.497843066427,-112.064189634663,42.979004,,,9864.5163661894,27.559056,19.4166392,162.490490764,165.449152276,16,5,0,9864.8444501894,43.307088,20.8259114,162.490490764,-17.448132,8.500372,0,155.5, -10.2, -6.4,0,0,1410,1024,1024,905,58,0,0,-18,0,0,0,98,,,,,,,0,32,9864.5163661894,42.979004,6,P-GPS,
16200,2023-10-08 21:43:50,38.4978354840624,-112.064184687486,42.979004,,,9864.5163661894,27.559056,19.5061168,165.545937056,168.555451588,16,5,0,9864.8444501894,43.307088,20.8259114,165.545937056,-17.448132,8.724066,0,154.7, -10.3, -5.8,0,0,1412,1024,1024,861,59,0,0,-25,0,0,0,98,,,,,,,0,32,9864.5163661894,42.979004,6,P-GPS,
16300,2023-10-08 21:43:50,38.4978285220358,-112.064180008569,42.979004,,,9864.5163661894,27.559056,19.5061168,168.364834784,171.42553042,16,5,0,9864.8444501894,43.307088,20.8259114,168.364834784,-17.224438,8.94776,0,153.7, -10, -4.8,0,0,1432,1024,1022,865,62,0,-0,-24,0,0,0,98,,,,,,,0,32,9864.5163661894,42.979004,6,P-GPS,
16400,2023-10-08 21:43:50,38.4978220891341,-112.064175524254,42.979004,,,9864.5163661894,27.559056,19.3271616,170.98425744,174.099086936,16,5,0,9864.8444501894,43.307088,20.8259114,170.98425744,-17.000744,9.171454,0,153, -9.7, -6,0,0,1414,1024,1017,849,59,0,-1,-27,0,0,0,98,,,,,,,0,32,9864.5163661894,42.979004,6,P-GPS,
16500,2023-10-08 21:43:50,38.497815230891,-112.064170623939,42.979004,,,9864.5163661894,27.559056,19.3271616,173.788719472,176.965884928,16,5,0,9864.8444501894,43.307088,20.8259114,173.788719472,-16.77705,9.618842,0,152.1, -9.9, -7.5,0,0,1399,1024,1022,855,57,0,-0,-26,0,0,0,98,,,,,,,0,32,9864.5163661894,42.979004,6,P-GPS,
16600,2023-10-08 21:43:50,38.4978087552085,-112.064165821318,42.979004,,,9864.5163661894,27.559056,19.2600534,176.454073888,179.697840396,16,5,0,9864.8444501894,43.307088,20.8259114,176.454073888,-16.553356,9.842536,0,151.2, -10.5, -9.5,0,0,1398,1024,1024,886,57,0,0,-21,0,0,0,98,,,,,,,0,32,9864.5163661894,42.979004,6,P-GPS,
16700,2023-10-08 21:43:50,38.4978020263694,-112.064160570671,42.979004,,,9864.5163661894,27.559056,19.4837474,179.248037232,182.574480908,16,5,0,9864.8444501894,43.307088,20.8259114,179.248037232,-16.553356,10.289924,0,150.1, -11.1, -10.6,0,0,1426,1024,1024,880,61,0,0,-22,0,0,0,98,,,,,,,0,32,9864.5163661894,42.979004,6,P-GPS,
16800,2023-10-08 21:43:50,38.4977946206081,-112.064154659189,42.979004,,,9864.5163661894,27.559056,19.8640272,182.337932344,185.760504632,16,5,0,9864.8444501894,43.307088,20.8259114,182.337932344,-16.553356,10.961006,0,148.6, -11.1, -9.5,0,0,1432,1024,1024,875,62,0,0,-23,0,0,0,98,,,,,,,0,32,9864.5163661894,42.979004,6,P-GPS,
16900,2023-10-08 21:43:50,38.4977879389683,-112.064148891016,42.979004,,,9864.5163661894,27.559056,19.9311354,185.16732876,188.70243386,16,5,0,9864.8444501894,43.307088,20.8259114,185.16732876,-16.329662,11.408394,0,147, -10.1, -7.9,0,0,1421,1024,1024,859,60,0,0,-25,0,0,0,98,,,,,,,0,32,9864.5163661894,42.979004,6,P-GPS,
17000,2023-10-08 21:43:50,38.4977811446394,-112.064142778321,42.979004,,,9864.5163661894,27.559056,19.9311354,188.070544076,191.734258104,16,5,0,9864.8444501894,43.307088,20.8259114,188.070544076,-16.329662,11.632088,0,145.5, -8.9, -7.9,0,0,1415,1024,1024,881,59,0,0,-22,0,0,0,98,,,,,,,0,32,9864.5163661894,42.979004,6,P-GPS,
17100,2023-10-08 21:43:51,38.4977745890127,-112.064136651228,42.979004,,,9864.5163661894,27.559056,20.3114152,190.896659652,194.697512792,16,5,0,9864.8444501894,43.307088,20.8259114,190.896659652,-16.329662,12.079476,0,144.2, -8.2, -9,0,0,1412,1024,1012,871,59,0,-2,-23,0,0,0,98,,,,,,,0,32,9864.5163661894,42.979004,6,P-GPS,
17200,2023-10-08 21:43:51,38.4977675286829,-112.064129727473,42.979004,,,9864.5163661894,27.559056,20.0877212,193.975071824,197.944888224,16,5,0,9864.8444501894,43.307088,20.8259114,193.975071824,-15.882274,12.30317,0,143, -8.1, -10,0,0,1420,1024,1005,866,60,0,-3,-24,0,0,0,98,,,,,,,0,32,9864.5163661894,42.979004,6,P-GPS,
17300,2023-10-08 21:43:51,38.4977611549001,-112.064123165658,42.979004,,,9864.5163661894,27.559056,20.1995682,196.788392124,200.931108792,16,5,0,9864.8444501894,43.307088,20.8259114,196.788392124,-15.65858,12.750558,0,141.9, -8.3, -9.7,0,0,1435,1024,1024,883,62,0,0,-21,0,0,0,98,,,,,,,0,32,9864.5163661894,42.979004,6,P-GPS,
17400,2023-10-08 21:43:51,38.4977554846191,-112.064117083621,42.979004,,,9864.5163661894,27.559056,20.13246,199.318904016,203.632224364,16,5,0,9864.8444501894,43.307088,20.8259114,199.318904016,-15.211192,13.197946,0,140.9, -8.8, -8.8,0,0,1432,1024,1024,883,62,0,0,-21,0,0,0,98,,,,,,,0,32,9864.5163661894,42.979004,6,P-GPS,
17500,2023-10-08 21:43:51,38.4977493591975,-112.064110217636,42.979004,,,9864.5163661894,27.559056,20.1100906,202.086292556,206.605321572,16,5,0,9864.8444501894,43.307088,20.8259114,202.086292556,-14.987498,13.42164,0,140, -9.3, -7.3,0,0,1426,1024,1024,881,61,0,0,-22,0,0,0,98,,,,,,,0,32,9864.5163661894,42.979004,6,P-GPS,
17600,2023-10-08 21:43:51,38.4977432130877,-112.06410294483,42.979004,,,9864.5163661894,27.559056,20.1100906,204.907158788,209.661424032,16,5,0,9864.8444501894,43.307088,20.8259114,204.907158788,-14.763804,13.645334,0,139.2, -9.8, -5.6,0,0,1428,1024,1024,877,61,0,0,-22,0,0,0,98,,,,,,,0,32,9864.5163661894,42.979004,6,P-GPS,
17700,2023-10-08 21:43:51,38.4977372183717,-112.064095779774,42.979004,,,9864.5163661894,27.559056,20.2666764,207.671922656,212.656502868,16,5,0,9864.8444501894,43.307088,20.8259114,207.671922656,-14.763804,13.869028,0,138.4, -9.8, -4.4,0,0,1444,1024,1015,885,64,0,-1,-21,0,0,0,98,,,,,,,0,32,9864.5163661894,42.979004,6,P-GPS,
17800,2023-10-08 21:43:51,38.4977312212923,-112.064088387445,42.979004,,,9864.5163661894,27.559056,20.244307,210.466870252,215.696529212,16,5,0,9864.8444501894,43.307088,20.8259114,210.466870252,-14.54011,14.092722,0,137.7, -9.6, -4.2,0,0,1426,1024,1024,902,61,0,0,-18,0,0,0,98,,,,,,,0,32,9864.5163661894,42.979004,6,P-GPS,
17900,2023-10-08 21:43:51,38.497725303198,-112.064081011593,42.979004,,,9864.5163661894,27.559056,20.4008928,213.240164304,218.712933508,16,5,0,9864.8444501894,43.307088,20.8259114,213.240164304,-14.54011,14.316416,0,136.8, -9.7, -4.9,0,0,1419,1024,1024,917,60,0,0,-16,0,0,0,98,,,,,,,0,32,9864.5163661894,42.979004,6,P-GPS,
18000,2023-10-08 21:43:51,38.497719370855,-112.064073580859,42.979004,,,9864.5163661894,27.559056,20.4008928,216.030518724,221.7437735,16,5,0,9864.8444501894,43.307088,20.8259114,216.030518724,-14.316416,14.54011,0,136, -9.9, -5.3,0,0,1417,1024,1024,935,60,0,0,-13,0,0,0,98,,,,,,,0,32,9864.5163661894,42.979004,6,P-GPS,
18100,2023-10-08 21:43:52,38.4977135408911,-112.064065981147,42.979004,,,9864.5163661894,27.559056,20.4008928,218.81070254,224.782487508,16,5,0,9864.8444501894,43.307088,20.8259114,218.81070254,-14.092722,14.763804,0,135.2, -9.6, -4.4,0,0,1428,1024,1024,922,61,0,0,-15,0,0,0,98,,,,,,,0,32,9864.5163661894,42.979004,6,P-GPS,
18200,2023-10-08 21:43:52,38.4977074127978,-112.064057646724,42.979004,,,9864.5163661894,27.559056,20.579848,221.777566152,228.04790756,16,5,0,9864.8444501894,43.307088,20.8259114,221.777566152,-14.092722,14.987498,0,134.5, -9, -2.6,0,0,1427,1024,1024,903,61,0,0,-18,0,0,0,98,,,,,,,0,32,9864.5163661894,42.979004,6,P-GPS,
18300,2023-10-08 21:43:52,38.4977016184217,-112.064049838754,42.979004,,,9864.5163661894,27.559056,20.579848,224.582684352,231.12041422,16,5,0,9864.8444501894,43.307088,20.8259114,224.582684352,-14.092722,14.987498,0,133.8, -8.6, -2,0,0,1428,1024,1024,940,61,0,0,-13,0,0,0,98,,,,,,,0,32,9864.5163661894,42.979004,6,P-GPS,
18400,2023-10-08 21:43:52,38.4976963249468,-112.06404259131,42.979004,,,9864.5163661894,27.559056,20.4232622,227.164049264,233.951122972,16,5,0,9864.8444501894,43.307088,20.8259114,227.164049264,-13.869028,14.987498,0,133.2, -8.5, -2.7,0,0,1398,1024,1024,961,57,0,0,-10,0,0,0,98,,,,,,,0,32,9864.5163661894,42.979004,6,P-GPS,
18500,2023-10-08 21:43:52,38.4976906203452,-112.064034729334,42.979004,,,9864.5163661894,27.559056,20.579848,229.958340692,237.012474776,16,5,0,9864.8444501894,43.307088,20.8259114,229.958340692,-13.869028,15.211192,0,132.5, -9.1, -3.4,0,0,1406,1024,1024,944,58,0,0,-12,0,0,0,98,,,,,,,0,32,9864.5163661894,42.979004,6,P-GPS,
18600,2023-10-08 21:43:52,38.497685008635,-112.064026682055,42.979004,,,9864.5163661894,27.559056,20.579848,232.74935128,240.089902696,16,5,0,9864.8444501894,43.307088,20.8259114,232.74935128,-13.645334,15.434886,0,131.9, -9.7, -3.4,0,0,1406,1024,1024,944,58,0,0,-12,0,0,0,98,,,,,,,0,32,9864.5163661894,42.979004,6,P-GPS,
18700,2023-10-08 21:43:52,38.4976793955548,-112.064018647227,42.979004,,,9864.5163661894,27.559056,20.7588032,235.546595464,243.165362112,16,5,0,9864.8444501894,43.307088,20.8259114,235.546595464,-13.645334,15.65858,0,131.5, -9.6, -3.1,0,0,1417,1024,1024,948,60,0,0,-12,0,0,0,98,,,,,,,0,32,9864.5163661894,42.979004,6,P-GPS,
18800,2023-10-08 21:43:52,38.4976737801453,-112.064010457404,42.979004,,,9864.5163661894,27.559056,20.7588032,238.3694302,246.274286096,16,5,0,9864.8444501894,43.307088,20.8259114,238.3694302,-13.645334,15.65858,0,131, -9.1, -2.7,0,0,1414,1024,1024,951,59,0,0,-11,0,0,0,98,,,,,,,0,32,9864.5163661894,42.979004,6,P-GPS,
18900,2023-10-08 21:43:52,38.4976682225533,-112.064002282111,42.979004,,,9864.5163661894,27.559056,20.803542,241.178485408,249.366477796,16,5,0,9864.8444501894,43.307088,20.8259114,241.178485408,-13.42164,15.882274,0,130.5, -8.4, -2.3,0,0,1407,1024,1024,942,58,0,0,-12,0,0,0,98,,,,,,,0,32,9864.5163661894,42.979004,6,P-GPS,
19000,2023-10-08 21:43:52,38.4976625148005,-112.063994101479,42.979004,,,9864.5163661894,27.559056,20.803542,244.044955316,252.496071072,16,5,0,9864.8444501894,43.307088,20.8259114,244.044955316,-13.42164,15.882274,0,130.1, -8.1, -2.1,0,0,1419,1024,1024,906,60,0,0,-18,0,0,0,98,,,,,,,0,32,9864.5163661894,42.979004,6,P-GPS,
19100,2023-10-08 21:43:53,38.4976570125597,-112.063985845482,42.979004,,,9864.5163661894,27.559056,20.803542,246.8586037,255.59219978,16,5,0,9864.8444501894,43.307088,20.8259114,246.8586037,-13.42164,15.882274,0,129.7, -8.1, -2.4,0,0,1418,1024,1023,910,60,0,-0,-17,0,0,0,98,,,,,,,0,32,9864.5163661894,42.979004,6,P-GPS,
